[
  {
    "id": 81232,
    "name": "Altavas",
    "state_id": 1331,
    "state_code": "AKL",
    "country_id": 174,
    "country_code": "PH",
    "latitude": "11.51937220",
    "longitude": "122.38395760",
    "native": null,
    "timezone": null,
    "translations": {}
  },
  {
    "id": 81462,
    "name": "Balete",
    "state_id": 1331,
    "state_code": "AKL",
    "country_id": 174,
    "country_code": "PH",
    "latitude": "11.52259720",
    "longitude": "122.29336200",
    "native": null,
    "timezone": null,
    "translations": {}
  },
  {
    "id": 81522,
    "name": "Banga",
    "state_id": 1331,
    "state_code": "AKL",
    "country_id": 174,
    "country_code": "PH",
    "latitude": "11.59926330",
    "longitude": "122.29023350",
    "native": null,
    "timezone": null,
    "translations": {}
  },
  {
    "id": 81613,
    "name": "Batan",
    "state_id": 1331,
    "state_code": "AKL",
    "country_id": 174,
    "country_code": "PH",
    "latitude": "11.56991310",
    "longitude": "122.31240560",
    "native": null,
    "timezone": null,
    "translations": {}
  },
  {
    "id": 81914,
    "name": "Buruanga",
    "state_id": 1331,
    "state_code": "AKL",
    "country_id": 174,
    "country_code": "PH",
    "latitude": "11.82986870",
    "longitude": "121.84434010",
    "native": null,
    "timezone": null,
    "translations": {}
  },
  {
    "id": 82709,
    "name": "Ibajay",
    "state_id": 1331,
    "state_code": "AKL",
    "country_id": 174,
    "country_code": "PH",
    "latitude": "11.73394600",
    "longitude": "122.07758510",
    "native": null,
    "timezone": null,
    "translations": {}
  },
  {
    "id": 154475,
    "name": "Kalibo",
    "state_id": 1331,
    "state_code": "AKL",
    "country_id": 174,
    "country_code": "PH",
    "latitude": "11.69854460",
    "longitude": "122.33619590",
    "native": null,
    "timezone": null,
    "translations": {}
  },
  {
    "id": 154476,
    "name": "Lezo",
    "state_id": 1331,
    "state_code": "AKL",
    "country_id": 174,
    "country_code": "PH",
    "latitude": "11.68036010",
    "longitude": "122.27302710",
    "native": null,
    "timezone": null,
    "translations": {}
  },
  {
    "id": 83075,
    "name": "Libacao",
    "state_id": 1331,
    "state_code": "AKL",
    "country_id": 174,
    "country_code": "PH",
    "latitude": "11.41467410",
    "longitude": "122.20092380",
    "native": null,
    "timezone": null,
    "translations": {}
  },
  {
    "id": 83308,
    "name": "Madalag",
    "state_id": 1331,
    "state_code": "AKL",
    "country_id": 174,
    "country_code": "PH",
    "latitude": "11.44121480",
    "longitude": "122.07375060",
    "native": null,
    "timezone": null,
    "translations": {}
  },
  {
    "id": 83376,
    "name": "Makato",
    "state_id": 1331,
    "state_code": "AKL",
    "country_id": 174,
    "country_code": "PH",
    "latitude": "11.71366850",
    "longitude": "122.18036730",
    "native": null,
    "timezone": null,
    "translations": {}
  },
  {
    "id": 83415,
    "name": "Malay",
    "state_id": 1331,
    "state_code": "AKL",
    "country_id": 174,
    "country_code": "PH",
    "latitude": "11.91246850",
    "longitude": "121.86493950",
    "native": null,
    "timezone": null,
    "translations": {}
  },
  {
    "id": 83434,
    "name": "Malinao",
    "state_id": 1331,
    "state_code": "AKL",
    "country_id": 174,
    "country_code": "PH",
    "latitude": "11.60513720",
    "longitude": "122.15049950",
    "native": null,
    "timezone": null,
    "translations": {}
  },
  {
    "id": 83736,
    "name": "Nabas",
    "state_id": 1331,
    "state_code": "AKL",
    "country_id": 174,
    "country_code": "PH",
    "latitude": "11.85230360",
    "longitude": "121.95579400",
    "native": null,
    "timezone": null,
    "translations": {}
  },
  {
    "id": 83813,
    "name": "New Washington",
    "state_id": 1331,
    "state_code": "AKL",
    "country_id": 174,
    "country_code": "PH",
    "latitude": "11.63431580",
    "longitude": "122.34151430",
    "native": null,
    "timezone": null,
    "translations": {}
  },
  {
    "id": 83831,
    "name": "Numancia",
    "state_id": 1331,
    "state_code": "AKL",
    "country_id": 174,
    "country_code": "PH",
    "latitude": "11.71329610",
    "longitude": "122.29263690",
    "native": null,
    "timezone": null,
    "translations": {}
  },
  {
    "id": 85035,
    "name": "Tangalan",
    "state_id": 1331,
    "state_code": "AKL",
    "country_id": 174,
    "country_code": "PH",
    "latitude": "11.73931560",
    "longitude": "122.16096950",
    "native": null,
    "timezone": null,
    "translations": {}
  }
]