[
  {
    "id": 85787,
    "name": "Augustów",
    "state_id": 1632,
    "state_code": "20",
    "country_id": 176,
    "country_code": "PL",
    "latitude": "53.84321000",
    "longitude": "22.97979000",
    "native": null,
    "timezone": null,
    "translations": {}
  },
  {
    "id": 85845,
    "name": "Białowieża",
    "state_id": 1632,
    "state_code": "20",
    "country_id": 176,
    "country_code": "PL",
    "latitude": "52.70000000",
    "longitude": "23.86667000",
    "native": null,
    "timezone": null,
    "translations": {}
  },
  {
    "id": 85850,
    "name": "Białystok",
    "state_id": 1632,
    "state_code": "20",
    "country_id": 176,
    "country_code": "PL",
    "latitude": "53.13333000",
    "longitude": "23.16433000",
    "native": null,
    "timezone": null,
    "translations": {}
  },
  {
    "id": 85860,
    "name": "Bielsk Podlaski",
    "state_id": 1632,
    "state_code": "20",
    "country_id": 176,
    "country_code": "PL",
    "latitude": "52.76512000",
    "longitude": "23.18647000",
    "native": null,
    "timezone": null,
    "translations": {}
  },
  {
    "id": 85933,
    "name": "Boćki",
    "state_id": 1632,
    "state_code": "20",
    "country_id": 176,
    "country_code": "PL",
    "latitude": "52.65155000",
    "longitude": "23.04485000",
    "native": null,
    "timezone": null,
    "translations": {}
  },
  {
    "id": 85937,
    "name": "Brańsk",
    "state_id": 1632,
    "state_code": "20",
    "country_id": 176,
    "country_code": "PL",
    "latitude": "52.74440000",
    "longitude": "22.83774000",
    "native": null,
    "timezone": null,
    "translations": {}
  },
  {
    "id": 86052,
    "name": "Choroszcz",
    "state_id": 1632,
    "state_code": "20",
    "country_id": 176,
    "country_code": "PL",
    "latitude": "53.14332000",
    "longitude": "22.98889000",
    "native": null,
    "timezone": null,
    "translations": {}
  },
  {
    "id": 86076,
    "name": "Ciechanowiec",
    "state_id": 1632,
    "state_code": "20",
    "country_id": 176,
    "country_code": "PL",
    "latitude": "52.67828000",
    "longitude": "22.49815000",
    "native": null,
    "timezone": null,
    "translations": {}
  },
  {
    "id": 86105,
    "name": "Czarna Białostocka",
    "state_id": 1632,
    "state_code": "20",
    "country_id": 176,
    "country_code": "PL",
    "latitude": "53.30509000",
    "longitude": "23.28146000",
    "native": null,
    "timezone": null,
    "translations": {}
  },
  {
    "id": 86126,
    "name": "Czeremcha",
    "state_id": 1632,
    "state_code": "20",
    "country_id": 176,
    "country_code": "PL",
    "latitude": "52.51667000",
    "longitude": "23.35000000",
    "native": null,
    "timezone": null,
    "translations": {}
  },
  {
    "id": 86148,
    "name": "Czyżew",
    "state_id": 1632,
    "state_code": "20",
    "country_id": 176,
    "country_code": "PL",
    "latitude": "52.79768000",
    "longitude": "22.31237000",
    "native": null,
    "timezone": null,
    "translations": {}
  },
  {
    "id": 86238,
    "name": "Dąbrowa Białostocka",
    "state_id": 1632,
    "state_code": "20",
    "country_id": 176,
    "country_code": "PL",
    "latitude": "53.65364000",
    "longitude": "23.34792000",
    "native": null,
    "timezone": null,
    "translations": {}
  },
  {
    "id": 86179,
    "name": "Dobrzyniewo Duże",
    "state_id": 1632,
    "state_code": "20",
    "country_id": 176,
    "country_code": "PL",
    "latitude": "53.20022000",
    "longitude": "23.01129000",
    "native": null,
    "timezone": null,
    "translations": {}
  },
  {
    "id": 86200,
    "name": "Drohiczyn",
    "state_id": 1632,
    "state_code": "20",
    "country_id": 176,
    "country_code": "PL",
    "latitude": "52.40011000",
    "longitude": "22.65853000",
    "native": null,
    "timezone": null,
    "translations": {}
  },
  {
    "id": 86270,
    "name": "Filipów",
    "state_id": 1632,
    "state_code": "20",
    "country_id": 176,
    "country_code": "PL",
    "latitude": "54.18037000",
    "longitude": "22.62076000",
    "native": null,
    "timezone": null,
    "translations": {}
  },
  {
    "id": 86331,
    "name": "Goniadz",
    "state_id": 1632,
    "state_code": "20",
    "country_id": 176,
    "country_code": "PL",
    "latitude": "53.48953000",
    "longitude": "22.73578000",
    "native": null,
    "timezone": null,
    "translations": {}
  },
  {
    "id": 86370,
    "name": "Grajewo",
    "state_id": 1632,
    "state_code": "20",
    "country_id": 176,
    "country_code": "PL",
    "latitude": "53.64728000",
    "longitude": "22.45537000",
    "native": null,
    "timezone": null,
    "translations": {}
  },
  {
    "id": 86384,
    "name": "Grudki",
    "state_id": 1632,
    "state_code": "20",
    "country_id": 176,
    "country_code": "PL",
    "latitude": "53.09488000",
    "longitude": "23.66848000",
    "native": null,
    "timezone": null,
    "translations": {}
  },
  {
    "id": 86439,
    "name": "Hajnówka",
    "state_id": 1632,
    "state_code": "20",
    "country_id": 176,
    "country_code": "PL",
    "latitude": "52.74328000",
    "longitude": "23.58122000",
    "native": null,
    "timezone": null,
    "translations": {}
  },
  {
    "id": 86545,
    "name": "Jedwabne",
    "state_id": 1632,
    "state_code": "20",
    "country_id": 176,
    "country_code": "PL",
    "latitude": "53.28554000",
    "longitude": "22.30353000",
    "native": null,
    "timezone": null,
    "translations": {}
  },
  {
    "id": 86646,
    "name": "Kleszczele",
    "state_id": 1632,
    "state_code": "20",
    "country_id": 176,
    "country_code": "PL",
    "latitude": "52.57314000",
    "longitude": "23.32539000",
    "native": null,
    "timezone": null,
    "translations": {}
  },
  {
    "id": 86659,
    "name": "Knyszyn",
    "state_id": 1632,
    "state_code": "20",
    "country_id": 176,
    "country_code": "PL",
    "latitude": "53.31406000",
    "longitude": "22.91963000",
    "native": null,
    "timezone": null,
    "translations": {}
  },
  {
    "id": 86679,
    "name": "Kolno",
    "state_id": 1632,
    "state_code": "20",
    "country_id": 176,
    "country_code": "PL",
    "latitude": "53.41148000",
    "longitude": "21.92905000",
    "native": null,
    "timezone": null,
    "translations": {}
  },
  {
    "id": 86771,
    "name": "Krasnopol",
    "state_id": 1632,
    "state_code": "20",
    "country_id": 176,
    "country_code": "PL",
    "latitude": "54.11613000",
    "longitude": "23.20476000",
    "native": null,
    "timezone": null,
    "translations": {}
  },
  {
    "id": 86797,
    "name": "Krynki",
    "state_id": 1632,
    "state_code": "20",
    "country_id": 176,
    "country_code": "PL",
    "latitude": "53.26444000",
    "longitude": "23.77304000",
    "native": null,
    "timezone": null,
    "translations": {}
  },
  {
    "id": 86847,
    "name": "Kuźnica",
    "state_id": 1632,
    "state_code": "20",
    "country_id": 176,
    "country_code": "PL",
    "latitude": "53.51094000",
    "longitude": "23.64953000",
    "native": null,
    "timezone": null,
    "translations": {}
  },
  {
    "id": 86921,
    "name": "Lipsk",
    "state_id": 1632,
    "state_code": "20",
    "country_id": 176,
    "country_code": "PL",
    "latitude": "53.73312000",
    "longitude": "23.40225000",
    "native": null,
    "timezone": null,
    "translations": {}
  },
  {
    "id": 88768,
    "name": "Łapy",
    "state_id": 1632,
    "state_code": "20",
    "country_id": 176,
    "country_code": "PL",
    "latitude": "52.99110000",
    "longitude": "22.88422000",
    "native": null,
    "timezone": null,
    "translations": {}
  },
  {
    "id": 88786,
    "name": "Łomża",
    "state_id": 1632,
    "state_code": "20",
    "country_id": 176,
    "country_code": "PL",
    "latitude": "53.17806000",
    "longitude": "22.05935000",
    "native": null,
    "timezone": null,
    "translations": {}
  },
  {
    "id": 87010,
    "name": "Mały Płock",
    "state_id": 1632,
    "state_code": "20",
    "country_id": 176,
    "country_code": "PL",
    "latitude": "53.30385000",
    "longitude": "22.02836000",
    "native": null,
    "timezone": null,
    "translations": {}
  },
  {
    "id": 87021,
    "name": "Michałowo",
    "state_id": 1632,
    "state_code": "20",
    "country_id": 176,
    "country_code": "PL",
    "latitude": "53.03492000",
    "longitude": "23.60996000",
    "native": null,
    "timezone": null,
    "translations": {}
  },
  {
    "id": 87048,
    "name": "Milejczyce",
    "state_id": 1632,
    "state_code": "20",
    "country_id": 176,
    "country_code": "PL",
    "latitude": "52.51967000",
    "longitude": "23.13206000",
    "native": null,
    "timezone": null,
    "translations": {}
  },
  {
    "id": 87100,
    "name": "Mońki",
    "state_id": 1632,
    "state_code": "20",
    "country_id": 176,
    "country_code": "PL",
    "latitude": "53.40496000",
    "longitude": "22.79791000",
    "native": null,
    "timezone": null,
    "translations": {}
  },
  {
    "id": 87138,
    "name": "Narew",
    "state_id": 1632,
    "state_code": "20",
    "country_id": 176,
    "country_code": "PL",
    "latitude": "52.91418000",
    "longitude": "23.51984000",
    "native": null,
    "timezone": null,
    "translations": {}
  },
  {
    "id": 87196,
    "name": "Nowogród",
    "state_id": 1632,
    "state_code": "20",
    "country_id": 176,
    "country_code": "PL",
    "latitude": "53.22698000",
    "longitude": "21.88210000",
    "native": null,
    "timezone": null,
    "translations": {}
  },
  {
    "id": 87213,
    "name": "Nurzec-Stacja",
    "state_id": 1632,
    "state_code": "20",
    "country_id": 176,
    "country_code": "PL",
    "latitude": "52.46249000",
    "longitude": "23.08571000",
    "native": null,
    "timezone": null,
    "translations": {}
  },
  {
    "id": 87266,
    "name": "Orla",
    "state_id": 1632,
    "state_code": "20",
    "country_id": 176,
    "country_code": "PL",
    "latitude": "52.70546000",
    "longitude": "23.33213000",
    "native": null,
    "timezone": null,
    "translations": {}
  },
  {
    "id": 87402,
    "name": "Piątnica",
    "state_id": 1632,
    "state_code": "20",
    "country_id": 176,
    "country_code": "PL",
    "latitude": "53.19657000",
    "longitude": "22.09591000",
    "native": null,
    "timezone": null,
    "translations": {}
  },
  {
    "id": 87458,
    "name": "Powiat augustowski",
    "state_id": 1632,
    "state_code": "20",
    "country_id": 176,
    "country_code": "PL",
    "latitude": "53.79742000",
    "longitude": "23.14275000",
    "native": null,
    "timezone": null,
    "translations": {}
  },
  {
    "id": 87464,
    "name": "Powiat białostocki",
    "state_id": 1632,
    "state_code": "20",
    "country_id": 176,
    "country_code": "PL",
    "latitude": "53.09897000",
    "longitude": "23.59314000",
    "native": null,
    "timezone": null,
    "translations": {}
  },
  {
    "id": 87466,
    "name": "Powiat bielski",
    "state_id": 1632,
    "state_code": "20",
    "country_id": 176,
    "country_code": "PL",
    "latitude": "52.74629000",
    "longitude": "23.00669000",
    "native": null,
    "timezone": null,
    "translations": {}
  },
  {
    "id": 87512,
    "name": "Powiat grajewski",
    "state_id": 1632,
    "state_code": "20",
    "country_id": 176,
    "country_code": "PL",
    "latitude": "53.55509000",
    "longitude": "22.48995000",
    "native": null,
    "timezone": null,
    "translations": {}
  },
  {
    "id": 87522,
    "name": "Powiat hajnowski",
    "state_id": 1632,
    "state_code": "20",
    "country_id": 176,
    "country_code": "PL",
    "latitude": "52.70845000",
    "longitude": "23.55719000",
    "native": null,
    "timezone": null,
    "translations": {}
  },
  {
    "id": 87541,
    "name": "Powiat kolneński",
    "state_id": 1632,
    "state_code": "20",
    "country_id": 176,
    "country_code": "PL",
    "latitude": "53.39186000",
    "longitude": "21.93631000",
    "native": null,
    "timezone": null,
    "translations": {}
  },
  {
    "id": 87750,
    "name": "Powiat łomżyński",
    "state_id": 1632,
    "state_code": "20",
    "country_id": 176,
    "country_code": "PL",
    "latitude": "53.20686000",
    "longitude": "22.08252000",
    "native": null,
    "timezone": null,
    "translations": {}
  },
  {
    "id": 87591,
    "name": "Powiat moniecki",
    "state_id": 1632,
    "state_code": "20",
    "country_id": 176,
    "country_code": "PL",
    "latitude": "53.44561000",
    "longitude": "22.78144000",
    "native": null,
    "timezone": null,
    "translations": {}
  },
  {
    "id": 87669,
    "name": "Powiat sejneński",
    "state_id": 1632,
    "state_code": "20",
    "country_id": 176,
    "country_code": "PL",
    "latitude": "54.09561000",
    "longitude": "23.30425000",
    "native": null,
    "timezone": null,
    "translations": {}
  },
  {
    "id": 87671,
    "name": "Powiat siemiatycki",
    "state_id": 1632,
    "state_code": "20",
    "country_id": 176,
    "country_code": "PL",
    "latitude": "52.48842000",
    "longitude": "22.88642000",
    "native": null,
    "timezone": null,
    "translations": {}
  },
  {
    "id": 87678,
    "name": "Powiat sokólski",
    "state_id": 1632,
    "state_code": "20",
    "country_id": 176,
    "country_code": "PL",
    "latitude": "53.43511000",
    "longitude": "23.41864000",
    "native": null,
    "timezone": null,
    "translations": {}
  },
  {
    "id": 87690,
    "name": "Powiat suwalski",
    "state_id": 1632,
    "state_code": "20",
    "country_id": 176,
    "country_code": "PL",
    "latitude": "54.16655000",
    "longitude": "22.81818000",
    "native": null,
    "timezone": null,
    "translations": {}
  },
  {
    "id": 87727,
    "name": "Powiat wysokomazowiecki",
    "state_id": 1632,
    "state_code": "20",
    "country_id": 176,
    "country_code": "PL",
    "latitude": "52.86458000",
    "longitude": "22.55541000",
    "native": null,
    "timezone": null,
    "translations": {}
  },
  {
    "id": 87736,
    "name": "Powiat zambrowski",
    "state_id": 1632,
    "state_code": "20",
    "country_id": 176,
    "country_code": "PL",
    "latitude": "53.02256000",
    "longitude": "22.28505000",
    "native": null,
    "timezone": null,
    "translations": {}
  },
  {
    "id": 87854,
    "name": "Puńsk",
    "state_id": 1632,
    "state_code": "20",
    "country_id": 176,
    "country_code": "PL",
    "latitude": "54.25114000",
    "longitude": "23.18124000",
    "native": null,
    "timezone": null,
    "translations": {}
  },
  {
    "id": 87875,
    "name": "Raczki",
    "state_id": 1632,
    "state_code": "20",
    "country_id": 176,
    "country_code": "PL",
    "latitude": "53.98749000",
    "longitude": "22.78487000",
    "native": null,
    "timezone": null,
    "translations": {}
  },
  {
    "id": 87901,
    "name": "Radziłów",
    "state_id": 1632,
    "state_code": "20",
    "country_id": 176,
    "country_code": "PL",
    "latitude": "53.40994000",
    "longitude": "22.40988000",
    "native": null,
    "timezone": null,
    "translations": {}
  },
  {
    "id": 87907,
    "name": "Rajgród",
    "state_id": 1632,
    "state_code": "20",
    "country_id": 176,
    "country_code": "PL",
    "latitude": "53.73102000",
    "longitude": "22.70515000",
    "native": null,
    "timezone": null,
    "translations": {}
  },
  {
    "id": 87974,
    "name": "Rudka",
    "state_id": 1632,
    "state_code": "20",
    "country_id": 176,
    "country_code": "PL",
    "latitude": "52.72439000",
    "longitude": "22.72676000",
    "native": null,
    "timezone": null,
    "translations": {}
  },
  {
    "id": 87990,
    "name": "Rutki-Kossaki",
    "state_id": 1632,
    "state_code": "20",
    "country_id": 176,
    "country_code": "PL",
    "latitude": "53.08932000",
    "longitude": "22.44011000",
    "native": null,
    "timezone": null,
    "translations": {}
  },
  {
    "id": 88055,
    "name": "Sejny",
    "state_id": 1632,
    "state_code": "20",
    "country_id": 176,
    "country_code": "PL",
    "latitude": "54.10802000",
    "longitude": "23.34698000",
    "native": null,
    "timezone": null,
    "translations": {}
  },
  {
    "id": 88072,
    "name": "Siemiatycze",
    "state_id": 1632,
    "state_code": "20",
    "country_id": 176,
    "country_code": "PL",
    "latitude": "52.42719000",
    "longitude": "22.86231000",
    "native": null,
    "timezone": null,
    "translations": {}
  },
  {
    "id": 88836,
    "name": "Śniadowo",
    "state_id": 1632,
    "state_code": "20",
    "country_id": 176,
    "country_code": "PL",
    "latitude": "53.03874000",
    "longitude": "21.99077000",
    "native": null,
    "timezone": null,
    "translations": {}
  },
  {
    "id": 88141,
    "name": "Sokółka",
    "state_id": 1632,
    "state_code": "20",
    "country_id": 176,
    "country_code": "PL",
    "latitude": "53.40715000",
    "longitude": "23.50228000",
    "native": null,
    "timezone": null,
    "translations": {}
  },
  {
    "id": 88138,
    "name": "Sokoły",
    "state_id": 1632,
    "state_code": "20",
    "country_id": 176,
    "country_code": "PL",
    "latitude": "52.99314000",
    "longitude": "22.70050000",
    "native": null,
    "timezone": null,
    "translations": {}
  },
  {
    "id": 88200,
    "name": "Stawiski",
    "state_id": 1632,
    "state_code": "20",
    "country_id": 176,
    "country_code": "PL",
    "latitude": "53.37987000",
    "longitude": "22.15462000",
    "native": null,
    "timezone": null,
    "translations": {}
  },
  {
    "id": 88251,
    "name": "Suchowola",
    "state_id": 1632,
    "state_code": "20",
    "country_id": 176,
    "country_code": "PL",
    "latitude": "53.57753000",
    "longitude": "23.10596000",
    "native": null,
    "timezone": null,
    "translations": {}
  },
  {
    "id": 88264,
    "name": "Supraśl",
    "state_id": 1632,
    "state_code": "20",
    "country_id": 176,
    "country_code": "PL",
    "latitude": "53.20526000",
    "longitude": "23.33934000",
    "native": null,
    "timezone": null,
    "translations": {}
  },
  {
    "id": 88265,
    "name": "Suraż",
    "state_id": 1632,
    "state_code": "20",
    "country_id": 176,
    "country_code": "PL",
    "latitude": "52.94908000",
    "longitude": "22.95653000",
    "native": null,
    "timezone": null,
    "translations": {}
  },
  {
    "id": 88269,
    "name": "Suwałki",
    "state_id": 1632,
    "state_code": "20",
    "country_id": 176,
    "country_code": "PL",
    "latitude": "54.10272000",
    "longitude": "22.92914000",
    "native": null,
    "timezone": null,
    "translations": {}
  },
  {
    "id": 88300,
    "name": "Szczuczyn",
    "state_id": 1632,
    "state_code": "20",
    "country_id": 176,
    "country_code": "PL",
    "latitude": "53.56330000",
    "longitude": "22.28534000",
    "native": null,
    "timezone": null,
    "translations": {}
  },
  {
    "id": 88308,
    "name": "Szepietowo",
    "state_id": 1632,
    "state_code": "20",
    "country_id": 176,
    "country_code": "PL",
    "latitude": "52.87032000",
    "longitude": "22.54392000",
    "native": null,
    "timezone": null,
    "translations": {}
  },
  {
    "id": 88318,
    "name": "Szumowo",
    "state_id": 1632,
    "state_code": "20",
    "country_id": 176,
    "country_code": "PL",
    "latitude": "52.91884000",
    "longitude": "22.08449000",
    "native": null,
    "timezone": null,
    "translations": {}
  },
  {
    "id": 88426,
    "name": "Turośń Kościelna",
    "state_id": 1632,
    "state_code": "20",
    "country_id": 176,
    "country_code": "PL",
    "latitude": "53.01463000",
    "longitude": "23.05532000",
    "native": null,
    "timezone": null,
    "translations": {}
  },
  {
    "id": 88438,
    "name": "Tykocin",
    "state_id": 1632,
    "state_code": "20",
    "country_id": 176,
    "country_code": "PL",
    "latitude": "53.20567000",
    "longitude": "22.77457000",
    "native": null,
    "timezone": null,
    "translations": {}
  },
  {
    "id": 88484,
    "name": "Wasilków",
    "state_id": 1632,
    "state_code": "20",
    "country_id": 176,
    "country_code": "PL",
    "latitude": "53.19909000",
    "longitude": "23.20776000",
    "native": null,
    "timezone": null,
    "translations": {}
  },
  {
    "id": 88635,
    "name": "Wąsosz",
    "state_id": 1632,
    "state_code": "20",
    "country_id": 176,
    "country_code": "PL",
    "latitude": "53.52209000",
    "longitude": "22.31915000",
    "native": null,
    "timezone": null,
    "translations": {}
  },
  {
    "id": 88554,
    "name": "Wizna",
    "state_id": 1632,
    "state_code": "20",
    "country_id": 176,
    "country_code": "PL",
    "latitude": "53.19518000",
    "longitude": "22.38241000",
    "native": null,
    "timezone": null,
    "translations": {}
  },
  {
    "id": 88622,
    "name": "Wysokie Mazowieckie",
    "state_id": 1632,
    "state_code": "20",
    "country_id": 176,
    "country_code": "PL",
    "latitude": "52.91661000",
    "longitude": "22.51712000",
    "native": null,
    "timezone": null,
    "translations": {}
  },
  {
    "id": 88623,
    "name": "Wyszki",
    "state_id": 1632,
    "state_code": "20",
    "country_id": 176,
    "country_code": "PL",
    "latitude": "52.84129000",
    "longitude": "22.98119000",
    "native": null,
    "timezone": null,
    "translations": {}
  },
  {
    "id": 88663,
    "name": "Zabłudów",
    "state_id": 1632,
    "state_code": "20",
    "country_id": 176,
    "country_code": "PL",
    "latitude": "53.01442000",
    "longitude": "23.33831000",
    "native": null,
    "timezone": null,
    "translations": {}
  },
  {
    "id": 88690,
    "name": "Zambrów",
    "state_id": 1632,
    "state_code": "20",
    "country_id": 176,
    "country_code": "PL",
    "latitude": "52.98550000",
    "longitude": "22.24319000",
    "native": null,
    "timezone": null,
    "translations": {}
  },
  {
    "id": 88712,
    "name": "Zbójna",
    "state_id": 1632,
    "state_code": "20",
    "country_id": 176,
    "country_code": "PL",
    "latitude": "53.24293000",
    "longitude": "21.78812000",
    "native": null,
    "timezone": null,
    "translations": {}
  }
]