[
  {
    "id": 157014,
    "name": "Alto Alegre",
    "state_id": 4858,
    "state_code": "RR",
    "country_id": 31,
    "country_code": "BR",
    "latitude": "2.98862450",
    "longitude": "-61.32004260",
    "native": null,
    "timezone": null,
    "translations": {}
  },
  {
    "id": 142968,
    "name": "Amajari",
    "state_id": 4858,
    "state_code": "RR",
    "country_id": 31,
    "country_code": "BR",
    "latitude": "3.65416667",
    "longitude": "-61.41694444",
    "native": null,
    "timezone": null,
    "translations": {}
  },
  {
    "id": 142969,
    "name": "Boa Vista",
    "state_id": 4858,
    "state_code": "RR",
    "country_id": 31,
    "country_code": "BR",
    "latitude": "2.82000000",
    "longitude": "-60.67194444",
    "native": null,
    "timezone": null,
    "translations": {}
  },
  {
    "id": 142970,
    "name": "Bonfim",
    "state_id": 4858,
    "state_code": "RR",
    "country_id": 31,
    "country_code": "BR",
    "latitude": "3.36000000",
    "longitude": "-59.83277778",
    "native": null,
    "timezone": null,
    "translations": {}
  },
  {
    "id": 142971,
    "name": "Cantá",
    "state_id": 4858,
    "state_code": "RR",
    "country_id": 31,
    "country_code": "BR",
    "latitude": "2.61000000",
    "longitude": "-60.59694444",
    "native": null,
    "timezone": null,
    "translations": {}
  },
  {
    "id": 142972,
    "name": "Caracaraí",
    "state_id": 4858,
    "state_code": "RR",
    "country_id": 31,
    "country_code": "BR",
    "latitude": "1.81583333",
    "longitude": "-61.12777778",
    "native": null,
    "timezone": null,
    "translations": {}
  },
  {
    "id": 142973,
    "name": "Caroebe",
    "state_id": 4858,
    "state_code": "RR",
    "country_id": 31,
    "country_code": "BR",
    "latitude": "0.88388889",
    "longitude": "-59.69583333",
    "native": null,
    "timezone": null,
    "translations": {}
  },
  {
    "id": 142974,
    "name": "Iracema",
    "state_id": 4858,
    "state_code": "RR",
    "country_id": 31,
    "country_code": "BR",
    "latitude": "2.18194444",
    "longitude": "-61.04083333",
    "native": null,
    "timezone": null,
    "translations": {}
  },
  {
    "id": 142975,
    "name": "Mucajaí",
    "state_id": 4858,
    "state_code": "RR",
    "country_id": 31,
    "country_code": "BR",
    "latitude": "2.43000000",
    "longitude": "-60.90000000",
    "native": null,
    "timezone": null,
    "translations": {}
  },
  {
    "id": 142976,
    "name": "Normandia",
    "state_id": 4858,
    "state_code": "RR",
    "country_id": 31,
    "country_code": "BR",
    "latitude": "3.88083333",
    "longitude": "-59.62277778",
    "native": null,
    "timezone": null,
    "translations": {}
  },
  {
    "id": 142977,
    "name": "Pacaraima",
    "state_id": 4858,
    "state_code": "RR",
    "country_id": 31,
    "country_code": "BR",
    "latitude": "4.43083333",
    "longitude": "-61.14583333",
    "native": null,
    "timezone": null,
    "translations": {}
  },
  {
    "id": 142978,
    "name": "Rorainópolis",
    "state_id": 4858,
    "state_code": "RR",
    "country_id": 31,
    "country_code": "BR",
    "latitude": "0.94583333",
    "longitude": "-60.41777778",
    "native": null,
    "timezone": null,
    "translations": {}
  },
  {
    "id": 142979,
    "name": "São João da Baliza",
    "state_id": 4858,
    "state_code": "RR",
    "country_id": 31,
    "country_code": "BR",
    "latitude": "0.95083333",
    "longitude": "-59.91083333",
    "native": null,
    "timezone": null,
    "translations": {}
  },
  {
    "id": 142980,
    "name": "São Luís",
    "state_id": 4858,
    "state_code": "RR",
    "country_id": 31,
    "country_code": "BR",
    "latitude": "1.00500000",
    "longitude": "-60.15888889",
    "native": null,
    "timezone": null,
    "translations": {}
  },
  {
    "id": 142981,
    "name": "Uiramutã",
    "state_id": 4858,
    "state_code": "RR",
    "country_id": 31,
    "country_code": "BR",
    "latitude": "4.59583333",
    "longitude": "-60.16777778",
    "native": null,
    "timezone": null,
    "translations": {}
  }
]