[
  {
    "id": 149119,
    "name": "Aowin",
    "state_id": 4963,
    "state_code": "WN",
    "country_id": 83,
    "country_code": "GH",
    "latitude": "5.82143850",
    "longitude": "-2.82360430",
    "native": null,
    "timezone": null,
    "translations": {}
  },
  {
    "id": 149120,
    "name": "Bia East",
    "state_id": 4963,
    "state_code": "WN",
    "country_id": 83,
    "country_code": "GH",
    "latitude": "6.81614450",
    "longitude": "-3.00383950",
    "native": null,
    "timezone": null,
    "translations": {}
  },
  {
    "id": 149121,
    "name": "Bia West",
    "state_id": 4963,
    "state_code": "WN",
    "country_id": 83,
    "country_code": "GH",
    "latitude": "6.56894170",
    "longitude": "-3.06628880",
    "native": null,
    "timezone": null,
    "translations": {}
  },
  {
    "id": 149122,
    "name": "Bibiani-Anhwiaso-Bekwai",
    "state_id": 4963,
    "state_code": "WN",
    "country_id": 83,
    "country_code": "GH",
    "latitude": "6.30210040",
    "longitude": "-2.35675070",
    "native": null,
    "timezone": null,
    "translations": {}
  },
  {
    "id": 149123,
    "name": "Bodi",
    "state_id": 4963,
    "state_code": "WN",
    "country_id": 83,
    "country_code": "GH",
    "latitude": "6.22240910",
    "longitude": "-2.76615150",
    "native": null,
    "timezone": null,
    "translations": {}
  },
  {
    "id": 149124,
    "name": "Juaboso",
    "state_id": 4963,
    "state_code": "WN",
    "country_id": 83,
    "country_code": "GH",
    "latitude": "6.33331570",
    "longitude": "-2.84206140",
    "native": null,
    "timezone": null,
    "translations": {}
  },
  {
    "id": 149125,
    "name": "Sefwi-Akontombra",
    "state_id": 4963,
    "state_code": "WN",
    "country_id": 83,
    "country_code": "GH",
    "latitude": "6.04285480",
    "longitude": "-2.88133620",
    "native": null,
    "timezone": null,
    "translations": {}
  },
  {
    "id": 149126,
    "name": "Sefwi-Wiawso",
    "state_id": 4963,
    "state_code": "WN",
    "country_id": 83,
    "country_code": "GH",
    "latitude": "6.21965670",
    "longitude": "-2.50059150",
    "native": null,
    "timezone": null,
    "translations": {}
  },
  {
    "id": 149127,
    "name": "Suaman",
    "state_id": 4963,
    "state_code": "WN",
    "country_id": 83,
    "country_code": "GH",
    "latitude": "6.10824160",
    "longitude": "-3.00869710",
    "native": null,
    "timezone": null,
    "translations": {}
  }
]