[
  {
    "id": 134552,
    "name": "‘Anah",
    "state_id": 3964,
    "state_code": "AN",
    "country_id": 104,
    "country_code": "IQ",
    "latitude": "34.36857000",
    "longitude": "41.98194000",
    "native": null,
    "timezone": null,
    "translations": {}
  },
  {
    "id": 134553,
    "name": "‘Anat al Qadīmah",
    "state_id": 3964,
    "state_code": "AN",
    "country_id": 104,
    "country_code": "IQ",
    "latitude": "34.46934000",
    "longitude": "41.94223000",
    "native": null,
    "timezone": null,
    "translations": {}
  },
  {
    "id": 134478,
    "name": "Al Fallūjah",
    "state_id": 3964,
    "state_code": "AN",
    "country_id": 104,
    "country_code": "IQ",
    "latitude": "33.34913000",
    "longitude": "43.78599000",
    "native": null,
    "timezone": null,
    "translations": {}
  },
  {
    "id": 134495,
    "name": "Ar Ruţbah",
    "state_id": 3964,
    "state_code": "AN",
    "country_id": 104,
    "country_code": "IQ",
    "latitude": "33.03718000",
    "longitude": "40.28586000",
    "native": null,
    "timezone": null,
    "translations": {}
  },
  {
    "id": 134548,
    "name": "Ḩadīthah",
    "state_id": 3964,
    "state_code": "AN",
    "country_id": 104,
    "country_code": "IQ",
    "latitude": "34.13661000",
    "longitude": "42.37727000",
    "native": null,
    "timezone": null,
    "translations": {}
  },
  {
    "id": 134514,
    "name": "Hīt",
    "state_id": 3964,
    "state_code": "AN",
    "country_id": 104,
    "country_code": "IQ",
    "latitude": "33.63664000",
    "longitude": "42.82768000",
    "native": null,
    "timezone": null,
    "translations": {}
  },
  {
    "id": 134515,
    "name": "Hīt District",
    "state_id": 3964,
    "state_code": "AN",
    "country_id": 104,
    "country_code": "IQ",
    "latitude": "33.73482000",
    "longitude": "42.68228000",
    "native": null,
    "timezone": null,
    "translations": {}
  },
  {
    "id": 134533,
    "name": "Ramadi",
    "state_id": 3964,
    "state_code": "AN",
    "country_id": 104,
    "country_code": "IQ",
    "latitude": "33.42056000",
    "longitude": "43.30778000",
    "native": null,
    "timezone": null,
    "translations": {}
  },
  {
    "id": 134535,
    "name": "Rāwah",
    "state_id": 3964,
    "state_code": "AN",
    "country_id": 104,
    "country_code": "IQ",
    "latitude": "34.48229000",
    "longitude": "41.91898000",
    "native": null,
    "timezone": null,
    "translations": {}
  }
]