[
  {
    "id": 31928,
    "name": "Adalia",
    "state_id": 1183,
    "state_code": "VA",
    "country_id": 207,
    "country_code": "ES",
    "latitude": "41.64894000",
    "longitude": "-5.12107000",
    "native": null,
    "timezone": null,
    "translations": {}
  },
  {
    "id": 31953,
    "name": "Aguasal",
    "state_id": 1183,
    "state_code": "VA",
    "country_id": 207,
    "country_code": "ES",
    "latitude": "41.27495000",
    "longitude": "-4.65290000",
    "native": null,
    "timezone": null,
    "translations": {}
  },
  {
    "id": 31961,
    "name": "Aguilar de Campos",
    "state_id": 1183,
    "state_code": "VA",
    "country_id": 207,
    "country_code": "ES",
    "latitude": "41.98375000",
    "longitude": "-5.18117000",
    "native": null,
    "timezone": null,
    "translations": {}
  },
  {
    "id": 31990,
    "name": "Alaejos",
    "state_id": 1183,
    "state_code": "VA",
    "country_id": 207,
    "country_code": "ES",
    "latitude": "41.30732000",
    "longitude": "-5.21567000",
    "native": null,
    "timezone": null,
    "translations": {}
  },
  {
    "id": 32092,
    "name": "Alcazarén",
    "state_id": 1183,
    "state_code": "VA",
    "country_id": 207,
    "country_code": "ES",
    "latitude": "41.37061000",
    "longitude": "-4.67262000",
    "native": null,
    "timezone": null,
    "translations": {}
  },
  {
    "id": 32142,
    "name": "Aldea de San Miguel",
    "state_id": 1183,
    "state_code": "VA",
    "country_id": 207,
    "country_code": "ES",
    "latitude": "41.46098000",
    "longitude": "-4.61580000",
    "native": null,
    "timezone": null,
    "translations": {}
  },
  {
    "id": 32156,
    "name": "Aldeamayor de San Martín",
    "state_id": 1183,
    "state_code": "VA",
    "country_id": 207,
    "country_code": "ES",
    "latitude": "41.51256000",
    "longitude": "-4.63955000",
    "native": null,
    "timezone": null,
    "translations": {}
  },
  {
    "id": 32283,
    "name": "Almenara de Adaja",
    "state_id": 1183,
    "state_code": "VA",
    "country_id": 207,
    "country_code": "ES",
    "latitude": "41.21406000",
    "longitude": "-4.67824000",
    "native": null,
    "timezone": null,
    "translations": {}
  },
  {
    "id": 32363,
    "name": "Amusquillo",
    "state_id": 1183,
    "state_code": "VA",
    "country_id": 207,
    "country_code": "ES",
    "latitude": "41.74853000",
    "longitude": "-4.30117000",
    "native": null,
    "timezone": null,
    "translations": {}
  },
  {
    "id": 32509,
    "name": "Arroyo de la Encomienda",
    "state_id": 1183,
    "state_code": "VA",
    "country_id": 207,
    "country_code": "ES",
    "latitude": "41.60956000",
    "longitude": "-4.79692000",
    "native": null,
    "timezone": null,
    "translations": {}
  },
  {
    "id": 32549,
    "name": "Ataquines",
    "state_id": 1183,
    "state_code": "VA",
    "country_id": 207,
    "country_code": "ES",
    "latitude": "41.18247000",
    "longitude": "-4.80319000",
    "native": null,
    "timezone": null,
    "translations": {}
  },
  {
    "id": 32611,
    "name": "Bahabón",
    "state_id": 1183,
    "state_code": "VA",
    "country_id": 207,
    "country_code": "ES",
    "latitude": "41.48141000",
    "longitude": "-4.27941000",
    "native": null,
    "timezone": null,
    "translations": {}
  },
  {
    "id": 32656,
    "name": "Barcial de la Loma",
    "state_id": 1183,
    "state_code": "VA",
    "country_id": 207,
    "country_code": "ES",
    "latitude": "41.95139000",
    "longitude": "-5.28353000",
    "native": null,
    "timezone": null,
    "translations": {}
  },
  {
    "id": 152677,
    "name": "Barruelo del Valle",
    "state_id": 1183,
    "state_code": "VA",
    "country_id": 207,
    "country_code": "ES",
    "latitude": "41.67458500",
    "longitude": "-5.06962870",
    "native": null,
    "timezone": null,
    "translations": {}
  },
  {
    "id": 32726,
    "name": "Becilla de Valderaduey",
    "state_id": 1183,
    "state_code": "VA",
    "country_id": 207,
    "country_code": "ES",
    "latitude": "42.09905000",
    "longitude": "-5.21805000",
    "native": null,
    "timezone": null,
    "translations": {}
  },
  {
    "id": 32758,
    "name": "Benafarces",
    "state_id": 1183,
    "state_code": "VA",
    "country_id": 207,
    "country_code": "ES",
    "latitude": "41.62133000",
    "longitude": "-5.29285000",
    "native": null,
    "timezone": null,
    "translations": {}
  },
  {
    "id": 32838,
    "name": "Bercero",
    "state_id": 1183,
    "state_code": "VA",
    "country_id": 207,
    "country_code": "ES",
    "latitude": "41.56397000",
    "longitude": "-5.05580000",
    "native": null,
    "timezone": null,
    "translations": {}
  },
  {
    "id": 32839,
    "name": "Berceruelo",
    "state_id": 1183,
    "state_code": "VA",
    "country_id": 207,
    "country_code": "ES",
    "latitude": "41.58033000",
    "longitude": "-5.03267000",
    "native": null,
    "timezone": null,
    "translations": {}
  },
  {
    "id": 32873,
    "name": "Berrueces",
    "state_id": 1183,
    "state_code": "VA",
    "country_id": 207,
    "country_code": "ES",
    "latitude": "41.94606000",
    "longitude": "-5.09693000",
    "native": null,
    "timezone": null,
    "translations": {}
  },
  {
    "id": 32920,
    "name": "Bobadilla del Campo",
    "state_id": 1183,
    "state_code": "VA",
    "country_id": 207,
    "country_code": "ES",
    "latitude": "41.20432000",
    "longitude": "-5.02294000",
    "native": null,
    "timezone": null,
    "translations": {}
  },
  {
    "id": 32925,
    "name": "Bocigas",
    "state_id": 1183,
    "state_code": "VA",
    "country_id": 207,
    "country_code": "ES",
    "latitude": "41.23070000",
    "longitude": "-4.68128000",
    "native": null,
    "timezone": null,
    "translations": {}
  },
  {
    "id": 32926,
    "name": "Bocos de Duero",
    "state_id": 1183,
    "state_code": "VA",
    "country_id": 207,
    "country_code": "ES",
    "latitude": "41.62339000",
    "longitude": "-4.07048000",
    "native": null,
    "timezone": null,
    "translations": {}
  },
  {
    "id": 32928,
    "name": "Boecillo",
    "state_id": 1183,
    "state_code": "VA",
    "country_id": 207,
    "country_code": "ES",
    "latitude": "41.54090000",
    "longitude": "-4.69940000",
    "native": null,
    "timezone": null,
    "translations": {}
  },
  {
    "id": 32936,
    "name": "Bolaños de Campos",
    "state_id": 1183,
    "state_code": "VA",
    "country_id": 207,
    "country_code": "ES",
    "latitude": "42.00680000",
    "longitude": "-5.28428000",
    "native": null,
    "timezone": null,
    "translations": {}
  },
  {
    "id": 152678,
    "name": "Brahojos de Medina",
    "state_id": 1183,
    "state_code": "VA",
    "country_id": 207,
    "country_code": "ES",
    "latitude": "41.22962990",
    "longitude": "-5.04295580",
    "native": null,
    "timezone": null,
    "translations": {}
  },
  {
    "id": 33039,
    "name": "Bustillo de Chaves",
    "state_id": 1183,
    "state_code": "VA",
    "country_id": 207,
    "country_code": "ES",
    "latitude": "42.13114000",
    "longitude": "-5.09169000",
    "native": null,
    "timezone": null,
    "translations": {}
  },
  {
    "id": 152679,
    "name": "Cabezón de Pisuerga",
    "state_id": 1183,
    "state_code": "VA",
    "country_id": 207,
    "country_code": "ES",
    "latitude": "41.73192920",
    "longitude": "-4.64592590",
    "native": null,
    "timezone": null,
    "translations": {}
  },
  {
    "id": 33093,
    "name": "Cabezón de Valderaduey",
    "state_id": 1183,
    "state_code": "VA",
    "country_id": 207,
    "country_code": "ES",
    "latitude": "42.16793000",
    "longitude": "-5.15892000",
    "native": null,
    "timezone": null,
    "translations": {}
  },
  {
    "id": 33107,
    "name": "Cabreros del Monte",
    "state_id": 1183,
    "state_code": "VA",
    "country_id": 207,
    "country_code": "ES",
    "latitude": "41.84906000",
    "longitude": "-5.27016000",
    "native": null,
    "timezone": null,
    "translations": {}
  },
  {
    "id": 33183,
    "name": "Campaspero",
    "state_id": 1183,
    "state_code": "VA",
    "country_id": 207,
    "country_code": "ES",
    "latitude": "41.49208000",
    "longitude": "-4.19608000",
    "native": null,
    "timezone": null,
    "translations": {}
  },
  {
    "id": 152680,
    "name": "Campillo El",
    "state_id": 1183,
    "state_code": "VA",
    "country_id": 207,
    "country_code": "ES",
    "latitude": "41.25778110",
    "longitude": "-5.01499550",
    "native": null,
    "timezone": null,
    "translations": {}
  },
  {
    "id": 33207,
    "name": "Camporredondo",
    "state_id": 1183,
    "state_code": "VA",
    "country_id": 207,
    "country_code": "ES",
    "latitude": "41.47333000",
    "longitude": "-4.50503000",
    "native": null,
    "timezone": null,
    "translations": {}
  },
  {
    "id": 33220,
    "name": "Canalejas de Peñafiel",
    "state_id": 1183,
    "state_code": "VA",
    "country_id": 207,
    "country_code": "ES",
    "latitude": "41.52513000",
    "longitude": "-4.11546000",
    "native": null,
    "timezone": null,
    "translations": {}
  },
  {
    "id": 33243,
    "name": "Canillas de Esgueva",
    "state_id": 1183,
    "state_code": "VA",
    "country_id": 207,
    "country_code": "ES",
    "latitude": "41.75464000",
    "longitude": "-4.12502000",
    "native": null,
    "timezone": null,
    "translations": {}
  },
  {
    "id": 33313,
    "name": "Carpio",
    "state_id": 1183,
    "state_code": "VA",
    "country_id": 207,
    "country_code": "ES",
    "latitude": "41.21329000",
    "longitude": "-5.10907000",
    "native": null,
    "timezone": null,
    "translations": {}
  },
  {
    "id": 33380,
    "name": "Casasola de Arión",
    "state_id": 1183,
    "state_code": "VA",
    "country_id": 207,
    "country_code": "ES",
    "latitude": "41.57825000",
    "longitude": "-5.24076000",
    "native": null,
    "timezone": null,
    "translations": {}
  },
  {
    "id": 152681,
    "name": "Castrejón de Trabancos",
    "state_id": 1183,
    "state_code": "VA",
    "country_id": 207,
    "country_code": "ES",
    "latitude": "41.25403810",
    "longitude": "-5.17057890",
    "native": null,
    "timezone": null,
    "translations": {}
  },
  {
    "id": 33477,
    "name": "Castrillo de Duero",
    "state_id": 1183,
    "state_code": "VA",
    "country_id": 207,
    "country_code": "ES",
    "latitude": "41.57494000",
    "longitude": "-4.01547000",
    "native": null,
    "timezone": null,
    "translations": {}
  },
  {
    "id": 33485,
    "name": "Castrillo-Tejeriego",
    "state_id": 1183,
    "state_code": "VA",
    "country_id": 207,
    "country_code": "ES",
    "latitude": "41.70340000",
    "longitude": "-4.37142000",
    "native": null,
    "timezone": null,
    "translations": {}
  },
  {
    "id": 33493,
    "name": "Castrobol",
    "state_id": 1183,
    "state_code": "VA",
    "country_id": 207,
    "country_code": "ES",
    "latitude": "42.13717000",
    "longitude": "-5.31423000",
    "native": null,
    "timezone": null,
    "translations": {}
  },
  {
    "id": 33496,
    "name": "Castrodeza",
    "state_id": 1183,
    "state_code": "VA",
    "country_id": 207,
    "country_code": "ES",
    "latitude": "41.64921000",
    "longitude": "-4.95888000",
    "native": null,
    "timezone": null,
    "translations": {}
  },
  {
    "id": 33499,
    "name": "Castromembibre",
    "state_id": 1183,
    "state_code": "VA",
    "country_id": 207,
    "country_code": "ES",
    "latitude": "41.67246000",
    "longitude": "-5.30473000",
    "native": null,
    "timezone": null,
    "translations": {}
  },
  {
    "id": 33501,
    "name": "Castromonte",
    "state_id": 1183,
    "state_code": "VA",
    "country_id": 207,
    "country_code": "ES",
    "latitude": "41.77355000",
    "longitude": "-5.03909000",
    "native": null,
    "timezone": null,
    "translations": {}
  },
  {
    "id": 33503,
    "name": "Castronuevo de Esgueva",
    "state_id": 1183,
    "state_code": "VA",
    "country_id": 207,
    "country_code": "ES",
    "latitude": "41.68180000",
    "longitude": "-4.58866000",
    "native": null,
    "timezone": null,
    "translations": {}
  },
  {
    "id": 33504,
    "name": "Castronuño",
    "state_id": 1183,
    "state_code": "VA",
    "country_id": 207,
    "country_code": "ES",
    "latitude": "41.38918000",
    "longitude": "-5.26408000",
    "native": null,
    "timezone": null,
    "translations": {}
  },
  {
    "id": 33506,
    "name": "Castroponce",
    "state_id": 1183,
    "state_code": "VA",
    "country_id": 207,
    "country_code": "ES",
    "latitude": "42.12646000",
    "longitude": "-5.18245000",
    "native": null,
    "timezone": null,
    "translations": {}
  },
  {
    "id": 33511,
    "name": "Castroverde de Cerrato",
    "state_id": 1183,
    "state_code": "VA",
    "country_id": 207,
    "country_code": "ES",
    "latitude": "41.75609000",
    "longitude": "-4.22151000",
    "native": null,
    "timezone": null,
    "translations": {}
  },
  {
    "id": 33561,
    "name": "Ceinos de Campos",
    "state_id": 1183,
    "state_code": "VA",
    "country_id": 207,
    "country_code": "ES",
    "latitude": "42.03284000",
    "longitude": "-5.15007000",
    "native": null,
    "timezone": null,
    "translations": {}
  },
  {
    "id": 33604,
    "name": "Cervillego de la Cruz",
    "state_id": 1183,
    "state_code": "VA",
    "country_id": 207,
    "country_code": "ES",
    "latitude": "41.18783000",
    "longitude": "-4.94966000",
    "native": null,
    "timezone": null,
    "translations": {}
  },
  {
    "id": 33661,
    "name": "Cigales",
    "state_id": 1183,
    "state_code": "VA",
    "country_id": 207,
    "country_code": "ES",
    "latitude": "41.75780000",
    "longitude": "-4.69848000",
    "native": null,
    "timezone": null,
    "translations": {}
  },
  {
    "id": 33663,
    "name": "Ciguñuela",
    "state_id": 1183,
    "state_code": "VA",
    "country_id": 207,
    "country_code": "ES",
    "latitude": "41.64064000",
    "longitude": "-4.85688000",
    "native": null,
    "timezone": null,
    "translations": {}
  },
  {
    "id": 33694,
    "name": "Cistérniga",
    "state_id": 1183,
    "state_code": "VA",
    "country_id": 207,
    "country_code": "ES",
    "latitude": "41.61294000",
    "longitude": "-4.68697000",
    "native": null,
    "timezone": null,
    "translations": {}
  },
  {
    "id": 152682,
    "name": "Cogeces de Íscar",
    "state_id": 1183,
    "state_code": "VA",
    "country_id": 207,
    "country_code": "ES",
    "latitude": "41.40611650",
    "longitude": "-4.54503680",
    "native": null,
    "timezone": null,
    "translations": {}
  },
  {
    "id": 33720,
    "name": "Cogeces del Monte",
    "state_id": 1183,
    "state_code": "VA",
    "country_id": 207,
    "country_code": "ES",
    "latitude": "41.51030000",
    "longitude": "-4.31721000",
    "native": null,
    "timezone": null,
    "translations": {}
  },
  {
    "id": 33778,
    "name": "Corcos",
    "state_id": 1183,
    "state_code": "VA",
    "country_id": 207,
    "country_code": "ES",
    "latitude": "41.80946000",
    "longitude": "-4.69270000",
    "native": null,
    "timezone": null,
    "translations": {}
  },
  {
    "id": 33804,
    "name": "Corrales de Duero",
    "state_id": 1183,
    "state_code": "VA",
    "country_id": 207,
    "country_code": "ES",
    "latitude": "41.67205000",
    "longitude": "-4.04817000",
    "native": null,
    "timezone": null,
    "translations": {}
  },
  {
    "id": 33852,
    "name": "Cubillas de Santa Marta",
    "state_id": 1183,
    "state_code": "VA",
    "country_id": 207,
    "country_code": "ES",
    "latitude": "41.83358000",
    "longitude": "-4.61463000",
    "native": null,
    "timezone": null,
    "translations": {}
  },
  {
    "id": 33865,
    "name": "Cuenca de Campos",
    "state_id": 1183,
    "state_code": "VA",
    "country_id": 207,
    "country_code": "ES",
    "latitude": "42.05927000",
    "longitude": "-5.05539000",
    "native": null,
    "timezone": null,
    "translations": {}
  },
  {
    "id": 33886,
    "name": "Curiel de Duero",
    "state_id": 1183,
    "state_code": "VA",
    "country_id": 207,
    "country_code": "ES",
    "latitude": "41.64327000",
    "longitude": "-4.10110000",
    "native": null,
    "timezone": null,
    "translations": {}
  },
  {
    "id": 34050,
    "name": "Encinas de Esgueva",
    "state_id": 1183,
    "state_code": "VA",
    "country_id": 207,
    "country_code": "ES",
    "latitude": "41.75653000",
    "longitude": "-4.10357000",
    "native": null,
    "timezone": null,
    "translations": {}
  },
  {
    "id": 34096,
    "name": "Esguevillas de Esgueva",
    "state_id": 1183,
    "state_code": "VA",
    "country_id": 207,
    "country_code": "ES",
    "latitude": "41.75018000",
    "longitude": "-4.38062000",
    "native": null,
    "timezone": null,
    "translations": {}
  },
  {
    "id": 34201,
    "name": "Fombellida",
    "state_id": 1183,
    "state_code": "VA",
    "country_id": 207,
    "country_code": "ES",
    "latitude": "41.76693000",
    "longitude": "-4.18409000",
    "native": null,
    "timezone": null,
    "translations": {}
  },
  {
    "id": 34203,
    "name": "Fompedraza",
    "state_id": 1183,
    "state_code": "VA",
    "country_id": 207,
    "country_code": "ES",
    "latitude": "41.53541000",
    "longitude": "-4.14483000",
    "native": null,
    "timezone": null,
    "translations": {}
  },
  {
    "id": 34215,
    "name": "Fontihoyuelo",
    "state_id": 1183,
    "state_code": "VA",
    "country_id": 207,
    "country_code": "ES",
    "latitude": "42.16192000",
    "longitude": "-5.05791000",
    "native": null,
    "timezone": null,
    "translations": {}
  },
  {
    "id": 34254,
    "name": "Fresno El Viejo",
    "state_id": 1183,
    "state_code": "VA",
    "country_id": 207,
    "country_code": "ES",
    "latitude": "41.19752000",
    "longitude": "-5.14413000",
    "native": null,
    "timezone": null,
    "translations": {}
  },
  {
    "id": 34287,
    "name": "Fuensaldaña",
    "state_id": 1183,
    "state_code": "VA",
    "country_id": 207,
    "country_code": "ES",
    "latitude": "41.70617000",
    "longitude": "-4.76547000",
    "native": null,
    "timezone": null,
    "translations": {}
  },
  {
    "id": 34303,
    "name": "Fuente el Sol",
    "state_id": 1183,
    "state_code": "VA",
    "country_id": 207,
    "country_code": "ES",
    "latitude": "41.17603000",
    "longitude": "-4.93430000",
    "native": null,
    "timezone": null,
    "translations": {}
  },
  {
    "id": 152683,
    "name": "Fuente-Olmedo",
    "state_id": 1183,
    "state_code": "VA",
    "country_id": 207,
    "country_code": "ES",
    "latitude": "41.24406200",
    "longitude": "-4.64729510",
    "native": null,
    "timezone": null,
    "translations": {}
  },
  {
    "id": 34388,
    "name": "Gallegos de Hornija",
    "state_id": 1183,
    "state_code": "VA",
    "country_id": 207,
    "country_code": "ES",
    "latitude": "41.60980000",
    "longitude": "-5.09768000",
    "native": null,
    "timezone": null,
    "translations": {}
  },
  {
    "id": 34437,
    "name": "Gatón de Campos",
    "state_id": 1183,
    "state_code": "VA",
    "country_id": 207,
    "country_code": "ES",
    "latitude": "42.04984000",
    "longitude": "-4.98078000",
    "native": null,
    "timezone": null,
    "translations": {}
  },
  {
    "id": 34455,
    "name": "Geria",
    "state_id": 1183,
    "state_code": "VA",
    "country_id": 207,
    "country_code": "ES",
    "latitude": "41.57868000",
    "longitude": "-4.87663000",
    "native": null,
    "timezone": null,
    "translations": {}
  },
  {
    "id": 34603,
    "name": "Herrín de Campos",
    "state_id": 1183,
    "state_code": "VA",
    "country_id": 207,
    "country_code": "ES",
    "latitude": "42.12476000",
    "longitude": "-4.95239000",
    "native": null,
    "timezone": null,
    "translations": {}
  },
  {
    "id": 152684,
    "name": "Hornillos de Eresma",
    "state_id": 1183,
    "state_code": "VA",
    "country_id": 207,
    "country_code": "ES",
    "latitude": "41.36661380",
    "longitude": "-4.71934610",
    "native": null,
    "timezone": null,
    "translations": {}
  },
  {
    "id": 34765,
    "name": "Iscar",
    "state_id": 1183,
    "state_code": "VA",
    "country_id": 207,
    "country_code": "ES",
    "latitude": "41.36117000",
    "longitude": "-4.53348000",
    "native": null,
    "timezone": null,
    "translations": {}
  },
  {
    "id": 34948,
    "name": "Laguna de Duero",
    "state_id": 1183,
    "state_code": "VA",
    "country_id": 207,
    "country_code": "ES",
    "latitude": "41.58151000",
    "longitude": "-4.72332000",
    "native": null,
    "timezone": null,
    "translations": {}
  },
  {
    "id": 34965,
    "name": "Langayo",
    "state_id": 1183,
    "state_code": "VA",
    "country_id": 207,
    "country_code": "ES",
    "latitude": "41.56986000",
    "longitude": "-4.19866000",
    "native": null,
    "timezone": null,
    "translations": {}
  },
  {
    "id": 35069,
    "name": "Llano de Olmedo",
    "state_id": 1183,
    "state_code": "VA",
    "country_id": 207,
    "country_code": "ES",
    "latitude": "41.26727000",
    "longitude": "-4.61386000",
    "native": null,
    "timezone": null,
    "translations": {}
  },
  {
    "id": 152685,
    "name": "Lomoviejo",
    "state_id": 1183,
    "state_code": "VA",
    "country_id": 207,
    "country_code": "ES",
    "latitude": "41.14915290",
    "longitude": "-4.91756860",
    "native": null,
    "timezone": null,
    "translations": {}
  },
  {
    "id": 35272,
    "name": "Manzanillo",
    "state_id": 1183,
    "state_code": "VA",
    "country_id": 207,
    "country_code": "ES",
    "latitude": "41.58617000",
    "longitude": "-4.18826000",
    "native": null,
    "timezone": null,
    "translations": {}
  },
  {
    "id": 35311,
    "name": "Marzales",
    "state_id": 1183,
    "state_code": "VA",
    "country_id": 207,
    "country_code": "ES",
    "latitude": "41.58644000",
    "longitude": "-5.13455000",
    "native": null,
    "timezone": null,
    "translations": {}
  },
  {
    "id": 35338,
    "name": "Matapozuelos",
    "state_id": 1183,
    "state_code": "VA",
    "country_id": 207,
    "country_code": "ES",
    "latitude": "41.41423000",
    "longitude": "-4.79122000",
    "native": null,
    "timezone": null,
    "translations": {}
  },
  {
    "id": 35343,
    "name": "Matilla de los Caños",
    "state_id": 1183,
    "state_code": "VA",
    "country_id": 207,
    "country_code": "ES",
    "latitude": "41.54818000",
    "longitude": "-4.96761000",
    "native": null,
    "timezone": null,
    "translations": {}
  },
  {
    "id": 35349,
    "name": "Mayorga",
    "state_id": 1183,
    "state_code": "VA",
    "country_id": 207,
    "country_code": "ES",
    "latitude": "42.16687000",
    "longitude": "-5.26304000",
    "native": null,
    "timezone": null,
    "translations": {}
  },
  {
    "id": 35371,
    "name": "Medina de Ríoseco",
    "state_id": 1183,
    "state_code": "VA",
    "country_id": 207,
    "country_code": "ES",
    "latitude": "41.88327000",
    "longitude": "-5.04405000",
    "native": null,
    "timezone": null,
    "translations": {}
  },
  {
    "id": 35373,
    "name": "Medina del Campo",
    "state_id": 1183,
    "state_code": "VA",
    "country_id": 207,
    "country_code": "ES",
    "latitude": "41.31239000",
    "longitude": "-4.91413000",
    "native": null,
    "timezone": null,
    "translations": {}
  },
  {
    "id": 35379,
    "name": "Megeces",
    "state_id": 1183,
    "state_code": "VA",
    "country_id": 207,
    "country_code": "ES",
    "latitude": "41.40828000",
    "longitude": "-4.56166000",
    "native": null,
    "timezone": null,
    "translations": {}
  },
  {
    "id": 35385,
    "name": "Melgar de Abajo",
    "state_id": 1183,
    "state_code": "VA",
    "country_id": 207,
    "country_code": "ES",
    "latitude": "42.24344000",
    "longitude": "-5.14216000",
    "native": null,
    "timezone": null,
    "translations": {}
  },
  {
    "id": 35386,
    "name": "Melgar de Arriba",
    "state_id": 1183,
    "state_code": "VA",
    "country_id": 207,
    "country_code": "ES",
    "latitude": "42.26806000",
    "longitude": "-5.09712000",
    "native": null,
    "timezone": null,
    "translations": {}
  },
  {
    "id": 35474,
    "name": "Mojados",
    "state_id": 1183,
    "state_code": "VA",
    "country_id": 207,
    "country_code": "ES",
    "latitude": "41.43237000",
    "longitude": "-4.66490000",
    "native": null,
    "timezone": null,
    "translations": {}
  },
  {
    "id": 35497,
    "name": "Monasterio de Vega",
    "state_id": 1183,
    "state_code": "VA",
    "country_id": 207,
    "country_code": "ES",
    "latitude": "42.23015000",
    "longitude": "-5.18095000",
    "native": null,
    "timezone": null,
    "translations": {}
  },
  {
    "id": 152686,
    "name": "Montealegre de Campos",
    "state_id": 1183,
    "state_code": "VA",
    "country_id": 207,
    "country_code": "ES",
    "latitude": "41.90156540",
    "longitude": "-4.89810360",
    "native": null,
    "timezone": null,
    "translations": {}
  },
  {
    "id": 35559,
    "name": "Montemayor de Pililla",
    "state_id": 1183,
    "state_code": "VA",
    "country_id": 207,
    "country_code": "ES",
    "latitude": "41.50874000",
    "longitude": "-4.45745000",
    "native": null,
    "timezone": null,
    "translations": {}
  },
  {
    "id": 35599,
    "name": "Moral de la Reina",
    "state_id": 1183,
    "state_code": "VA",
    "country_id": 207,
    "country_code": "ES",
    "latitude": "41.98611000",
    "longitude": "-5.07208000",
    "native": null,
    "timezone": null,
    "translations": {}
  },
  {
    "id": 35605,
    "name": "Moraleja de las Panaderas",
    "state_id": 1183,
    "state_code": "VA",
    "country_id": 207,
    "country_code": "ES",
    "latitude": "41.27636000",
    "longitude": "-4.82521000",
    "native": null,
    "timezone": null,
    "translations": {}
  },
  {
    "id": 35607,
    "name": "Morales de Campos",
    "state_id": 1183,
    "state_code": "VA",
    "country_id": 207,
    "country_code": "ES",
    "latitude": "41.86068000",
    "longitude": "-5.17252000",
    "native": null,
    "timezone": null,
    "translations": {}
  },
  {
    "id": 35642,
    "name": "Mota del Marqués",
    "state_id": 1183,
    "state_code": "VA",
    "country_id": 207,
    "country_code": "ES",
    "latitude": "41.63247000",
    "longitude": "-5.17681000",
    "native": null,
    "timezone": null,
    "translations": {}
  },
  {
    "id": 35652,
    "name": "Mucientes",
    "state_id": 1183,
    "state_code": "VA",
    "country_id": 207,
    "country_code": "ES",
    "latitude": "41.74278000",
    "longitude": "-4.76191000",
    "native": null,
    "timezone": null,
    "translations": {}
  },
  {
    "id": 152687,
    "name": "Mudarra La",
    "state_id": 1183,
    "state_code": "VA",
    "country_id": 207,
    "country_code": "ES",
    "latitude": "41.78000500",
    "longitude": "-4.94418170",
    "native": null,
    "timezone": null,
    "translations": {}
  },
  {
    "id": 152688,
    "name": "Muriel",
    "state_id": 1183,
    "state_code": "VA",
    "country_id": 207,
    "country_code": "ES",
    "latitude": "41.12235570",
    "longitude": "-4.84289470",
    "native": null,
    "timezone": null,
    "translations": {}
  },
  {
    "id": 35728,
    "name": "Nava del Rey",
    "state_id": 1183,
    "state_code": "VA",
    "country_id": 207,
    "country_code": "ES",
    "latitude": "41.33036000",
    "longitude": "-5.08095000",
    "native": null,
    "timezone": null,
    "translations": {}
  },
  {
    "id": 35833,
    "name": "Nueva Villa de las Torres",
    "state_id": 1183,
    "state_code": "VA",
    "country_id": 207,
    "country_code": "ES",
    "latitude": "41.26762000",
    "longitude": "-5.05685000",
    "native": null,
    "timezone": null,
    "translations": {}
  },
  {
    "id": 35889,
    "name": "Olivares de Duero",
    "state_id": 1183,
    "state_code": "VA",
    "country_id": 207,
    "country_code": "ES",
    "latitude": "41.63755000",
    "longitude": "-4.36547000",
    "native": null,
    "timezone": null,
    "translations": {}
  },
  {
    "id": 35901,
    "name": "Olmedo",
    "state_id": 1183,
    "state_code": "VA",
    "country_id": 207,
    "country_code": "ES",
    "latitude": "41.28706000",
    "longitude": "-4.68878000",
    "native": null,
    "timezone": null,
    "translations": {}
  },
  {
    "id": 35905,
    "name": "Olmos de Esgueva",
    "state_id": 1183,
    "state_code": "VA",
    "country_id": 207,
    "country_code": "ES",
    "latitude": "41.68815000",
    "longitude": "-4.52255000",
    "native": null,
    "timezone": null,
    "translations": {}
  },
  {
    "id": 35907,
    "name": "Olmos de Peñafiel",
    "state_id": 1183,
    "state_code": "VA",
    "country_id": 207,
    "country_code": "ES",
    "latitude": "41.57142000",
    "longitude": "-4.04316000",
    "native": null,
    "timezone": null,
    "translations": {}
  },
  {
    "id": 36018,
    "name": "Palazuelo de Vedija",
    "state_id": 1183,
    "state_code": "VA",
    "country_id": 207,
    "country_code": "ES",
    "latitude": "41.92966000",
    "longitude": "-5.14534000",
    "native": null,
    "timezone": null,
    "translations": {}
  },
  {
    "id": 152689,
    "name": "Parrilla La",
    "state_id": 1183,
    "state_code": "VA",
    "country_id": 207,
    "country_code": "ES",
    "latitude": "41.53676130",
    "longitude": "-4.53337390",
    "native": null,
    "timezone": null,
    "translations": {}
  },
  {
    "id": 152690,
    "name": "Pedraja de Portillo La",
    "state_id": 1183,
    "state_code": "VA",
    "country_id": 207,
    "country_code": "ES",
    "latitude": "41.47138310",
    "longitude": "-4.64632650",
    "native": null,
    "timezone": null,
    "translations": {}
  },
  {
    "id": 36089,
    "name": "Pedrajas de San Esteban",
    "state_id": 1183,
    "state_code": "VA",
    "country_id": 207,
    "country_code": "ES",
    "latitude": "41.34145000",
    "longitude": "-4.58225000",
    "native": null,
    "timezone": null,
    "translations": {}
  },
  {
    "id": 36108,
    "name": "Pedrosa del Rey",
    "state_id": 1183,
    "state_code": "VA",
    "country_id": 207,
    "country_code": "ES",
    "latitude": "41.55617000",
    "longitude": "-5.20466000",
    "native": null,
    "timezone": null,
    "translations": {}
  },
  {
    "id": 36162,
    "name": "Peñafiel",
    "state_id": 1183,
    "state_code": "VA",
    "country_id": 207,
    "country_code": "ES",
    "latitude": "41.60165000",
    "longitude": "-4.11418000",
    "native": null,
    "timezone": null,
    "translations": {}
  },
  {
    "id": 36164,
    "name": "Peñaflor de Hornija",
    "state_id": 1183,
    "state_code": "VA",
    "country_id": 207,
    "country_code": "ES",
    "latitude": "41.71159000",
    "longitude": "-4.98333000",
    "native": null,
    "timezone": null,
    "translations": {}
  },
  {
    "id": 152691,
    "name": "Pesquera de Duero",
    "state_id": 1183,
    "state_code": "VA",
    "country_id": 207,
    "country_code": "ES",
    "latitude": "41.64154750",
    "longitude": "-4.15585530",
    "native": null,
    "timezone": null,
    "translations": {}
  },
  {
    "id": 36228,
    "name": "Piña de Esgueva",
    "state_id": 1183,
    "state_code": "VA",
    "country_id": 207,
    "country_code": "ES",
    "latitude": "41.72843000",
    "longitude": "-4.42823000",
    "native": null,
    "timezone": null,
    "translations": {}
  },
  {
    "id": 36230,
    "name": "Piñel de Abajo",
    "state_id": 1183,
    "state_code": "VA",
    "country_id": 207,
    "country_code": "ES",
    "latitude": "41.67459000",
    "longitude": "-4.14655000",
    "native": null,
    "timezone": null,
    "translations": {}
  },
  {
    "id": 36231,
    "name": "Piñel de Arriba",
    "state_id": 1183,
    "state_code": "VA",
    "country_id": 207,
    "country_code": "ES",
    "latitude": "41.69923000",
    "longitude": "-4.12808000",
    "native": null,
    "timezone": null,
    "translations": {}
  },
  {
    "id": 36263,
    "name": "Pollos",
    "state_id": 1183,
    "state_code": "VA",
    "country_id": 207,
    "country_code": "ES",
    "latitude": "41.44406000",
    "longitude": "-5.12491000",
    "native": null,
    "timezone": null,
    "translations": {}
  },
  {
    "id": 36291,
    "name": "Portillo",
    "state_id": 1183,
    "state_code": "VA",
    "country_id": 207,
    "country_code": "ES",
    "latitude": "41.47867000",
    "longitude": "-4.58967000",
    "native": null,
    "timezone": null,
    "translations": {}
  },
  {
    "id": 36313,
    "name": "Pozal de Gallinas",
    "state_id": 1183,
    "state_code": "VA",
    "country_id": 207,
    "country_code": "ES",
    "latitude": "41.31831000",
    "longitude": "-4.83936000",
    "native": null,
    "timezone": null,
    "translations": {}
  },
  {
    "id": 152692,
    "name": "Pozaldez",
    "state_id": 1183,
    "state_code": "VA",
    "country_id": 207,
    "country_code": "ES",
    "latitude": "41.37147140",
    "longitude": "-4.84461540",
    "native": null,
    "timezone": null,
    "translations": {}
  },
  {
    "id": 36336,
    "name": "Pozuelo de la Orden",
    "state_id": 1183,
    "state_code": "VA",
    "country_id": 207,
    "country_code": "ES",
    "latitude": "41.82138000",
    "longitude": "-5.25891000",
    "native": null,
    "timezone": null,
    "translations": {}
  },
  {
    "id": 36474,
    "name": "Puras",
    "state_id": 1183,
    "state_code": "VA",
    "country_id": 207,
    "country_code": "ES",
    "latitude": "41.18333000",
    "longitude": "-4.65000000",
    "native": null,
    "timezone": null,
    "translations": {}
  },
  {
    "id": 36517,
    "name": "Quintanilla de Arriba",
    "state_id": 1183,
    "state_code": "VA",
    "country_id": 207,
    "country_code": "ES",
    "latitude": "41.61974000",
    "longitude": "-4.21774000",
    "native": null,
    "timezone": null,
    "translations": {}
  },
  {
    "id": 36519,
    "name": "Quintanilla de Onésimo",
    "state_id": 1183,
    "state_code": "VA",
    "country_id": 207,
    "country_code": "ES",
    "latitude": "41.62490000",
    "longitude": "-4.36291000",
    "native": null,
    "timezone": null,
    "translations": {}
  },
  {
    "id": 36520,
    "name": "Quintanilla de Trigueros",
    "state_id": 1183,
    "state_code": "VA",
    "country_id": 207,
    "country_code": "ES",
    "latitude": "41.85449000",
    "longitude": "-4.65931000",
    "native": null,
    "timezone": null,
    "translations": {}
  },
  {
    "id": 36524,
    "name": "Quintanilla del Molar",
    "state_id": 1183,
    "state_code": "VA",
    "country_id": 207,
    "country_code": "ES",
    "latitude": "41.98935000",
    "longitude": "-5.44928000",
    "native": null,
    "timezone": null,
    "translations": {}
  },
  {
    "id": 36708,
    "name": "Rábano",
    "state_id": 1183,
    "state_code": "VA",
    "country_id": 207,
    "country_code": "ES",
    "latitude": "41.53314000",
    "longitude": "-4.06214000",
    "native": null,
    "timezone": null,
    "translations": {}
  },
  {
    "id": 36545,
    "name": "Ramiro",
    "state_id": 1183,
    "state_code": "VA",
    "country_id": 207,
    "country_code": "ES",
    "latitude": "41.22845000",
    "longitude": "-4.78608000",
    "native": null,
    "timezone": null,
    "translations": {}
  },
  {
    "id": 152693,
    "name": "Renedo de Esgueva",
    "state_id": 1183,
    "state_code": "VA",
    "country_id": 207,
    "country_code": "ES",
    "latitude": "41.65461010",
    "longitude": "-4.62889380",
    "native": null,
    "timezone": null,
    "translations": {}
  },
  {
    "id": 152694,
    "name": "Roales de Campos",
    "state_id": 1183,
    "state_code": "VA",
    "country_id": 207,
    "country_code": "ES",
    "latitude": "42.03070940",
    "longitude": "-5.47384910",
    "native": null,
    "timezone": null,
    "translations": {}
  },
  {
    "id": 36645,
    "name": "Robladillo",
    "state_id": 1183,
    "state_code": "VA",
    "country_id": 207,
    "country_code": "ES",
    "latitude": "41.60838000",
    "longitude": "-4.90992000",
    "native": null,
    "timezone": null,
    "translations": {}
  },
  {
    "id": 36682,
    "name": "Roturas",
    "state_id": 1183,
    "state_code": "VA",
    "country_id": 207,
    "country_code": "ES",
    "latitude": "41.66791000",
    "longitude": "-4.11901000",
    "native": null,
    "timezone": null,
    "translations": {}
  },
  {
    "id": 36695,
    "name": "Rubí de Bracamonte",
    "state_id": 1183,
    "state_code": "VA",
    "country_id": 207,
    "country_code": "ES",
    "latitude": "41.21421000",
    "longitude": "-4.92491000",
    "native": null,
    "timezone": null,
    "translations": {}
  },
  {
    "id": 36697,
    "name": "Rueda",
    "state_id": 1183,
    "state_code": "VA",
    "country_id": 207,
    "country_code": "ES",
    "latitude": "41.41231000",
    "longitude": "-4.95885000",
    "native": null,
    "timezone": null,
    "translations": {}
  },
  {
    "id": 36734,
    "name": "Saelices de Mayorga",
    "state_id": 1183,
    "state_code": "VA",
    "country_id": 207,
    "country_code": "ES",
    "latitude": "42.21206000",
    "longitude": "-5.20534000",
    "native": null,
    "timezone": null,
    "translations": {}
  },
  {
    "id": 36782,
    "name": "Salvador de Zapardiel",
    "state_id": 1183,
    "state_code": "VA",
    "country_id": 207,
    "country_code": "ES",
    "latitude": "41.11696000",
    "longitude": "-4.87486000",
    "native": null,
    "timezone": null,
    "translations": {}
  },
  {
    "id": 36816,
    "name": "San Cebrián de Mazote",
    "state_id": 1183,
    "state_code": "VA",
    "country_id": 207,
    "country_code": "ES",
    "latitude": "41.68022000",
    "longitude": "-5.14847000",
    "native": null,
    "timezone": null,
    "translations": {}
  },
  {
    "id": 36856,
    "name": "San Llorente",
    "state_id": 1183,
    "state_code": "VA",
    "country_id": 207,
    "country_code": "ES",
    "latitude": "41.68631000",
    "longitude": "-4.06600000",
    "native": null,
    "timezone": null,
    "translations": {}
  },
  {
    "id": 36872,
    "name": "San Martín de Valvení",
    "state_id": 1183,
    "state_code": "VA",
    "country_id": 207,
    "country_code": "ES",
    "latitude": "41.75336000",
    "longitude": "-4.56724000",
    "native": null,
    "timezone": null,
    "translations": {}
  },
  {
    "id": 36887,
    "name": "San Miguel del Arroyo",
    "state_id": 1183,
    "state_code": "VA",
    "country_id": 207,
    "country_code": "ES",
    "latitude": "41.44328000",
    "longitude": "-4.45990000",
    "native": null,
    "timezone": null,
    "translations": {}
  },
  {
    "id": 36888,
    "name": "San Miguel del Pino",
    "state_id": 1183,
    "state_code": "VA",
    "country_id": 207,
    "country_code": "ES",
    "latitude": "41.50941000",
    "longitude": "-4.91149000",
    "native": null,
    "timezone": null,
    "translations": {}
  },
  {
    "id": 36897,
    "name": "San Pablo de la Moraleja",
    "state_id": 1183,
    "state_code": "VA",
    "country_id": 207,
    "country_code": "ES",
    "latitude": "41.16100000",
    "longitude": "-4.77761000",
    "native": null,
    "timezone": null,
    "translations": {}
  },
  {
    "id": 36906,
    "name": "San Pedro de Latarce",
    "state_id": 1183,
    "state_code": "VA",
    "country_id": 207,
    "country_code": "ES",
    "latitude": "41.73556000",
    "longitude": "-5.32592000",
    "native": null,
    "timezone": null,
    "translations": {}
  },
  {
    "id": 36913,
    "name": "San Pelayo",
    "state_id": 1183,
    "state_code": "VA",
    "country_id": 207,
    "country_code": "ES",
    "latitude": "41.68033000",
    "longitude": "-5.03403000",
    "native": null,
    "timezone": null,
    "translations": {}
  },
  {
    "id": 36917,
    "name": "San Román de Hornija",
    "state_id": 1183,
    "state_code": "VA",
    "country_id": 207,
    "country_code": "ES",
    "latitude": "41.48131000",
    "longitude": "-5.28454000",
    "native": null,
    "timezone": null,
    "translations": {}
  },
  {
    "id": 152695,
    "name": "San Salvador",
    "state_id": 1183,
    "state_code": "VA",
    "country_id": 207,
    "country_code": "ES",
    "latitude": "41.62350780",
    "longitude": "-5.08589880",
    "native": null,
    "timezone": null,
    "translations": {}
  },
  {
    "id": 36931,
    "name": "San Vicente del Palacio",
    "state_id": 1183,
    "state_code": "VA",
    "country_id": 207,
    "country_code": "ES",
    "latitude": "41.21901000",
    "longitude": "-4.85158000",
    "native": null,
    "timezone": null,
    "translations": {}
  },
  {
    "id": 37050,
    "name": "Santa Eufemia del Arroyo",
    "state_id": 1183,
    "state_code": "VA",
    "country_id": 207,
    "country_code": "ES",
    "latitude": "41.89505000",
    "longitude": "-5.26575000",
    "native": null,
    "timezone": null,
    "translations": {}
  },
  {
    "id": 37110,
    "name": "Santervás de Campos",
    "state_id": 1183,
    "state_code": "VA",
    "country_id": 207,
    "country_code": "ES",
    "latitude": "42.21820000",
    "longitude": "-5.10027000",
    "native": null,
    "timezone": null,
    "translations": {}
  },
  {
    "id": 37123,
    "name": "Santibáñez de Valcorba",
    "state_id": 1183,
    "state_code": "VA",
    "country_id": 207,
    "country_code": "ES",
    "latitude": "41.56983000",
    "longitude": "-4.44938000",
    "native": null,
    "timezone": null,
    "translations": {}
  },
  {
    "id": 37148,
    "name": "Santovenia de Pisuerga",
    "state_id": 1183,
    "state_code": "VA",
    "country_id": 207,
    "country_code": "ES",
    "latitude": "41.69457000",
    "longitude": "-4.69029000",
    "native": null,
    "timezone": null,
    "translations": {}
  },
  {
    "id": 37159,
    "name": "Sardón de Duero",
    "state_id": 1183,
    "state_code": "VA",
    "country_id": 207,
    "country_code": "ES",
    "latitude": "41.60847000",
    "longitude": "-4.43397000",
    "native": null,
    "timezone": null,
    "translations": {}
  },
  {
    "id": 152696,
    "name": "Seca La",
    "state_id": 1183,
    "state_code": "VA",
    "country_id": 207,
    "country_code": "ES",
    "latitude": "41.43654710",
    "longitude": "-4.91432390",
    "native": null,
    "timezone": null,
    "translations": {}
  },
  {
    "id": 37220,
    "name": "Serrada",
    "state_id": 1183,
    "state_code": "VA",
    "country_id": 207,
    "country_code": "ES",
    "latitude": "41.45722000",
    "longitude": "-4.86279000",
    "native": null,
    "timezone": null,
    "translations": {}
  },
  {
    "id": 37250,
    "name": "Siete Iglesias de Trabancos",
    "state_id": 1183,
    "state_code": "VA",
    "country_id": 207,
    "country_code": "ES",
    "latitude": "41.35223000",
    "longitude": "-5.18488000",
    "native": null,
    "timezone": null,
    "translations": {}
  },
  {
    "id": 37258,
    "name": "Simancas",
    "state_id": 1183,
    "state_code": "VA",
    "country_id": 207,
    "country_code": "ES",
    "latitude": "41.59072000",
    "longitude": "-4.82796000",
    "native": null,
    "timezone": null,
    "translations": {}
  },
  {
    "id": 37365,
    "name": "Tamariz de Campos",
    "state_id": 1183,
    "state_code": "VA",
    "country_id": 207,
    "country_code": "ES",
    "latitude": "41.97706000",
    "longitude": "-5.02335000",
    "native": null,
    "timezone": null,
    "translations": {}
  },
  {
    "id": 37421,
    "name": "Tiedra",
    "state_id": 1183,
    "state_code": "VA",
    "country_id": 207,
    "country_code": "ES",
    "latitude": "41.65239000",
    "longitude": "-5.26688000",
    "native": null,
    "timezone": null,
    "translations": {}
  },
  {
    "id": 37455,
    "name": "Tordehumos",
    "state_id": 1183,
    "state_code": "VA",
    "country_id": 207,
    "country_code": "ES",
    "latitude": "41.81531000",
    "longitude": "-5.15811000",
    "native": null,
    "timezone": null,
    "translations": {}
  },
  {
    "id": 37459,
    "name": "Tordesillas",
    "state_id": 1183,
    "state_code": "VA",
    "country_id": 207,
    "country_code": "ES",
    "latitude": "41.50202000",
    "longitude": "-5.00146000",
    "native": null,
    "timezone": null,
    "translations": {}
  },
  {
    "id": 37492,
    "name": "Torre de Esgueva",
    "state_id": 1183,
    "state_code": "VA",
    "country_id": 207,
    "country_code": "ES",
    "latitude": "41.76821000",
    "longitude": "-4.20003000",
    "native": null,
    "timezone": null,
    "translations": {}
  },
  {
    "id": 37495,
    "name": "Torre de Peñafiel",
    "state_id": 1183,
    "state_code": "VA",
    "country_id": 207,
    "country_code": "ES",
    "latitude": "41.53646000",
    "longitude": "-4.08833000",
    "native": null,
    "timezone": null,
    "translations": {}
  },
  {
    "id": 37516,
    "name": "Torrecilla de la Abadesa",
    "state_id": 1183,
    "state_code": "VA",
    "country_id": 207,
    "country_code": "ES",
    "latitude": "41.48498000",
    "longitude": "-5.08762000",
    "native": null,
    "timezone": null,
    "translations": {}
  },
  {
    "id": 37518,
    "name": "Torrecilla de la Orden",
    "state_id": 1183,
    "state_code": "VA",
    "country_id": 207,
    "country_code": "ES",
    "latitude": "41.21885000",
    "longitude": "-5.22384000",
    "native": null,
    "timezone": null,
    "translations": {}
  },
  {
    "id": 37519,
    "name": "Torrecilla de la Torre",
    "state_id": 1183,
    "state_code": "VA",
    "country_id": 207,
    "country_code": "ES",
    "latitude": "41.66716000",
    "longitude": "-5.04982000",
    "native": null,
    "timezone": null,
    "translations": {}
  },
  {
    "id": 37550,
    "name": "Torrelobatón",
    "state_id": 1183,
    "state_code": "VA",
    "country_id": 207,
    "country_code": "ES",
    "latitude": "41.64942000",
    "longitude": "-5.02526000",
    "native": null,
    "timezone": null,
    "translations": {}
  },
  {
    "id": 37581,
    "name": "Torrescárcela",
    "state_id": 1183,
    "state_code": "VA",
    "country_id": 207,
    "country_code": "ES",
    "latitude": "41.48455000",
    "longitude": "-4.31920000",
    "native": null,
    "timezone": null,
    "translations": {}
  },
  {
    "id": 37623,
    "name": "Traspinedo",
    "state_id": 1183,
    "state_code": "VA",
    "country_id": 207,
    "country_code": "ES",
    "latitude": "41.57509000",
    "longitude": "-4.47569000",
    "native": null,
    "timezone": null,
    "translations": {}
  },
  {
    "id": 37638,
    "name": "Trigueros del Valle",
    "state_id": 1183,
    "state_code": "VA",
    "country_id": 207,
    "country_code": "ES",
    "latitude": "41.83049000",
    "longitude": "-4.65179000",
    "native": null,
    "timezone": null,
    "translations": {}
  },
  {
    "id": 37649,
    "name": "Tudela de Duero",
    "state_id": 1183,
    "state_code": "VA",
    "country_id": 207,
    "country_code": "ES",
    "latitude": "41.58450000",
    "longitude": "-4.58093000",
    "native": null,
    "timezone": null,
    "translations": {}
  },
  {
    "id": 152697,
    "name": "Unión de Campos La",
    "state_id": 1183,
    "state_code": "VA",
    "country_id": 207,
    "country_code": "ES",
    "latitude": "42.07708350",
    "longitude": "-5.32724310",
    "native": null,
    "timezone": null,
    "translations": {}
  },
  {
    "id": 37694,
    "name": "Urones de Castroponce",
    "state_id": 1183,
    "state_code": "VA",
    "country_id": 207,
    "country_code": "ES",
    "latitude": "42.09911000",
    "longitude": "-5.28222000",
    "native": null,
    "timezone": null,
    "translations": {}
  },
  {
    "id": 37698,
    "name": "Urueña",
    "state_id": 1183,
    "state_code": "VA",
    "country_id": 207,
    "country_code": "ES",
    "latitude": "41.72738000",
    "longitude": "-5.20304000",
    "native": null,
    "timezone": null,
    "translations": {}
  },
  {
    "id": 37723,
    "name": "Valbuena de Duero",
    "state_id": 1183,
    "state_code": "VA",
    "country_id": 207,
    "country_code": "ES",
    "latitude": "41.64323000",
    "longitude": "-4.29271000",
    "native": null,
    "timezone": null,
    "translations": {}
  },
  {
    "id": 37731,
    "name": "Valdearcos de la Vega",
    "state_id": 1183,
    "state_code": "VA",
    "country_id": 207,
    "country_code": "ES",
    "latitude": "41.64260000",
    "longitude": "-4.04845000",
    "native": null,
    "timezone": null,
    "translations": {}
  },
  {
    "id": 37777,
    "name": "Valdenebro de los Valles",
    "state_id": 1183,
    "state_code": "VA",
    "country_id": 207,
    "country_code": "ES",
    "latitude": "41.85690000",
    "longitude": "-4.97005000",
    "native": null,
    "timezone": null,
    "translations": {}
  },
  {
    "id": 37802,
    "name": "Valdestillas",
    "state_id": 1183,
    "state_code": "VA",
    "country_id": 207,
    "country_code": "ES",
    "latitude": "41.47697000",
    "longitude": "-4.77116000",
    "native": null,
    "timezone": null,
    "translations": {}
  },
  {
    "id": 37814,
    "name": "Valdunquillo",
    "state_id": 1183,
    "state_code": "VA",
    "country_id": 207,
    "country_code": "ES",
    "latitude": "42.04232000",
    "longitude": "-5.31339000",
    "native": null,
    "timezone": null,
    "translations": {}
  },
  {
    "id": 37836,
    "name": "Valladolid",
    "state_id": 1183,
    "state_code": "VA",
    "country_id": 207,
    "country_code": "ES",
    "latitude": "41.65518000",
    "longitude": "-4.72372000",
    "native": null,
    "timezone": null,
    "translations": {}
  },
  {
    "id": 37870,
    "name": "Valoria la Buena",
    "state_id": 1183,
    "state_code": "VA",
    "country_id": 207,
    "country_code": "ES",
    "latitude": "41.79966000",
    "longitude": "-4.53055000",
    "native": null,
    "timezone": null,
    "translations": {}
  },
  {
    "id": 37884,
    "name": "Valverde de Campos",
    "state_id": 1183,
    "state_code": "VA",
    "country_id": 207,
    "country_code": "ES",
    "latitude": "41.83510000",
    "longitude": "-5.03674000",
    "native": null,
    "timezone": null,
    "translations": {}
  },
  {
    "id": 37906,
    "name": "Vega de Ruiponce",
    "state_id": 1183,
    "state_code": "VA",
    "country_id": 207,
    "country_code": "ES",
    "latitude": "42.18808000",
    "longitude": "-5.11477000",
    "native": null,
    "timezone": null,
    "translations": {}
  },
  {
    "id": 37912,
    "name": "Vega de Valdetronco",
    "state_id": 1183,
    "state_code": "VA",
    "country_id": 207,
    "country_code": "ES",
    "latitude": "41.59364000",
    "longitude": "-5.11319000",
    "native": null,
    "timezone": null,
    "translations": {}
  },
  {
    "id": 37924,
    "name": "Velascálvaro",
    "state_id": 1183,
    "state_code": "VA",
    "country_id": 207,
    "country_code": "ES",
    "latitude": "41.23028000",
    "longitude": "-4.97242000",
    "native": null,
    "timezone": null,
    "translations": {}
  },
  {
    "id": 37928,
    "name": "Velilla",
    "state_id": 1183,
    "state_code": "VA",
    "country_id": 207,
    "country_code": "ES",
    "latitude": "41.55920000",
    "longitude": "-5.00454000",
    "native": null,
    "timezone": null,
    "translations": {}
  },
  {
    "id": 37935,
    "name": "Velliza",
    "state_id": 1183,
    "state_code": "VA",
    "country_id": 207,
    "country_code": "ES",
    "latitude": "41.57918000",
    "longitude": "-4.94655000",
    "native": null,
    "timezone": null,
    "translations": {}
  },
  {
    "id": 37943,
    "name": "Ventosa de la Cuesta",
    "state_id": 1183,
    "state_code": "VA",
    "country_id": 207,
    "country_code": "ES",
    "latitude": "41.41110000",
    "longitude": "-4.82932000",
    "native": null,
    "timezone": null,
    "translations": {}
  },
  {
    "id": 37957,
    "name": "Viana de Cega",
    "state_id": 1183,
    "state_code": "VA",
    "country_id": 207,
    "country_code": "ES",
    "latitude": "41.52927000",
    "longitude": "-4.75245000",
    "native": null,
    "timezone": null,
    "translations": {}
  },
  {
    "id": 38023,
    "name": "Villabáñez",
    "state_id": 1183,
    "state_code": "VA",
    "country_id": 207,
    "country_code": "ES",
    "latitude": "41.63097000",
    "longitude": "-4.52192000",
    "native": null,
    "timezone": null,
    "translations": {}
  },
  {
    "id": 38015,
    "name": "Villabaruz de Campos",
    "state_id": 1183,
    "state_code": "VA",
    "country_id": 207,
    "country_code": "ES",
    "latitude": "42.01099000",
    "longitude": "-4.99624000",
    "native": null,
    "timezone": null,
    "translations": {}
  },
  {
    "id": 38020,
    "name": "Villabrágima",
    "state_id": 1183,
    "state_code": "VA",
    "country_id": 207,
    "country_code": "ES",
    "latitude": "41.82178000",
    "longitude": "-5.11546000",
    "native": null,
    "timezone": null,
    "translations": {}
  },
  {
    "id": 38024,
    "name": "Villacarralón",
    "state_id": 1183,
    "state_code": "VA",
    "country_id": 207,
    "country_code": "ES",
    "latitude": "42.18999000",
    "longitude": "-5.04324000",
    "native": null,
    "timezone": null,
    "translations": {}
  },
  {
    "id": 38029,
    "name": "Villacid de Campos",
    "state_id": 1183,
    "state_code": "VA",
    "country_id": 207,
    "country_code": "ES",
    "latitude": "42.08250000",
    "longitude": "-5.12498000",
    "native": null,
    "timezone": null,
    "translations": {}
  },
  {
    "id": 38032,
    "name": "Villaco",
    "state_id": 1183,
    "state_code": "VA",
    "country_id": 207,
    "country_code": "ES",
    "latitude": "41.74022000",
    "longitude": "-4.26817000",
    "native": null,
    "timezone": null,
    "translations": {}
  },
  {
    "id": 38054,
    "name": "Villafrades de Campos",
    "state_id": 1183,
    "state_code": "VA",
    "country_id": 207,
    "country_code": "ES",
    "latitude": "42.07853000",
    "longitude": "-4.97125000",
    "native": null,
    "timezone": null,
    "translations": {}
  },
  {
    "id": 38057,
    "name": "Villafranca de Duero",
    "state_id": 1183,
    "state_code": "VA",
    "country_id": 207,
    "country_code": "ES",
    "latitude": "41.43310000",
    "longitude": "-5.30192000",
    "native": null,
    "timezone": null,
    "translations": {}
  },
  {
    "id": 38065,
    "name": "Villafrechós",
    "state_id": 1183,
    "state_code": "VA",
    "country_id": 207,
    "country_code": "ES",
    "latitude": "41.89290000",
    "longitude": "-5.21859000",
    "native": null,
    "timezone": null,
    "translations": {}
  },
  {
    "id": 38067,
    "name": "Villafuerte",
    "state_id": 1183,
    "state_code": "VA",
    "country_id": 207,
    "country_code": "ES",
    "latitude": "41.73431000",
    "longitude": "-4.32365000",
    "native": null,
    "timezone": null,
    "translations": {}
  },
  {
    "id": 38071,
    "name": "Villagarcía de Campos",
    "state_id": 1183,
    "state_code": "VA",
    "country_id": 207,
    "country_code": "ES",
    "latitude": "41.78032000",
    "longitude": "-5.19242000",
    "native": null,
    "timezone": null,
    "translations": {}
  },
  {
    "id": 38080,
    "name": "Villagómez la Nueva",
    "state_id": 1183,
    "state_code": "VA",
    "country_id": 207,
    "country_code": "ES",
    "latitude": "42.15592000",
    "longitude": "-5.14208000",
    "native": null,
    "timezone": null,
    "translations": {}
  },
  {
    "id": 38125,
    "name": "Villalán de Campos",
    "state_id": 1183,
    "state_code": "VA",
    "country_id": 207,
    "country_code": "ES",
    "latitude": "42.01484000",
    "longitude": "-5.23642000",
    "native": null,
    "timezone": null,
    "translations": {}
  },
  {
    "id": 38090,
    "name": "Villalar de los Comuneros",
    "state_id": 1183,
    "state_code": "VA",
    "country_id": 207,
    "country_code": "ES",
    "latitude": "41.54966000",
    "longitude": "-5.13810000",
    "native": null,
    "timezone": null,
    "translations": {}
  },
  {
    "id": 38097,
    "name": "Villalba de la Loma",
    "state_id": 1183,
    "state_code": "VA",
    "country_id": 207,
    "country_code": "ES",
    "latitude": "42.17472000",
    "longitude": "-5.19023000",
    "native": null,
    "timezone": null,
    "translations": {}
  },
  {
    "id": 38099,
    "name": "Villalba de los Alcores",
    "state_id": 1183,
    "state_code": "VA",
    "country_id": 207,
    "country_code": "ES",
    "latitude": "41.86361000",
    "longitude": "-4.86063000",
    "native": null,
    "timezone": null,
    "translations": {}
  },
  {
    "id": 38104,
    "name": "Villalbarba",
    "state_id": 1183,
    "state_code": "VA",
    "country_id": 207,
    "country_code": "ES",
    "latitude": "41.60389000",
    "longitude": "-5.21281000",
    "native": null,
    "timezone": null,
    "translations": {}
  },
  {
    "id": 38126,
    "name": "Villalón de Campos",
    "state_id": 1183,
    "state_code": "VA",
    "country_id": 207,
    "country_code": "ES",
    "latitude": "42.09994000",
    "longitude": "-5.03440000",
    "native": null,
    "timezone": null,
    "translations": {}
  },
  {
    "id": 38165,
    "name": "Villamuriel de Campos",
    "state_id": 1183,
    "state_code": "VA",
    "country_id": 207,
    "country_code": "ES",
    "latitude": "41.94690000",
    "longitude": "-5.20717000",
    "native": null,
    "timezone": null,
    "translations": {}
  },
  {
    "id": 38380,
    "name": "Villán de Tordesillas",
    "state_id": 1183,
    "state_code": "VA",
    "country_id": 207,
    "country_code": "ES",
    "latitude": "41.59311000",
    "longitude": "-4.92214000",
    "native": null,
    "timezone": null,
    "translations": {}
  },
  {
    "id": 38168,
    "name": "Villanubla",
    "state_id": 1183,
    "state_code": "VA",
    "country_id": 207,
    "country_code": "ES",
    "latitude": "41.69877000",
    "longitude": "-4.84173000",
    "native": null,
    "timezone": null,
    "translations": {}
  },
  {
    "id": 38181,
    "name": "Villanueva de Duero",
    "state_id": 1183,
    "state_code": "VA",
    "country_id": 207,
    "country_code": "ES",
    "latitude": "41.51946000",
    "longitude": "-4.86671000",
    "native": null,
    "timezone": null,
    "translations": {}
  },
  {
    "id": 38197,
    "name": "Villanueva de la Condesa",
    "state_id": 1183,
    "state_code": "VA",
    "country_id": 207,
    "country_code": "ES",
    "latitude": "42.14914000",
    "longitude": "-5.09550000",
    "native": null,
    "timezone": null,
    "translations": {}
  },
  {
    "id": 38209,
    "name": "Villanueva de los Caballeros",
    "state_id": 1183,
    "state_code": "VA",
    "country_id": 207,
    "country_code": "ES",
    "latitude": "41.75916000",
    "longitude": "-5.24786000",
    "native": null,
    "timezone": null,
    "translations": {}
  },
  {
    "id": 152030,
    "name": "Villanueva de los Infantes",
    "state_id": 1183,
    "state_code": "VA",
    "country_id": 207,
    "country_code": "ES",
    "latitude": "41.70394400",
    "longitude": "-4.48190740",
    "native": null,
    "timezone": null,
    "translations": {}
  },
  {
    "id": 38190,
    "name": "Villanueva de San Mancio",
    "state_id": 1183,
    "state_code": "VA",
    "country_id": 207,
    "country_code": "ES",
    "latitude": "41.92842000",
    "longitude": "-5.01200000",
    "native": null,
    "timezone": null,
    "translations": {}
  },
  {
    "id": 38266,
    "name": "Villardefrades",
    "state_id": 1183,
    "state_code": "VA",
    "country_id": 207,
    "country_code": "ES",
    "latitude": "41.72358000",
    "longitude": "-5.25513000",
    "native": null,
    "timezone": null,
    "translations": {}
  },
  {
    "id": 38289,
    "name": "Villarmentero de Esgueva",
    "state_id": 1183,
    "state_code": "VA",
    "country_id": 207,
    "country_code": "ES",
    "latitude": "41.68515000",
    "longitude": "-4.54636000",
    "native": null,
    "timezone": null,
    "translations": {}
  },
  {
    "id": 38326,
    "name": "Villasexmir",
    "state_id": 1183,
    "state_code": "VA",
    "country_id": 207,
    "country_code": "ES",
    "latitude": "41.63943000",
    "longitude": "-5.06470000",
    "native": null,
    "timezone": null,
    "translations": {}
  },
  {
    "id": 38339,
    "name": "Villavaquerín",
    "state_id": 1183,
    "state_code": "VA",
    "country_id": 207,
    "country_code": "ES",
    "latitude": "41.66357000",
    "longitude": "-4.46287000",
    "native": null,
    "timezone": null,
    "translations": {}
  },
  {
    "id": 38341,
    "name": "Villavellid",
    "state_id": 1183,
    "state_code": "VA",
    "country_id": 207,
    "country_code": "ES",
    "latitude": "41.69218000",
    "longitude": "-5.27630000",
    "native": null,
    "timezone": null,
    "translations": {}
  },
  {
    "id": 38346,
    "name": "Villaverde de Medina",
    "state_id": 1183,
    "state_code": "VA",
    "country_id": 207,
    "country_code": "ES",
    "latitude": "41.30687000",
    "longitude": "-5.02625000",
    "native": null,
    "timezone": null,
    "translations": {}
  },
  {
    "id": 38355,
    "name": "Villavicencio de los Caballeros",
    "state_id": 1183,
    "state_code": "VA",
    "country_id": 207,
    "country_code": "ES",
    "latitude": "42.05893000",
    "longitude": "-5.23566000",
    "native": null,
    "timezone": null,
    "translations": {}
  },
  {
    "id": 38383,
    "name": "Viloria",
    "state_id": 1183,
    "state_code": "VA",
    "country_id": 207,
    "country_code": "ES",
    "latitude": "41.44604000",
    "longitude": "-4.38356000",
    "native": null,
    "timezone": null,
    "translations": {}
  },
  {
    "id": 38419,
    "name": "Wamba",
    "state_id": 1183,
    "state_code": "VA",
    "country_id": 207,
    "country_code": "ES",
    "latitude": "41.67525000",
    "longitude": "-4.91748000",
    "native": null,
    "timezone": null,
    "translations": {}
  },
  {
    "id": 38473,
    "name": "Zaratán",
    "state_id": 1183,
    "state_code": "VA",
    "country_id": 207,
    "country_code": "ES",
    "latitude": "41.65971000",
    "longitude": "-4.78417000",
    "native": null,
    "timezone": null,
    "translations": {}
  },
  {
    "id": 152698,
    "name": "Zarza La",
    "state_id": 1183,
    "state_code": "VA",
    "country_id": 207,
    "country_code": "ES",
    "latitude": "41.26186980",
    "longitude": "-4.77110020",
    "native": null,
    "timezone": null,
    "translations": {}
  }
]