[
  {
    "id": 2941,
    "name": "Al-Hasakah",
    "country_id": 215,
    "country_code": "SY",
    "fips_code": null,
    "iso2": "HA",
    "type": "province",
    "latitude": "36.43645440",
    "longitude": "40.57938160",
    "native": "Al-Hasakah",
    "timezone": "Asia/Damascus",
    "translations": {}
  },
  {
    "id": 2944,
    "name": "Al-Raqqah",
    "country_id": 215,
    "country_code": "SY",
    "fips_code": null,
    "iso2": "RA",
    "type": "province",
    "latitude": "35.94967800",
    "longitude": "39.00892120",
    "native": "المسقه",
    "timezone": "Asia/Damascus",
    "translations": {}
  },
  {
    "id": 2946,
    "name": "Aleppo",
    "country_id": 215,
    "country_code": "SY",
    "fips_code": null,
    "iso2": "HL",
    "type": "province",
    "latitude": "36.15174790",
    "longitude": "37.39350000",
    "native": "حلب",
    "timezone": "Asia/Damascus",
    "translations": {}
  },
  {
    "id": 2936,
    "name": "As-Suwayda",
    "country_id": 215,
    "country_code": "SY",
    "fips_code": null,
    "iso2": "SU",
    "type": "province",
    "latitude": "32.77055000",
    "longitude": "36.87763350",
    "native": "As-Suwayda",
    "timezone": "Asia/Damascus",
    "translations": {}
  },
  {
    "id": 2939,
    "name": "Damascus",
    "country_id": 215,
    "country_code": "SY",
    "fips_code": null,
    "iso2": "DI",
    "type": "province",
    "latitude": "33.51306950",
    "longitude": "36.30958140",
    "native": "دمشق",
    "timezone": "Asia/Damascus",
    "translations": {}
  },
  {
    "id": 2945,
    "name": "Daraa",
    "country_id": 215,
    "country_code": "SY",
    "fips_code": null,
    "iso2": "DR",
    "type": "province",
    "latitude": "32.82846850",
    "longitude": "36.10556020",
    "native": "سبب",
    "timezone": "Asia/Damascus",
    "translations": {}
  },
  {
    "id": 2937,
    "name": "Deir ez-Zor",
    "country_id": 215,
    "country_code": "SY",
    "fips_code": null,
    "iso2": "DY",
    "type": "province",
    "latitude": "35.26932360",
    "longitude": "40.24011720",
    "native": "دير زور",
    "timezone": "Asia/Damascus",
    "translations": {}
  },
  {
    "id": 2934,
    "name": "Hama",
    "country_id": 215,
    "country_code": "SY",
    "fips_code": null,
    "iso2": "HM",
    "type": "province",
    "latitude": "35.30948900",
    "longitude": "37.27042220",
    "native": "حاما",
    "timezone": "Asia/Damascus",
    "translations": {}
  },
  {
    "id": 2942,
    "name": "Homs",
    "country_id": 215,
    "country_code": "SY",
    "fips_code": null,
    "iso2": "HI",
    "type": "province",
    "latitude": "34.47098210",
    "longitude": "38.15026220",
    "native": "حمص",
    "timezone": "Asia/Damascus",
    "translations": {}
  },
  {
    "id": 2940,
    "name": "Idlib",
    "country_id": 215,
    "country_code": "SY",
    "fips_code": null,
    "iso2": "ID",
    "type": "province",
    "latitude": "35.85959740",
    "longitude": "36.57137010",
    "native": "إدلب",
    "timezone": "Asia/Damascus",
    "translations": {}
  },
  {
    "id": 2938,
    "name": "Latakia",
    "country_id": 215,
    "country_code": "SY",
    "fips_code": null,
    "iso2": "LA",
    "type": "province",
    "latitude": "35.57861980",
    "longitude": "35.98146910",
    "native": "لاتاكيا",
    "timezone": "Asia/Damascus",
    "translations": {}
  },
  {
    "id": 2943,
    "name": "Quneitra",
    "country_id": 215,
    "country_code": "SY",
    "fips_code": null,
    "iso2": "QU",
    "type": "province",
    "latitude": "33.05377590",
    "longitude": "35.90470940",
    "native": "Qneitra",
    "timezone": "Asia/Damascus",
    "translations": {}
  },
  {
    "id": 2935,
    "name": "Rif Dimashq",
    "country_id": 215,
    "country_code": "SY",
    "fips_code": null,
    "iso2": "RD",
    "type": "province",
    "latitude": "33.47082340",
    "longitude": "37.64763200",
    "native": "ريف دمشق",
    "timezone": "Asia/Damascus",
    "translations": {}
  },
  {
    "id": 2947,
    "name": "Tartus",
    "country_id": 215,
    "country_code": "SY",
    "fips_code": null,
    "iso2": "TA",
    "type": "province",
    "latitude": "34.94525530",
    "longitude": "36.07532610",
    "native": "في تارتو",
    "timezone": "Asia/Damascus",
    "translations": {}
  }
]