[
  {
    "id": 20531,
    "name": "Apía",
    "state_id": 2879,
    "state_code": "RIS",
    "country_id": 48,
    "country_code": "CO",
    "latitude": "5.10658000",
    "longitude": "-75.94244000",
    "native": null,
    "timezone": null,
    "translations": {}
  },
  {
    "id": 20563,
    "name": "Balboa",
    "state_id": 2879,
    "state_code": "RIS",
    "country_id": 48,
    "country_code": "CO",
    "latitude": "4.92284000",
    "longitude": "-75.94030000",
    "native": null,
    "timezone": null,
    "translations": {}
  },
  {
    "id": 20585,
    "name": "Belén de Umbría",
    "state_id": 2879,
    "state_code": "RIS",
    "country_id": 48,
    "country_code": "CO",
    "latitude": "5.20087000",
    "longitude": "-75.86865000",
    "native": null,
    "timezone": null,
    "translations": {}
  },
  {
    "id": 20782,
    "name": "Dosquebradas",
    "state_id": 2879,
    "state_code": "RIS",
    "country_id": 48,
    "country_code": "CO",
    "latitude": "4.83916000",
    "longitude": "-75.66727000",
    "native": null,
    "timezone": null,
    "translations": {}
  },
  {
    "id": 20926,
    "name": "Guática",
    "state_id": 2879,
    "state_code": "RIS",
    "country_id": 48,
    "country_code": "CO",
    "latitude": "5.31569000",
    "longitude": "-75.79826000",
    "native": null,
    "timezone": null,
    "translations": {}
  },
  {
    "id": 20975,
    "name": "La Celia",
    "state_id": 2879,
    "state_code": "RIS",
    "country_id": 48,
    "country_code": "CO",
    "latitude": "5.00332000",
    "longitude": "-76.00355000",
    "native": null,
    "timezone": null,
    "translations": {}
  },
  {
    "id": 21016,
    "name": "La Virginia",
    "state_id": 2879,
    "state_code": "RIS",
    "country_id": 48,
    "country_code": "CO",
    "latitude": "4.89972000",
    "longitude": "-75.88250000",
    "native": null,
    "timezone": null,
    "translations": {}
  },
  {
    "id": 21070,
    "name": "Marsella",
    "state_id": 2879,
    "state_code": "RIS",
    "country_id": 48,
    "country_code": "CO",
    "latitude": "4.95238000",
    "longitude": "-75.75265000",
    "native": null,
    "timezone": null,
    "translations": {}
  },
  {
    "id": 21087,
    "name": "Mistrató",
    "state_id": 2879,
    "state_code": "RIS",
    "country_id": 48,
    "country_code": "CO",
    "latitude": "5.29622000",
    "longitude": "-75.88390000",
    "native": null,
    "timezone": null,
    "translations": {}
  },
  {
    "id": 21195,
    "name": "Pereira",
    "state_id": 2879,
    "state_code": "RIS",
    "country_id": 48,
    "country_code": "CO",
    "latitude": "4.76896000",
    "longitude": "-75.72222000",
    "native": null,
    "timezone": null,
    "translations": {}
  },
  {
    "id": 21226,
    "name": "Pueblo Rico",
    "state_id": 2879,
    "state_code": "RIS",
    "country_id": 48,
    "country_code": "CO",
    "latitude": "5.29453000",
    "longitude": "-76.06702000",
    "native": null,
    "timezone": null,
    "translations": {}
  },
  {
    "id": 21274,
    "name": "Quinchía",
    "state_id": 2879,
    "state_code": "RIS",
    "country_id": 48,
    "country_code": "CO",
    "latitude": "5.33957000",
    "longitude": "-75.73018000",
    "native": null,
    "timezone": null,
    "translations": {}
  },
  {
    "id": 21424,
    "name": "Santa Rosa de Cabal",
    "state_id": 2879,
    "state_code": "RIS",
    "country_id": 48,
    "country_code": "CO",
    "latitude": "4.86806000",
    "longitude": "-75.62139000",
    "native": null,
    "timezone": null,
    "translations": {}
  },
  {
    "id": 21442,
    "name": "Santuario",
    "state_id": 2879,
    "state_code": "RIS",
    "country_id": 48,
    "country_code": "CO",
    "latitude": "5.05321000",
    "longitude": "-75.99060000",
    "native": null,
    "timezone": null,
    "translations": {}
  }
]