[
  {
    "id": 31906,
    "name": "Abegondo",
    "state_id": 5089,
    "state_code": "C",
    "country_id": 207,
    "country_code": "ES",
    "latitude": "43.21667000",
    "longitude": "-8.28333000",
    "native": null,
    "timezone": null,
    "translations": {}
  },
  {
    "id": 32364,
    "name": "Amés",
    "state_id": 5089,
    "state_code": "C",
    "country_id": 207,
    "country_code": "ES",
    "latitude": "42.90426000",
    "longitude": "-8.65551000",
    "native": null,
    "timezone": null,
    "translations": {}
  },
  {
    "id": 32411,
    "name": "Aranga",
    "state_id": 5089,
    "state_code": "C",
    "country_id": 207,
    "country_code": "ES",
    "latitude": "43.23469000",
    "longitude": "-8.01705000",
    "native": null,
    "timezone": null,
    "translations": {}
  },
  {
    "id": 32455,
    "name": "Ares",
    "state_id": 5089,
    "state_code": "C",
    "country_id": 207,
    "country_code": "ES",
    "latitude": "43.42995000",
    "longitude": "-8.24254000",
    "native": null,
    "timezone": null,
    "translations": {}
  },
  {
    "id": 32522,
    "name": "Arteixo",
    "state_id": 5089,
    "state_code": "C",
    "country_id": 207,
    "country_code": "ES",
    "latitude": "43.30482000",
    "longitude": "-8.50749000",
    "native": null,
    "timezone": null,
    "translations": {}
  },
  {
    "id": 32529,
    "name": "Arzúa",
    "state_id": 5089,
    "state_code": "C",
    "country_id": 207,
    "country_code": "ES",
    "latitude": "42.93333000",
    "longitude": "-8.15000000",
    "native": null,
    "timezone": null,
    "translations": {}
  },
  {
    "id": 32533,
    "name": "As Pontes de García Rodríguez",
    "state_id": 5089,
    "state_code": "C",
    "country_id": 207,
    "country_code": "ES",
    "latitude": "43.45266000",
    "longitude": "-7.85178000",
    "native": null,
    "timezone": null,
    "translations": {}
  },
  {
    "id": 151031,
    "name": "Baña A",
    "state_id": 5089,
    "state_code": "C",
    "country_id": 207,
    "country_code": "ES",
    "latitude": "42.96164580",
    "longitude": "-8.75845680",
    "native": null,
    "timezone": null,
    "translations": {}
  },
  {
    "id": 32851,
    "name": "Bergondo",
    "state_id": 5089,
    "state_code": "C",
    "country_id": 207,
    "country_code": "ES",
    "latitude": "43.31667000",
    "longitude": "-8.23333000",
    "native": null,
    "timezone": null,
    "translations": {}
  },
  {
    "id": 32879,
    "name": "Betanzos",
    "state_id": 5089,
    "state_code": "C",
    "country_id": 207,
    "country_code": "ES",
    "latitude": "43.28042000",
    "longitude": "-8.21467000",
    "native": null,
    "timezone": null,
    "translations": {}
  },
  {
    "id": 32933,
    "name": "Boimorto",
    "state_id": 5089,
    "state_code": "C",
    "country_id": 207,
    "country_code": "ES",
    "latitude": "43.00000000",
    "longitude": "-8.13333000",
    "native": null,
    "timezone": null,
    "translations": {}
  },
  {
    "id": 32934,
    "name": "Boiro",
    "state_id": 5089,
    "state_code": "C",
    "country_id": 207,
    "country_code": "ES",
    "latitude": "42.64725000",
    "longitude": "-8.88459000",
    "native": null,
    "timezone": null,
    "translations": {}
  },
  {
    "id": 151032,
    "name": "Boqueixón",
    "state_id": 5089,
    "state_code": "C",
    "country_id": 207,
    "country_code": "ES",
    "latitude": "42.81178390",
    "longitude": "-8.41474100",
    "native": null,
    "timezone": null,
    "translations": {}
  },
  {
    "id": 151033,
    "name": "Brión",
    "state_id": 5089,
    "state_code": "C",
    "country_id": 207,
    "country_code": "ES",
    "latitude": "42.86684590",
    "longitude": "-8.67836890",
    "native": null,
    "timezone": null,
    "translations": {}
  },
  {
    "id": 151034,
    "name": "Cabana de Bergantiños",
    "state_id": 5089,
    "state_code": "C",
    "country_id": 207,
    "country_code": "ES",
    "latitude": "43.18607340",
    "longitude": "-8.89142560",
    "native": null,
    "timezone": null,
    "translations": {}
  },
  {
    "id": 151035,
    "name": "Cabanas",
    "state_id": 5089,
    "state_code": "C",
    "country_id": 207,
    "country_code": "ES",
    "latitude": "43.43971340",
    "longitude": "-8.12839420",
    "native": null,
    "timezone": null,
    "translations": {}
  },
  {
    "id": 33169,
    "name": "Camariñas",
    "state_id": 5089,
    "state_code": "C",
    "country_id": 207,
    "country_code": "ES",
    "latitude": "43.13115000",
    "longitude": "-9.18172000",
    "native": null,
    "timezone": null,
    "translations": {}
  },
  {
    "id": 33176,
    "name": "Cambre",
    "state_id": 5089,
    "state_code": "C",
    "country_id": 207,
    "country_code": "ES",
    "latitude": "43.29438000",
    "longitude": "-8.34736000",
    "native": null,
    "timezone": null,
    "translations": {}
  },
  {
    "id": 151036,
    "name": "Capela A",
    "state_id": 5089,
    "state_code": "C",
    "country_id": 207,
    "country_code": "ES",
    "latitude": "43.45184690",
    "longitude": "-8.02470050",
    "native": null,
    "timezone": null,
    "translations": {}
  },
  {
    "id": 33283,
    "name": "Carballo",
    "state_id": 5089,
    "state_code": "C",
    "country_id": 207,
    "country_code": "ES",
    "latitude": "43.21300000",
    "longitude": "-8.69104000",
    "native": null,
    "timezone": null,
    "translations": {}
  },
  {
    "id": 33307,
    "name": "Cariño",
    "state_id": 5089,
    "state_code": "C",
    "country_id": 207,
    "country_code": "ES",
    "latitude": "43.74134000",
    "longitude": "-7.86715000",
    "native": null,
    "timezone": null,
    "translations": {}
  },
  {
    "id": 33312,
    "name": "Carnota",
    "state_id": 5089,
    "state_code": "C",
    "country_id": 207,
    "country_code": "ES",
    "latitude": "42.82330000",
    "longitude": "-9.08913000",
    "native": null,
    "timezone": null,
    "translations": {}
  },
  {
    "id": 33316,
    "name": "Carral",
    "state_id": 5089,
    "state_code": "C",
    "country_id": 207,
    "country_code": "ES",
    "latitude": "43.22860000",
    "longitude": "-8.35545000",
    "native": null,
    "timezone": null,
    "translations": {}
  },
  {
    "id": 33554,
    "name": "Cedeira",
    "state_id": 5089,
    "state_code": "C",
    "country_id": 207,
    "country_code": "ES",
    "latitude": "43.66044000",
    "longitude": "-8.05719000",
    "native": null,
    "timezone": null,
    "translations": {}
  },
  {
    "id": 33559,
    "name": "Cee",
    "state_id": 5089,
    "state_code": "C",
    "country_id": 207,
    "country_code": "ES",
    "latitude": "42.95466000",
    "longitude": "-9.18800000",
    "native": null,
    "timezone": null,
    "translations": {}
  },
  {
    "id": 151037,
    "name": "Cerceda",
    "state_id": 5089,
    "state_code": "C",
    "country_id": 207,
    "country_code": "ES",
    "latitude": "43.18969480",
    "longitude": "-8.47223580",
    "native": null,
    "timezone": null,
    "translations": {}
  },
  {
    "id": 33581,
    "name": "Cerdido",
    "state_id": 5089,
    "state_code": "C",
    "country_id": 207,
    "country_code": "ES",
    "latitude": "43.62063000",
    "longitude": "-7.99959000",
    "native": null,
    "timezone": null,
    "translations": {}
  },
  {
    "id": 33607,
    "name": "Cesuras",
    "state_id": 5089,
    "state_code": "C",
    "country_id": 207,
    "country_code": "ES",
    "latitude": "43.17282000",
    "longitude": "-8.20061000",
    "native": null,
    "timezone": null,
    "translations": {}
  },
  {
    "id": 33725,
    "name": "Coirós",
    "state_id": 5089,
    "state_code": "C",
    "country_id": 207,
    "country_code": "ES",
    "latitude": "43.25000000",
    "longitude": "-8.16667000",
    "native": null,
    "timezone": null,
    "translations": {}
  },
  {
    "id": 33779,
    "name": "Corcubión",
    "state_id": 5089,
    "state_code": "C",
    "country_id": 207,
    "country_code": "ES",
    "latitude": "42.94414000",
    "longitude": "-9.19260000",
    "native": null,
    "timezone": null,
    "translations": {}
  },
  {
    "id": 33792,
    "name": "Coristanco",
    "state_id": 5089,
    "state_code": "C",
    "country_id": 207,
    "country_code": "ES",
    "latitude": "43.20000000",
    "longitude": "-8.75000000",
    "native": null,
    "timezone": null,
    "translations": {}
  },
  {
    "id": 151038,
    "name": "Coruña A",
    "state_id": 5089,
    "state_code": "C",
    "country_id": 207,
    "country_code": "ES",
    "latitude": "43.36376260",
    "longitude": "-8.41039230",
    "native": null,
    "timezone": null,
    "translations": {}
  },
  {
    "id": 33882,
    "name": "Culleredo",
    "state_id": 5089,
    "state_code": "C",
    "country_id": 207,
    "country_code": "ES",
    "latitude": "43.28788000",
    "longitude": "-8.38858000",
    "native": null,
    "timezone": null,
    "translations": {}
  },
  {
    "id": 33887,
    "name": "Curtis",
    "state_id": 5089,
    "state_code": "C",
    "country_id": 207,
    "country_code": "ES",
    "latitude": "43.12374000",
    "longitude": "-8.14818000",
    "native": null,
    "timezone": null,
    "translations": {}
  },
  {
    "id": 151039,
    "name": "Dodro",
    "state_id": 5089,
    "state_code": "C",
    "country_id": 207,
    "country_code": "ES",
    "latitude": "42.71684910",
    "longitude": "-8.71508310",
    "native": null,
    "timezone": null,
    "translations": {}
  },
  {
    "id": 33960,
    "name": "Dumbría",
    "state_id": 5089,
    "state_code": "C",
    "country_id": 207,
    "country_code": "ES",
    "latitude": "43.00836000",
    "longitude": "-9.11328000",
    "native": null,
    "timezone": null,
    "translations": {}
  },
  {
    "id": 34172,
    "name": "Fene",
    "state_id": 5089,
    "state_code": "C",
    "country_id": 207,
    "country_code": "ES",
    "latitude": "43.45000000",
    "longitude": "-8.15000000",
    "native": null,
    "timezone": null,
    "translations": {}
  },
  {
    "id": 34182,
    "name": "Ferrol",
    "state_id": 5089,
    "state_code": "C",
    "country_id": 207,
    "country_code": "ES",
    "latitude": "43.48961000",
    "longitude": "-8.21940000",
    "native": null,
    "timezone": null,
    "translations": {}
  },
  {
    "id": 34192,
    "name": "Fisterra",
    "state_id": 5089,
    "state_code": "C",
    "country_id": 207,
    "country_code": "ES",
    "latitude": "42.90492000",
    "longitude": "-9.26289000",
    "native": null,
    "timezone": null,
    "translations": {}
  },
  {
    "id": 151040,
    "name": "Frades",
    "state_id": 5089,
    "state_code": "C",
    "country_id": 207,
    "country_code": "ES",
    "latitude": "43.04867640",
    "longitude": "-8.28694780",
    "native": null,
    "timezone": null,
    "translations": {}
  },
  {
    "id": 34759,
    "name": "Irixoa",
    "state_id": 5089,
    "state_code": "C",
    "country_id": 207,
    "country_code": "ES",
    "latitude": "43.28470000",
    "longitude": "-8.05916000",
    "native": null,
    "timezone": null,
    "translations": {}
  },
  {
    "id": 151042,
    "name": "Laracha A",
    "state_id": 5089,
    "state_code": "C",
    "country_id": 207,
    "country_code": "ES",
    "latitude": "43.24827000",
    "longitude": "-8.58440490",
    "native": null,
    "timezone": null,
    "translations": {}
  },
  {
    "id": 151041,
    "name": "Laxe",
    "state_id": 5089,
    "state_code": "C",
    "country_id": 207,
    "country_code": "ES",
    "latitude": "43.22121670",
    "longitude": "-9.00635060",
    "native": null,
    "timezone": null,
    "translations": {}
  },
  {
    "id": 35144,
    "name": "Lousame",
    "state_id": 5089,
    "state_code": "C",
    "country_id": 207,
    "country_code": "ES",
    "latitude": "42.76477000",
    "longitude": "-8.84926000",
    "native": null,
    "timezone": null,
    "translations": {}
  },
  {
    "id": 151043,
    "name": "Malpica de Bergantiños",
    "state_id": 5089,
    "state_code": "C",
    "country_id": 207,
    "country_code": "ES",
    "latitude": "43.28894610",
    "longitude": "-8.80320420",
    "native": null,
    "timezone": null,
    "translations": {}
  },
  {
    "id": 151044,
    "name": "Mañón",
    "state_id": 5089,
    "state_code": "C",
    "country_id": 207,
    "country_code": "ES",
    "latitude": "43.65372470",
    "longitude": "-7.73080700",
    "native": null,
    "timezone": null,
    "translations": {}
  },
  {
    "id": 35354,
    "name": "Mazaricos",
    "state_id": 5089,
    "state_code": "C",
    "country_id": 207,
    "country_code": "ES",
    "latitude": "42.94033000",
    "longitude": "-8.97187000",
    "native": null,
    "timezone": null,
    "translations": {}
  },
  {
    "id": 151045,
    "name": "Melide",
    "state_id": 5089,
    "state_code": "C",
    "country_id": 207,
    "country_code": "ES",
    "latitude": "42.91283440",
    "longitude": "-8.02470050",
    "native": null,
    "timezone": null,
    "translations": {}
  },
  {
    "id": 35410,
    "name": "Mesia",
    "state_id": 5089,
    "state_code": "C",
    "country_id": 207,
    "country_code": "ES",
    "latitude": "43.10000000",
    "longitude": "-8.26667000",
    "native": null,
    "timezone": null,
    "translations": {}
  },
  {
    "id": 35457,
    "name": "Miño",
    "state_id": 5089,
    "state_code": "C",
    "country_id": 207,
    "country_code": "ES",
    "latitude": "43.35000000",
    "longitude": "-8.20000000",
    "native": null,
    "timezone": null,
    "translations": {}
  },
  {
    "id": 35465,
    "name": "Moeche",
    "state_id": 5089,
    "state_code": "C",
    "country_id": 207,
    "country_code": "ES",
    "latitude": "43.55000000",
    "longitude": "-8.01667000",
    "native": null,
    "timezone": null,
    "translations": {}
  },
  {
    "id": 35512,
    "name": "Monfero",
    "state_id": 5089,
    "state_code": "C",
    "country_id": 207,
    "country_code": "ES",
    "latitude": "43.33333000",
    "longitude": "-8.01667000",
    "native": null,
    "timezone": null,
    "translations": {}
  },
  {
    "id": 35658,
    "name": "Mugardos",
    "state_id": 5089,
    "state_code": "C",
    "country_id": 207,
    "country_code": "ES",
    "latitude": "43.46040000",
    "longitude": "-8.25507000",
    "native": null,
    "timezone": null,
    "translations": {}
  },
  {
    "id": 35659,
    "name": "Mugia",
    "state_id": 5089,
    "state_code": "C",
    "country_id": 207,
    "country_code": "ES",
    "latitude": "43.10414000",
    "longitude": "-9.21791000",
    "native": null,
    "timezone": null,
    "translations": {}
  },
  {
    "id": 35685,
    "name": "Muros",
    "state_id": 5089,
    "state_code": "C",
    "country_id": 207,
    "country_code": "ES",
    "latitude": "42.77617000",
    "longitude": "-9.06032000",
    "native": null,
    "timezone": null,
    "translations": {}
  },
  {
    "id": 151046,
    "name": "Muxía",
    "state_id": 5089,
    "state_code": "C",
    "country_id": 207,
    "country_code": "ES",
    "latitude": "43.05475910",
    "longitude": "-9.21205930",
    "native": null,
    "timezone": null,
    "translations": {}
  },
  {
    "id": 35720,
    "name": "Narón",
    "state_id": 5089,
    "state_code": "C",
    "country_id": 207,
    "country_code": "ES",
    "latitude": "43.50175000",
    "longitude": "-8.19082000",
    "native": null,
    "timezone": null,
    "translations": {}
  },
  {
    "id": 151047,
    "name": "Neda",
    "state_id": 5089,
    "state_code": "C",
    "country_id": 207,
    "country_code": "ES",
    "latitude": "43.49942180",
    "longitude": "-8.15790380",
    "native": null,
    "timezone": null,
    "translations": {}
  },
  {
    "id": 35797,
    "name": "Negreira",
    "state_id": 5089,
    "state_code": "C",
    "country_id": 207,
    "country_code": "ES",
    "latitude": "42.90402000",
    "longitude": "-8.74273000",
    "native": null,
    "timezone": null,
    "translations": {}
  },
  {
    "id": 151048,
    "name": "Noia",
    "state_id": 5089,
    "state_code": "C",
    "country_id": 207,
    "country_code": "ES",
    "latitude": "42.78427570",
    "longitude": "-8.88828910",
    "native": null,
    "timezone": null,
    "translations": {}
  },
  {
    "id": 35876,
    "name": "Oleiros",
    "state_id": 5089,
    "state_code": "C",
    "country_id": 207,
    "country_code": "ES",
    "latitude": "43.33333000",
    "longitude": "-8.31667000",
    "native": null,
    "timezone": null,
    "translations": {}
  },
  {
    "id": 35939,
    "name": "Ordes",
    "state_id": 5089,
    "state_code": "C",
    "country_id": 207,
    "country_code": "ES",
    "latitude": "43.07654000",
    "longitude": "-8.40900000",
    "native": null,
    "timezone": null,
    "translations": {}
  },
  {
    "id": 35959,
    "name": "Oroso",
    "state_id": 5089,
    "state_code": "C",
    "country_id": 207,
    "country_code": "ES",
    "latitude": "42.98333000",
    "longitude": "-8.43333000",
    "native": null,
    "timezone": null,
    "translations": {}
  },
  {
    "id": 151049,
    "name": "Ortigueira",
    "state_id": 5089,
    "state_code": "C",
    "country_id": 207,
    "country_code": "ES",
    "latitude": "43.68316220",
    "longitude": "-7.85216530",
    "native": null,
    "timezone": null,
    "translations": {}
  },
  {
    "id": 35987,
    "name": "Outes",
    "state_id": 5089,
    "state_code": "C",
    "country_id": 207,
    "country_code": "ES",
    "latitude": "42.86189000",
    "longitude": "-8.90181000",
    "native": null,
    "timezone": null,
    "translations": {}
  },
  {
    "id": 151050,
    "name": "Oza dos Ríos",
    "state_id": 5089,
    "state_code": "C",
    "country_id": 207,
    "country_code": "ES",
    "latitude": "43.21614160",
    "longitude": "-8.18801770",
    "native": null,
    "timezone": null,
    "translations": {}
  },
  {
    "id": 151051,
    "name": "Paderne",
    "state_id": 5089,
    "state_code": "C",
    "country_id": 207,
    "country_code": "ES",
    "latitude": "43.28569570",
    "longitude": "-8.17625760",
    "native": null,
    "timezone": null,
    "translations": {}
  },
  {
    "id": 35995,
    "name": "Padrón",
    "state_id": 5089,
    "state_code": "C",
    "country_id": 207,
    "country_code": "ES",
    "latitude": "42.73875000",
    "longitude": "-8.66057000",
    "native": null,
    "timezone": null,
    "translations": {}
  },
  {
    "id": 151052,
    "name": "Pino O",
    "state_id": 5089,
    "state_code": "C",
    "country_id": 207,
    "country_code": "ES",
    "latitude": "42.93590760",
    "longitude": "-8.33303450",
    "native": null,
    "timezone": null,
    "translations": {}
  },
  {
    "id": 151053,
    "name": "Pobra do Caramiñal A",
    "state_id": 5089,
    "state_code": "C",
    "country_id": 207,
    "country_code": "ES",
    "latitude": "42.60316610",
    "longitude": "-8.93868990",
    "native": null,
    "timezone": null,
    "translations": {}
  },
  {
    "id": 151054,
    "name": "Ponteceso",
    "state_id": 5089,
    "state_code": "C",
    "country_id": 207,
    "country_code": "ES",
    "latitude": "43.26462380",
    "longitude": "-8.86936090",
    "native": null,
    "timezone": null,
    "translations": {}
  },
  {
    "id": 151055,
    "name": "Pontedeume",
    "state_id": 5089,
    "state_code": "C",
    "country_id": 207,
    "country_code": "ES",
    "latitude": "43.40744790",
    "longitude": "-8.16990940",
    "native": null,
    "timezone": null,
    "translations": {}
  },
  {
    "id": 151056,
    "name": "Pontes de García Rodríguez As",
    "state_id": 5089,
    "state_code": "C",
    "country_id": 207,
    "country_code": "ES",
    "latitude": "43.45265540",
    "longitude": "-7.85236900",
    "native": null,
    "timezone": null,
    "translations": {}
  },
  {
    "id": 36296,
    "name": "Porto do Son",
    "state_id": 5089,
    "state_code": "C",
    "country_id": 207,
    "country_code": "ES",
    "latitude": "42.72482000",
    "longitude": "-9.00527000",
    "native": null,
    "timezone": null,
    "translations": {}
  },
  {
    "id": 36603,
    "name": "Rianxo",
    "state_id": 5089,
    "state_code": "C",
    "country_id": 207,
    "country_code": "ES",
    "latitude": "42.64977000",
    "longitude": "-8.81763000",
    "native": null,
    "timezone": null,
    "translations": {}
  },
  {
    "id": 36614,
    "name": "Ribeira",
    "state_id": 5089,
    "state_code": "C",
    "country_id": 207,
    "country_code": "ES",
    "latitude": "42.74611000",
    "longitude": "-8.44392000",
    "native": null,
    "timezone": null,
    "translations": {}
  },
  {
    "id": 151057,
    "name": "Rois",
    "state_id": 5089,
    "state_code": "C",
    "country_id": 207,
    "country_code": "ES",
    "latitude": "42.76244700",
    "longitude": "-8.70734290",
    "native": null,
    "timezone": null,
    "translations": {}
  },
  {
    "id": 36732,
    "name": "Sada",
    "state_id": 5089,
    "state_code": "C",
    "country_id": 207,
    "country_code": "ES",
    "latitude": "43.35619000",
    "longitude": "-8.25796000",
    "native": null,
    "timezone": null,
    "translations": {}
  },
  {
    "id": 151058,
    "name": "San Sadurniño",
    "state_id": 5089,
    "state_code": "C",
    "country_id": 207,
    "country_code": "ES",
    "latitude": "43.53562710",
    "longitude": "-8.05742990",
    "native": null,
    "timezone": null,
    "translations": {}
  },
  {
    "id": 37021,
    "name": "Santa Comba",
    "state_id": 5089,
    "state_code": "C",
    "country_id": 207,
    "country_code": "ES",
    "latitude": "43.03306000",
    "longitude": "-8.80925000",
    "native": null,
    "timezone": null,
    "translations": {}
  },
  {
    "id": 37114,
    "name": "Santiago de Compostela",
    "state_id": 5089,
    "state_code": "C",
    "country_id": 207,
    "country_code": "ES",
    "latitude": "42.88052000",
    "longitude": "-8.54569000",
    "native": null,
    "timezone": null,
    "translations": {}
  },
  {
    "id": 37132,
    "name": "Santiso",
    "state_id": 5089,
    "state_code": "C",
    "country_id": 207,
    "country_code": "ES",
    "latitude": "42.87388000",
    "longitude": "-8.05497000",
    "native": null,
    "timezone": null,
    "translations": {}
  },
  {
    "id": 37274,
    "name": "Sobrado",
    "state_id": 5089,
    "state_code": "C",
    "country_id": 207,
    "country_code": "ES",
    "latitude": "43.03882000",
    "longitude": "-8.02784000",
    "native": null,
    "timezone": null,
    "translations": {}
  },
  {
    "id": 151059,
    "name": "Somozas As",
    "state_id": 5089,
    "state_code": "C",
    "country_id": 207,
    "country_code": "ES",
    "latitude": "43.53540080",
    "longitude": "-7.94398400",
    "native": null,
    "timezone": null,
    "translations": {}
  },
  {
    "id": 37404,
    "name": "Teo",
    "state_id": 5089,
    "state_code": "C",
    "country_id": 207,
    "country_code": "ES",
    "latitude": "42.75000000",
    "longitude": "-8.50000000",
    "native": null,
    "timezone": null,
    "translations": {}
  },
  {
    "id": 151060,
    "name": "Toques",
    "state_id": 5089,
    "state_code": "C",
    "country_id": 207,
    "country_code": "ES",
    "latitude": "42.96685120",
    "longitude": "-7.97327120",
    "native": null,
    "timezone": null,
    "translations": {}
  },
  {
    "id": 151061,
    "name": "Tordoia",
    "state_id": 5089,
    "state_code": "C",
    "country_id": 207,
    "country_code": "ES",
    "latitude": "43.10305410",
    "longitude": "-8.59408140",
    "native": null,
    "timezone": null,
    "translations": {}
  },
  {
    "id": 37608,
    "name": "Touro",
    "state_id": 5089,
    "state_code": "C",
    "country_id": 207,
    "country_code": "ES",
    "latitude": "42.86812000",
    "longitude": "-8.30764000",
    "native": null,
    "timezone": null,
    "translations": {}
  },
  {
    "id": 37624,
    "name": "Trazo",
    "state_id": 5089,
    "state_code": "C",
    "country_id": 207,
    "country_code": "ES",
    "latitude": "43.01667000",
    "longitude": "-8.53333000",
    "native": null,
    "timezone": null,
    "translations": {}
  },
  {
    "id": 151062,
    "name": "Val do Dubra",
    "state_id": 5089,
    "state_code": "C",
    "country_id": 207,
    "country_code": "ES",
    "latitude": "43.02814950",
    "longitude": "-8.65657860",
    "native": null,
    "timezone": null,
    "translations": {}
  },
  {
    "id": 37812,
    "name": "Valdoviño",
    "state_id": 5089,
    "state_code": "C",
    "country_id": 207,
    "country_code": "ES",
    "latitude": "43.60000000",
    "longitude": "-8.13333000",
    "native": null,
    "timezone": null,
    "translations": {}
  },
  {
    "id": 37902,
    "name": "Vedra",
    "state_id": 5089,
    "state_code": "C",
    "country_id": 207,
    "country_code": "ES",
    "latitude": "42.77817000",
    "longitude": "-8.47636000",
    "native": null,
    "timezone": null,
    "translations": {}
  },
  {
    "id": 151063,
    "name": "Vilarmaior",
    "state_id": 5089,
    "state_code": "C",
    "country_id": 207,
    "country_code": "ES",
    "latitude": "43.34663830",
    "longitude": "-8.14555350",
    "native": null,
    "timezone": null,
    "translations": {}
  },
  {
    "id": 38002,
    "name": "Vilasantar",
    "state_id": 5089,
    "state_code": "C",
    "country_id": 207,
    "country_code": "ES",
    "latitude": "43.07106000",
    "longitude": "-8.12163000",
    "native": null,
    "timezone": null,
    "translations": {}
  },
  {
    "id": 38388,
    "name": "Vimianzo",
    "state_id": 5089,
    "state_code": "C",
    "country_id": 207,
    "country_code": "ES",
    "latitude": "43.10988000",
    "longitude": "-9.03351000",
    "native": null,
    "timezone": null,
    "translations": {}
  },
  {
    "id": 38488,
    "name": "Zas",
    "state_id": 5089,
    "state_code": "C",
    "country_id": 207,
    "country_code": "ES",
    "latitude": "43.09885000",
    "longitude": "-8.91558000",
    "native": null,
    "timezone": null,
    "translations": {}
  }
]