[
  {
    "id": 68023,
    "name": "Acachuén",
    "state_id": 3450,
    "state_code": "MEX",
    "country_id": 142,
    "country_code": "MX",
    "latitude": "19.84715000",
    "longitude": "-102.09272000",
    "native": null,
    "timezone": null,
    "translations": {}
  },
  {
    "id": 68031,
    "name": "Acalpican de Morelos",
    "state_id": 3450,
    "state_code": "MEX",
    "country_id": 142,
    "country_code": "MX",
    "latitude": "18.01854000",
    "longitude": "-102.34033000",
    "native": null,
    "timezone": null,
    "translations": {}
  },
  {
    "id": 68032,
    "name": "Acambay",
    "state_id": 3450,
    "state_code": "MEX",
    "country_id": 142,
    "country_code": "MX",
    "latitude": "19.95522000",
    "longitude": "-99.84428000",
    "native": null,
    "timezone": null,
    "translations": {}
  },
  {
    "id": 68054,
    "name": "Acatzingo (Acatzingo de la Piedra)",
    "state_id": 3450,
    "state_code": "MEX",
    "country_id": 142,
    "country_code": "MX",
    "latitude": "18.92389000",
    "longitude": "-99.58861000",
    "native": null,
    "timezone": null,
    "translations": {}
  },
  {
    "id": 68063,
    "name": "Acolman de Netzahualcóyotl",
    "state_id": 3450,
    "state_code": "MEX",
    "country_id": 142,
    "country_code": "MX",
    "latitude": "19.63976000",
    "longitude": "-98.90777000",
    "native": null,
    "timezone": null,
    "translations": {}
  },
  {
    "id": 68079,
    "name": "Acuitlapilco",
    "state_id": 3450,
    "state_code": "MEX",
    "country_id": 142,
    "country_code": "MX",
    "latitude": "18.90873000",
    "longitude": "-99.78464000",
    "native": null,
    "timezone": null,
    "translations": {}
  },
  {
    "id": 68082,
    "name": "Aculco de Espinoza",
    "state_id": 3450,
    "state_code": "MEX",
    "country_id": 142,
    "country_code": "MX",
    "latitude": "20.09867000",
    "longitude": "-99.82757000",
    "native": null,
    "timezone": null,
    "translations": {}
  },
  {
    "id": 68104,
    "name": "Agua Blanca",
    "state_id": 3450,
    "state_code": "MEX",
    "country_id": 142,
    "country_code": "MX",
    "latitude": "19.22056000",
    "longitude": "-99.47056000",
    "native": null,
    "timezone": null,
    "translations": {}
  },
  {
    "id": 68107,
    "name": "Agua Caliente",
    "state_id": 3450,
    "state_code": "MEX",
    "country_id": 142,
    "country_code": "MX",
    "latitude": "19.90011000",
    "longitude": "-100.17186000",
    "native": null,
    "timezone": null,
    "translations": {}
  },
  {
    "id": 68111,
    "name": "Agua Escondida",
    "state_id": 3450,
    "state_code": "MEX",
    "country_id": 142,
    "country_code": "MX",
    "latitude": "19.97893000",
    "longitude": "-99.57829000",
    "native": null,
    "timezone": null,
    "translations": {}
  },
  {
    "id": 68133,
    "name": "Ahuacatitlán",
    "state_id": 3450,
    "state_code": "MEX",
    "country_id": 142,
    "country_code": "MX",
    "latitude": "18.89414000",
    "longitude": "-99.70867000",
    "native": null,
    "timezone": null,
    "translations": {}
  },
  {
    "id": 68134,
    "name": "Ahuacatitlán Cuarto y Quinto Cuartel",
    "state_id": 3450,
    "state_code": "MEX",
    "country_id": 142,
    "country_code": "MX",
    "latitude": "19.96222000",
    "longitude": "-99.98694000",
    "native": null,
    "timezone": null,
    "translations": {}
  },
  {
    "id": 68178,
    "name": "Alborada Jaltenco",
    "state_id": 3450,
    "state_code": "MEX",
    "country_id": 142,
    "country_code": "MX",
    "latitude": "19.66194000",
    "longitude": "-99.06889000",
    "native": null,
    "timezone": null,
    "translations": {}
  },
  {
    "id": 68215,
    "name": "Almoloya de Alquisiras",
    "state_id": 3450,
    "state_code": "MEX",
    "country_id": 142,
    "country_code": "MX",
    "latitude": "18.84217000",
    "longitude": "-99.86416000",
    "native": null,
    "timezone": null,
    "translations": {}
  },
  {
    "id": 68216,
    "name": "Almoloya del Río",
    "state_id": 3450,
    "state_code": "MEX",
    "country_id": 142,
    "country_code": "MX",
    "latitude": "19.16046000",
    "longitude": "-99.48740000",
    "native": null,
    "timezone": null,
    "translations": {}
  },
  {
    "id": 68235,
    "name": "Amanalco de Becerra",
    "state_id": 3450,
    "state_code": "MEX",
    "country_id": 142,
    "country_code": "MX",
    "latitude": "19.31667000",
    "longitude": "-100.01667000",
    "native": null,
    "timezone": null,
    "translations": {}
  },
  {
    "id": 68239,
    "name": "Amatepec",
    "state_id": 3450,
    "state_code": "MEX",
    "country_id": 142,
    "country_code": "MX",
    "latitude": "18.68222000",
    "longitude": "-100.18583000",
    "native": null,
    "timezone": null,
    "translations": {}
  },
  {
    "id": 68252,
    "name": "Amecameca",
    "state_id": 3450,
    "state_code": "MEX",
    "country_id": 142,
    "country_code": "MX",
    "latitude": "19.12384000",
    "longitude": "-98.76649000",
    "native": null,
    "timezone": null,
    "translations": {}
  },
  {
    "id": 68260,
    "name": "Ampliación San Mateo (Colonia Solidaridad)",
    "state_id": 3450,
    "state_code": "MEX",
    "country_id": 142,
    "country_code": "MX",
    "latitude": "19.61639000",
    "longitude": "-99.14722000",
    "native": null,
    "timezone": null,
    "translations": {}
  },
  {
    "id": 68261,
    "name": "Ampliación Tezoyuca",
    "state_id": 3450,
    "state_code": "MEX",
    "country_id": 142,
    "country_code": "MX",
    "latitude": "19.58057000",
    "longitude": "-98.92053000",
    "native": null,
    "timezone": null,
    "translations": {}
  },
  {
    "id": 68301,
    "name": "Apaxco de Ocampo",
    "state_id": 3450,
    "state_code": "MEX",
    "country_id": 142,
    "country_code": "MX",
    "latitude": "19.97512000",
    "longitude": "-99.17112000",
    "native": null,
    "timezone": null,
    "translations": {}
  },
  {
    "id": 68334,
    "name": "Arbolada los Sauces",
    "state_id": 3450,
    "state_code": "MEX",
    "country_id": 142,
    "country_code": "MX",
    "latitude": "19.81583000",
    "longitude": "-99.04417000",
    "native": null,
    "timezone": null,
    "translations": {}
  },
  {
    "id": 68346,
    "name": "Arenal",
    "state_id": 3450,
    "state_code": "MEX",
    "country_id": 142,
    "country_code": "MX",
    "latitude": "19.38111000",
    "longitude": "-98.94278000",
    "native": null,
    "timezone": null,
    "translations": {}
  },
  {
    "id": 68400,
    "name": "Atenguillo",
    "state_id": 3450,
    "state_code": "MEX",
    "country_id": 142,
    "country_code": "MX",
    "latitude": "19.56361000",
    "longitude": "-98.87639000",
    "native": null,
    "timezone": null,
    "translations": {}
  },
  {
    "id": 68407,
    "name": "Atizapán",
    "state_id": 3450,
    "state_code": "MEX",
    "country_id": 142,
    "country_code": "MX",
    "latitude": "19.25000000",
    "longitude": "-99.55000000",
    "native": null,
    "timezone": null,
    "translations": {}
  },
  {
    "id": 68411,
    "name": "Atlacomulco de Fabela",
    "state_id": 3450,
    "state_code": "MEX",
    "country_id": 142,
    "country_code": "MX",
    "latitude": "19.79919000",
    "longitude": "-99.87500000",
    "native": null,
    "timezone": null,
    "translations": {}
  },
  {
    "id": 68418,
    "name": "Atlatongo",
    "state_id": 3450,
    "state_code": "MEX",
    "country_id": 142,
    "country_code": "MX",
    "latitude": "19.66776000",
    "longitude": "-98.90402000",
    "native": null,
    "timezone": null,
    "translations": {}
  },
  {
    "id": 68419,
    "name": "Atlautla",
    "state_id": 3450,
    "state_code": "MEX",
    "country_id": 142,
    "country_code": "MX",
    "latitude": "19.02188000",
    "longitude": "-98.77859000",
    "native": null,
    "timezone": null,
    "translations": {}
  },
  {
    "id": 68448,
    "name": "Axapusco",
    "state_id": 3450,
    "state_code": "MEX",
    "country_id": 142,
    "country_code": "MX",
    "latitude": "19.72456000",
    "longitude": "-98.75863000",
    "native": null,
    "timezone": null,
    "translations": {}
  },
  {
    "id": 68453,
    "name": "Axotlán",
    "state_id": 3450,
    "state_code": "MEX",
    "country_id": 142,
    "country_code": "MX",
    "latitude": "19.69417000",
    "longitude": "-99.23944000",
    "native": null,
    "timezone": null,
    "translations": {}
  },
  {
    "id": 68461,
    "name": "Ayapango",
    "state_id": 3450,
    "state_code": "MEX",
    "country_id": 142,
    "country_code": "MX",
    "latitude": "19.12692000",
    "longitude": "-98.79988000",
    "native": null,
    "timezone": null,
    "translations": {}
  },
  {
    "id": 68525,
    "name": "Barrio Bordo Nuevo",
    "state_id": 3450,
    "state_code": "MEX",
    "country_id": 142,
    "country_code": "MX",
    "latitude": "19.37917000",
    "longitude": "-99.67333000",
    "native": null,
    "timezone": null,
    "translations": {}
  },
  {
    "id": 68526,
    "name": "Barrio Chiquichuca",
    "state_id": 3450,
    "state_code": "MEX",
    "country_id": 142,
    "country_code": "MX",
    "latitude": "19.32139000",
    "longitude": "-100.21278000",
    "native": null,
    "timezone": null,
    "translations": {}
  },
  {
    "id": 68527,
    "name": "Barrio Cuarto (La Loma)",
    "state_id": 3450,
    "state_code": "MEX",
    "country_id": 142,
    "country_code": "MX",
    "latitude": "19.76861000",
    "longitude": "-99.67694000",
    "native": null,
    "timezone": null,
    "translations": {}
  },
  {
    "id": 68536,
    "name": "Barrio de Arriba de San Juan Xoconusco",
    "state_id": 3450,
    "state_code": "MEX",
    "country_id": 142,
    "country_code": "MX",
    "latitude": "19.32040000",
    "longitude": "-100.27020000",
    "native": null,
    "timezone": null,
    "translations": {}
  },
  {
    "id": 68537,
    "name": "Barrio de Boyecha",
    "state_id": 3450,
    "state_code": "MEX",
    "country_id": 142,
    "country_code": "MX",
    "latitude": "19.70778000",
    "longitude": "-99.68444000",
    "native": null,
    "timezone": null,
    "translations": {}
  },
  {
    "id": 68538,
    "name": "Barrio de Canales",
    "state_id": 3450,
    "state_code": "MEX",
    "country_id": 142,
    "country_code": "MX",
    "latitude": "19.37333000",
    "longitude": "-99.37556000",
    "native": null,
    "timezone": null,
    "translations": {}
  },
  {
    "id": 68539,
    "name": "Barrio de Centro del Cerrillo",
    "state_id": 3450,
    "state_code": "MEX",
    "country_id": 142,
    "country_code": "MX",
    "latitude": "19.53694000",
    "longitude": "-99.95417000",
    "native": null,
    "timezone": null,
    "translations": {}
  },
  {
    "id": 68540,
    "name": "Barrio de Ensido",
    "state_id": 3450,
    "state_code": "MEX",
    "country_id": 142,
    "country_code": "MX",
    "latitude": "19.49389000",
    "longitude": "-99.37444000",
    "native": null,
    "timezone": null,
    "translations": {}
  },
  {
    "id": 68541,
    "name": "Barrio de España",
    "state_id": 3450,
    "state_code": "MEX",
    "country_id": 142,
    "country_code": "MX",
    "latitude": "19.86139000",
    "longitude": "-99.08167000",
    "native": null,
    "timezone": null,
    "translations": {}
  },
  {
    "id": 68542,
    "name": "Barrio de Guadalupe",
    "state_id": 3450,
    "state_code": "MEX",
    "country_id": 142,
    "country_code": "MX",
    "latitude": "19.23054000",
    "longitude": "-98.93090000",
    "native": null,
    "timezone": null,
    "translations": {}
  },
  {
    "id": 68544,
    "name": "Barrio de Jesús Fracción Primera",
    "state_id": 3450,
    "state_code": "MEX",
    "country_id": 142,
    "country_code": "MX",
    "latitude": "19.36778000",
    "longitude": "-99.68694000",
    "native": null,
    "timezone": null,
    "translations": {}
  },
  {
    "id": 68554,
    "name": "Barrio de la Barranca",
    "state_id": 3450,
    "state_code": "MEX",
    "country_id": 142,
    "country_code": "MX",
    "latitude": "19.43583000",
    "longitude": "-99.55833000",
    "native": null,
    "timezone": null,
    "translations": {}
  },
  {
    "id": 68545,
    "name": "Barrio de México",
    "state_id": 3450,
    "state_code": "MEX",
    "country_id": 142,
    "country_code": "MX",
    "latitude": "19.28250000",
    "longitude": "-99.82833000",
    "native": null,
    "timezone": null,
    "translations": {}
  },
  {
    "id": 68547,
    "name": "Barrio de Puentecillas",
    "state_id": 3450,
    "state_code": "MEX",
    "country_id": 142,
    "country_code": "MX",
    "latitude": "19.53558000",
    "longitude": "-99.98463000",
    "native": null,
    "timezone": null,
    "translations": {}
  },
  {
    "id": 68548,
    "name": "Barrio de San Isidro",
    "state_id": 3450,
    "state_code": "MEX",
    "country_id": 142,
    "country_code": "MX",
    "latitude": "19.52139000",
    "longitude": "-99.95861000",
    "native": null,
    "timezone": null,
    "translations": {}
  },
  {
    "id": 68549,
    "name": "Barrio de San Juan",
    "state_id": 3450,
    "state_code": "MEX",
    "country_id": 142,
    "country_code": "MX",
    "latitude": "19.41420000",
    "longitude": "-99.53717000",
    "native": null,
    "timezone": null,
    "translations": {}
  },
  {
    "id": 68551,
    "name": "Barrio de San Miguel",
    "state_id": 3450,
    "state_code": "MEX",
    "country_id": 142,
    "country_code": "MX",
    "latitude": "19.51232000",
    "longitude": "-99.95467000",
    "native": null,
    "timezone": null,
    "translations": {}
  },
  {
    "id": 68552,
    "name": "Barrio de San Pedro la Cabecera",
    "state_id": 3450,
    "state_code": "MEX",
    "country_id": 142,
    "country_code": "MX",
    "latitude": "19.56528000",
    "longitude": "-99.75000000",
    "native": null,
    "timezone": null,
    "translations": {}
  },
  {
    "id": 68553,
    "name": "Barrio de San Ramón",
    "state_id": 3450,
    "state_code": "MEX",
    "country_id": 142,
    "country_code": "MX",
    "latitude": "19.37361000",
    "longitude": "-99.33111000",
    "native": null,
    "timezone": null,
    "translations": {}
  },
  {
    "id": 68555,
    "name": "Barrio del Cajón",
    "state_id": 3450,
    "state_code": "MEX",
    "country_id": 142,
    "country_code": "MX",
    "latitude": "19.39139000",
    "longitude": "-99.65806000",
    "native": null,
    "timezone": null,
    "translations": {}
  },
  {
    "id": 68556,
    "name": "Barrio el Boncho",
    "state_id": 3450,
    "state_code": "MEX",
    "country_id": 142,
    "country_code": "MX",
    "latitude": "19.42611000",
    "longitude": "-100.10639000",
    "native": null,
    "timezone": null,
    "translations": {}
  },
  {
    "id": 68557,
    "name": "Barrio el Vivero",
    "state_id": 3450,
    "state_code": "MEX",
    "country_id": 142,
    "country_code": "MX",
    "latitude": "19.45306000",
    "longitude": "-100.03528000",
    "native": null,
    "timezone": null,
    "translations": {}
  },
  {
    "id": 68558,
    "name": "Barrio la Joya",
    "state_id": 3450,
    "state_code": "MEX",
    "country_id": 142,
    "country_code": "MX",
    "latitude": "19.42000000",
    "longitude": "-100.09972000",
    "native": null,
    "timezone": null,
    "translations": {}
  },
  {
    "id": 68559,
    "name": "Barrio la Tenería",
    "state_id": 3450,
    "state_code": "MEX",
    "country_id": 142,
    "country_code": "MX",
    "latitude": "19.69361000",
    "longitude": "-99.79194000",
    "native": null,
    "timezone": null,
    "translations": {}
  },
  {
    "id": 68560,
    "name": "Barrio los Tules",
    "state_id": 3450,
    "state_code": "MEX",
    "country_id": 142,
    "country_code": "MX",
    "latitude": "19.42917000",
    "longitude": "-100.07472000",
    "native": null,
    "timezone": null,
    "translations": {}
  },
  {
    "id": 68531,
    "name": "Barrio San Joaquín el Junco",
    "state_id": 3450,
    "state_code": "MEX",
    "country_id": 142,
    "country_code": "MX",
    "latitude": "19.56417000",
    "longitude": "-99.77333000",
    "native": null,
    "timezone": null,
    "translations": {}
  },
  {
    "id": 68532,
    "name": "Barrio San Miguel Dorami",
    "state_id": 3450,
    "state_code": "MEX",
    "country_id": 142,
    "country_code": "MX",
    "latitude": "19.44622000",
    "longitude": "-99.34296000",
    "native": null,
    "timezone": null,
    "translations": {}
  },
  {
    "id": 68533,
    "name": "Barrio Santa Cruz",
    "state_id": 3450,
    "state_code": "MEX",
    "country_id": 142,
    "country_code": "MX",
    "latitude": "19.35139000",
    "longitude": "-99.66278000",
    "native": null,
    "timezone": null,
    "translations": {}
  },
  {
    "id": 68534,
    "name": "Barrio Tepetitlán Emilio Portes Gil",
    "state_id": 3450,
    "state_code": "MEX",
    "country_id": 142,
    "country_code": "MX",
    "latitude": "19.65306000",
    "longitude": "-99.88667000",
    "native": null,
    "timezone": null,
    "translations": {}
  },
  {
    "id": 68535,
    "name": "Barrio Tlatenco",
    "state_id": 3450,
    "state_code": "MEX",
    "country_id": 142,
    "country_code": "MX",
    "latitude": "19.73917000",
    "longitude": "-99.19167000",
    "native": null,
    "timezone": null,
    "translations": {}
  },
  {
    "id": 68571,
    "name": "Bejucos",
    "state_id": 3450,
    "state_code": "MEX",
    "country_id": 142,
    "country_code": "MX",
    "latitude": "18.77802000",
    "longitude": "-100.42778000",
    "native": null,
    "timezone": null,
    "translations": {}
  },
  {
    "id": 68572,
    "name": "Belem",
    "state_id": 3450,
    "state_code": "MEX",
    "country_id": 142,
    "country_code": "MX",
    "latitude": "19.63334000",
    "longitude": "-98.79664000",
    "native": null,
    "timezone": null,
    "translations": {}
  },
  {
    "id": 68595,
    "name": "Benito Juárez",
    "state_id": 3450,
    "state_code": "MEX",
    "country_id": 142,
    "country_code": "MX",
    "latitude": "19.43765000",
    "longitude": "-99.85384000",
    "native": null,
    "timezone": null,
    "translations": {}
  },
  {
    "id": 68620,
    "name": "Bobashi de Guadalupe",
    "state_id": 3450,
    "state_code": "MEX",
    "country_id": 142,
    "country_code": "MX",
    "latitude": "19.87583000",
    "longitude": "-99.91167000",
    "native": null,
    "timezone": null,
    "translations": {}
  },
  {
    "id": 68642,
    "name": "Boshindó",
    "state_id": 3450,
    "state_code": "MEX",
    "country_id": 142,
    "country_code": "MX",
    "latitude": "19.91922000",
    "longitude": "-99.84075000",
    "native": null,
    "timezone": null,
    "translations": {}
  },
  {
    "id": 68645,
    "name": "Bosques de la Magdalena",
    "state_id": 3450,
    "state_code": "MEX",
    "country_id": 142,
    "country_code": "MX",
    "latitude": "19.35778000",
    "longitude": "-98.94750000",
    "native": null,
    "timezone": null,
    "translations": {}
  },
  {
    "id": 68670,
    "name": "Buenavista",
    "state_id": 3450,
    "state_code": "MEX",
    "country_id": 142,
    "country_code": "MX",
    "latitude": "19.60833000",
    "longitude": "-99.16944000",
    "native": null,
    "timezone": null,
    "translations": {}
  },
  {
    "id": 68687,
    "name": "Buenos Aires",
    "state_id": 3450,
    "state_code": "MEX",
    "country_id": 142,
    "country_code": "MX",
    "latitude": "19.61745000",
    "longitude": "-99.66790000",
    "native": null,
    "timezone": null,
    "translations": {}
  },
  {
    "id": 68701,
    "name": "Cabecera de Indígenas",
    "state_id": 3450,
    "state_code": "MEX",
    "country_id": 142,
    "country_code": "MX",
    "latitude": "19.37213000",
    "longitude": "-100.13667000",
    "native": null,
    "timezone": null,
    "translations": {}
  },
  {
    "id": 68709,
    "name": "Cacalomacan",
    "state_id": 3450,
    "state_code": "MEX",
    "country_id": 142,
    "country_code": "MX",
    "latitude": "19.25311000",
    "longitude": "-99.70623000",
    "native": null,
    "timezone": null,
    "translations": {}
  },
  {
    "id": 68721,
    "name": "Caja de Agua",
    "state_id": 3450,
    "state_code": "MEX",
    "country_id": 142,
    "country_code": "MX",
    "latitude": "19.64329000",
    "longitude": "-99.36497000",
    "native": null,
    "timezone": null,
    "translations": {}
  },
  {
    "id": 68738,
    "name": "Calimaya",
    "state_id": 3450,
    "state_code": "MEX",
    "country_id": 142,
    "country_code": "MX",
    "latitude": "19.16324000",
    "longitude": "-99.61810000",
    "native": null,
    "timezone": null,
    "translations": {}
  },
  {
    "id": 68740,
    "name": "Calixtlahuaca",
    "state_id": 3450,
    "state_code": "MEX",
    "country_id": 142,
    "country_code": "MX",
    "latitude": "19.33651000",
    "longitude": "-99.68923000",
    "native": null,
    "timezone": null,
    "translations": {}
  },
  {
    "id": 68750,
    "name": "Calvario Buenavista",
    "state_id": 3450,
    "state_code": "MEX",
    "country_id": 142,
    "country_code": "MX",
    "latitude": "19.70387000",
    "longitude": "-99.95674000",
    "native": null,
    "timezone": null,
    "translations": {}
  },
  {
    "id": 68751,
    "name": "Calvario del Carmen",
    "state_id": 3450,
    "state_code": "MEX",
    "country_id": 142,
    "country_code": "MX",
    "latitude": "19.63562000",
    "longitude": "-100.01030000",
    "native": null,
    "timezone": null,
    "translations": {}
  },
  {
    "id": 68876,
    "name": "Cañada de Cisneros",
    "state_id": 3450,
    "state_code": "MEX",
    "country_id": 142,
    "country_code": "MX",
    "latitude": "19.69534000",
    "longitude": "-99.33570000",
    "native": null,
    "timezone": null,
    "translations": {}
  },
  {
    "id": 68877,
    "name": "Cañada de Guadarrama",
    "state_id": 3450,
    "state_code": "MEX",
    "country_id": 142,
    "country_code": "MX",
    "latitude": "19.31272000",
    "longitude": "-99.78972000",
    "native": null,
    "timezone": null,
    "translations": {}
  },
  {
    "id": 68783,
    "name": "Canalejas",
    "state_id": 3450,
    "state_code": "MEX",
    "country_id": 142,
    "country_code": "MX",
    "latitude": "19.97867000",
    "longitude": "-99.60548000",
    "native": null,
    "timezone": null,
    "translations": {}
  },
  {
    "id": 68808,
    "name": "Capula",
    "state_id": 3450,
    "state_code": "MEX",
    "country_id": 142,
    "country_code": "MX",
    "latitude": "18.87018000",
    "longitude": "-99.96075000",
    "native": null,
    "timezone": null,
    "translations": {}
  },
  {
    "id": 68811,
    "name": "Capulhuac de Mirafuentes",
    "state_id": 3450,
    "state_code": "MEX",
    "country_id": 142,
    "country_code": "MX",
    "latitude": "19.19354000",
    "longitude": "-99.46585000",
    "native": null,
    "timezone": null,
    "translations": {}
  },
  {
    "id": 68815,
    "name": "Carapán",
    "state_id": 3450,
    "state_code": "MEX",
    "country_id": 142,
    "country_code": "MX",
    "latitude": "19.86003000",
    "longitude": "-102.03644000",
    "native": null,
    "timezone": null,
    "translations": {}
  },
  {
    "id": 68849,
    "name": "Casa Nueva",
    "state_id": 3450,
    "state_code": "MEX",
    "country_id": 142,
    "country_code": "MX",
    "latitude": "19.83333000",
    "longitude": "-99.20944000",
    "native": null,
    "timezone": null,
    "translations": {}
  },
  {
    "id": 68854,
    "name": "Casas Viejas",
    "state_id": 3450,
    "state_code": "MEX",
    "country_id": 142,
    "country_code": "MX",
    "latitude": "19.15167000",
    "longitude": "-100.10778000",
    "native": null,
    "timezone": null,
    "translations": {}
  },
  {
    "id": 68855,
    "name": "Caserío de Cortés",
    "state_id": 3450,
    "state_code": "MEX",
    "country_id": 142,
    "country_code": "MX",
    "latitude": "19.19861000",
    "longitude": "-98.95444000",
    "native": null,
    "timezone": null,
    "translations": {}
  },
  {
    "id": 68887,
    "name": "Cedro de la Manzana",
    "state_id": 3450,
    "state_code": "MEX",
    "country_id": 142,
    "country_code": "MX",
    "latitude": "19.69213000",
    "longitude": "-100.11656000",
    "native": null,
    "timezone": null,
    "translations": {}
  },
  {
    "id": 68892,
    "name": "Celayita",
    "state_id": 3450,
    "state_code": "MEX",
    "country_id": 142,
    "country_code": "MX",
    "latitude": "20.24113000",
    "longitude": "-99.86142000",
    "native": null,
    "timezone": null,
    "translations": {}
  },
  {
    "id": 68919,
    "name": "Cerritos del Pilar",
    "state_id": 3450,
    "state_code": "MEX",
    "country_id": 142,
    "country_code": "MX",
    "latitude": "19.44508000",
    "longitude": "-100.01909000",
    "native": null,
    "timezone": null,
    "translations": {}
  },
  {
    "id": 68935,
    "name": "Cerro de San Francisco",
    "state_id": 3450,
    "state_code": "MEX",
    "country_id": 142,
    "country_code": "MX",
    "latitude": "19.37038000",
    "longitude": "-99.35162000",
    "native": null,
    "timezone": null,
    "translations": {}
  },
  {
    "id": 68939,
    "name": "Cerro del Murciélago",
    "state_id": 3450,
    "state_code": "MEX",
    "country_id": 142,
    "country_code": "MX",
    "latitude": "19.28194000",
    "longitude": "-99.75472000",
    "native": null,
    "timezone": null,
    "translations": {}
  },
  {
    "id": 68931,
    "name": "Cerro La Calera",
    "state_id": 3450,
    "state_code": "MEX",
    "country_id": 142,
    "country_code": "MX",
    "latitude": "19.18333000",
    "longitude": "-99.81667000",
    "native": null,
    "timezone": null,
    "translations": {}
  },
  {
    "id": 68957,
    "name": "Chalchihuapan",
    "state_id": 3450,
    "state_code": "MEX",
    "country_id": 142,
    "country_code": "MX",
    "latitude": "18.97694000",
    "longitude": "-99.57472000",
    "native": null,
    "timezone": null,
    "translations": {}
  },
  {
    "id": 68962,
    "name": "Chalco",
    "state_id": 3450,
    "state_code": "MEX",
    "country_id": 142,
    "country_code": "MX",
    "latitude": "19.26174000",
    "longitude": "-98.89775000",
    "native": null,
    "timezone": null,
    "translations": {}
  },
  {
    "id": 68963,
    "name": "Chalma",
    "state_id": 3450,
    "state_code": "MEX",
    "country_id": 142,
    "country_code": "MX",
    "latitude": "18.93048000",
    "longitude": "-99.43505000",
    "native": null,
    "timezone": null,
    "translations": {}
  },
  {
    "id": 68965,
    "name": "Chalmita",
    "state_id": 3450,
    "state_code": "MEX",
    "country_id": 142,
    "country_code": "MX",
    "latitude": "18.93433000",
    "longitude": "-99.42325000",
    "native": null,
    "timezone": null,
    "translations": {}
  },
  {
    "id": 68977,
    "name": "Chapa de Mota",
    "state_id": 3450,
    "state_code": "MEX",
    "country_id": 142,
    "country_code": "MX",
    "latitude": "19.82420000",
    "longitude": "-99.55252000",
    "native": null,
    "timezone": null,
    "translations": {}
  },
  {
    "id": 68982,
    "name": "Chaparaco",
    "state_id": 3450,
    "state_code": "MEX",
    "country_id": 142,
    "country_code": "MX",
    "latitude": "19.96061000",
    "longitude": "-102.26092000",
    "native": null,
    "timezone": null,
    "translations": {}
  },
  {
    "id": 68990,
    "name": "Chapultepec",
    "state_id": 3450,
    "state_code": "MEX",
    "country_id": 142,
    "country_code": "MX",
    "latitude": "19.20216000",
    "longitude": "-99.56176000",
    "native": null,
    "timezone": null,
    "translations": {}
  },
  {
    "id": 69013,
    "name": "Chiautla",
    "state_id": 3450,
    "state_code": "MEX",
    "country_id": 142,
    "country_code": "MX",
    "latitude": "19.54895000",
    "longitude": "-98.88236000",
    "native": null,
    "timezone": null,
    "translations": {}
  },
  {
    "id": 69036,
    "name": "Chicoloapan",
    "state_id": 3450,
    "state_code": "MEX",
    "country_id": 142,
    "country_code": "MX",
    "latitude": "19.41687000",
    "longitude": "-98.90202000",
    "native": null,
    "timezone": null,
    "translations": {}
  },
  {
    "id": 69040,
    "name": "Chiconcuac",
    "state_id": 3450,
    "state_code": "MEX",
    "country_id": 142,
    "country_code": "MX",
    "latitude": "19.55939000",
    "longitude": "-98.89884000",
    "native": null,
    "timezone": null,
    "translations": {}
  },
  {
    "id": 69066,
    "name": "Chilchota",
    "state_id": 3450,
    "state_code": "MEX",
    "country_id": 142,
    "country_code": "MX",
    "latitude": "19.84654000",
    "longitude": "-102.11716000",
    "native": null,
    "timezone": null,
    "translations": {}
  },
  {
    "id": 69073,
    "name": "Chiltepec de Hidalgo",
    "state_id": 3450,
    "state_code": "MEX",
    "country_id": 142,
    "country_code": "MX",
    "latitude": "18.91266000",
    "longitude": "-99.83450000",
    "native": null,
    "timezone": null,
    "translations": {}
  },
  {
    "id": 69077,
    "name": "Chimalpa Viejo",
    "state_id": 3450,
    "state_code": "MEX",
    "country_id": 142,
    "country_code": "MX",
    "latitude": "19.44956000",
    "longitude": "-99.34435000",
    "native": null,
    "timezone": null,
    "translations": {}
  },
  {
    "id": 69108,
    "name": "Chosto de los Jarros",
    "state_id": 3450,
    "state_code": "MEX",
    "country_id": 142,
    "country_code": "MX",
    "latitude": "19.86333000",
    "longitude": "-99.91000000",
    "native": null,
    "timezone": null,
    "translations": {}
  },
  {
    "id": 69165,
    "name": "Ciudad López Mateos",
    "state_id": 3450,
    "state_code": "MEX",
    "country_id": 142,
    "country_code": "MX",
    "latitude": "19.55793000",
    "longitude": "-99.25675000",
    "native": null,
    "timezone": null,
    "translations": {}
  },
  {
    "id": 69173,
    "name": "Ciudad Nezahualcoyotl",
    "state_id": 3450,
    "state_code": "MEX",
    "country_id": 142,
    "country_code": "MX",
    "latitude": "19.40061000",
    "longitude": "-99.01483000",
    "native": null,
    "timezone": null,
    "translations": {}
  },
  {
    "id": 69203,
    "name": "Coacalco",
    "state_id": 3450,
    "state_code": "MEX",
    "country_id": 142,
    "country_code": "MX",
    "latitude": "19.62923000",
    "longitude": "-99.10689000",
    "native": null,
    "timezone": null,
    "translations": {}
  },
  {
    "id": 69221,
    "name": "Coamilpa de Juárez",
    "state_id": 3450,
    "state_code": "MEX",
    "country_id": 142,
    "country_code": "MX",
    "latitude": "19.19778000",
    "longitude": "-99.44361000",
    "native": null,
    "timezone": null,
    "translations": {}
  },
  {
    "id": 69225,
    "name": "Coatepec",
    "state_id": 3450,
    "state_code": "MEX",
    "country_id": 142,
    "country_code": "MX",
    "latitude": "19.38485000",
    "longitude": "-98.84546000",
    "native": null,
    "timezone": null,
    "translations": {}
  },
  {
    "id": 69228,
    "name": "Coatepec Harinas",
    "state_id": 3450,
    "state_code": "MEX",
    "country_id": 142,
    "country_code": "MX",
    "latitude": "18.89492000",
    "longitude": "-99.72153000",
    "native": null,
    "timezone": null,
    "translations": {}
  },
  {
    "id": 69239,
    "name": "Cocotitlán",
    "state_id": 3450,
    "state_code": "MEX",
    "country_id": 142,
    "country_code": "MX",
    "latitude": "19.23336000",
    "longitude": "-98.86596000",
    "native": null,
    "timezone": null,
    "translations": {}
  },
  {
    "id": 69265,
    "name": "Colonia 2 de Septiembre",
    "state_id": 3450,
    "state_code": "MEX",
    "country_id": 142,
    "country_code": "MX",
    "latitude": "19.70056000",
    "longitude": "-99.11667000",
    "native": null,
    "timezone": null,
    "translations": {}
  },
  {
    "id": 69268,
    "name": "Colonia 3 de Mayo",
    "state_id": 3450,
    "state_code": "MEX",
    "country_id": 142,
    "country_code": "MX",
    "latitude": "18.82726000",
    "longitude": "-99.69304000",
    "native": null,
    "timezone": null,
    "translations": {}
  },
  {
    "id": 69269,
    "name": "Colonia 3 de Mayo (La Cruz)",
    "state_id": 3450,
    "state_code": "MEX",
    "country_id": 142,
    "country_code": "MX",
    "latitude": "19.98083000",
    "longitude": "-99.16361000",
    "native": null,
    "timezone": null,
    "translations": {}
  },
  {
    "id": 69271,
    "name": "Colonia Adolfo López Mateos",
    "state_id": 3450,
    "state_code": "MEX",
    "country_id": 142,
    "country_code": "MX",
    "latitude": "19.40056000",
    "longitude": "-99.45944000",
    "native": null,
    "timezone": null,
    "translations": {}
  },
  {
    "id": 69277,
    "name": "Colonia Agrícola Álvaro Obregón",
    "state_id": 3450,
    "state_code": "MEX",
    "country_id": 142,
    "country_code": "MX",
    "latitude": "19.22806000",
    "longitude": "-99.55583000",
    "native": null,
    "timezone": null,
    "translations": {}
  },
  {
    "id": 69274,
    "name": "Colonia Agrícola Analco",
    "state_id": 3450,
    "state_code": "MEX",
    "country_id": 142,
    "country_code": "MX",
    "latitude": "19.34972000",
    "longitude": "-99.47500000",
    "native": null,
    "timezone": null,
    "translations": {}
  },
  {
    "id": 69405,
    "name": "Colonia Álvaro Obregón",
    "state_id": 3450,
    "state_code": "MEX",
    "country_id": 142,
    "country_code": "MX",
    "latitude": "19.37691000",
    "longitude": "-99.49484000",
    "native": null,
    "timezone": null,
    "translations": {}
  },
  {
    "id": 69281,
    "name": "Colonia Arboledas (San Andrés)",
    "state_id": 3450,
    "state_code": "MEX",
    "country_id": 142,
    "country_code": "MX",
    "latitude": "19.20250000",
    "longitude": "-99.58083000",
    "native": null,
    "timezone": null,
    "translations": {}
  },
  {
    "id": 69282,
    "name": "Colonia Aviación Autopan",
    "state_id": 3450,
    "state_code": "MEX",
    "country_id": 142,
    "country_code": "MX",
    "latitude": "19.37917000",
    "longitude": "-99.69278000",
    "native": null,
    "timezone": null,
    "translations": {}
  },
  {
    "id": 69283,
    "name": "Colonia Azteca",
    "state_id": 3450,
    "state_code": "MEX",
    "country_id": 142,
    "country_code": "MX",
    "latitude": "19.07806000",
    "longitude": "-99.65417000",
    "native": null,
    "timezone": null,
    "translations": {}
  },
  {
    "id": 69284,
    "name": "Colonia Bellavista",
    "state_id": 3450,
    "state_code": "MEX",
    "country_id": 142,
    "country_code": "MX",
    "latitude": "19.29820000",
    "longitude": "-99.80879000",
    "native": null,
    "timezone": null,
    "translations": {}
  },
  {
    "id": 69290,
    "name": "Colonia Cuauhtémoc",
    "state_id": 3450,
    "state_code": "MEX",
    "country_id": 142,
    "country_code": "MX",
    "latitude": "19.25122000",
    "longitude": "-99.79717000",
    "native": null,
    "timezone": null,
    "translations": {}
  },
  {
    "id": 69292,
    "name": "Colonia Doctor Gustavo Baz",
    "state_id": 3450,
    "state_code": "MEX",
    "country_id": 142,
    "country_code": "MX",
    "latitude": "19.41056000",
    "longitude": "-99.92167000",
    "native": null,
    "timezone": null,
    "translations": {}
  },
  {
    "id": 69385,
    "name": "Colonia el Mirador",
    "state_id": 3450,
    "state_code": "MEX",
    "country_id": 142,
    "country_code": "MX",
    "latitude": "19.67167000",
    "longitude": "-99.35722000",
    "native": null,
    "timezone": null,
    "translations": {}
  },
  {
    "id": 69388,
    "name": "Colonia el Pirame",
    "state_id": 3450,
    "state_code": "MEX",
    "country_id": 142,
    "country_code": "MX",
    "latitude": "19.24083000",
    "longitude": "-99.47194000",
    "native": null,
    "timezone": null,
    "translations": {}
  },
  {
    "id": 69389,
    "name": "Colonia el Refugio",
    "state_id": 3450,
    "state_code": "MEX",
    "country_id": 142,
    "country_code": "MX",
    "latitude": "19.22694000",
    "longitude": "-99.69417000",
    "native": null,
    "timezone": null,
    "translations": {}
  },
  {
    "id": 69391,
    "name": "Colonia el Salado",
    "state_id": 3450,
    "state_code": "MEX",
    "country_id": 142,
    "country_code": "MX",
    "latitude": "19.58389000",
    "longitude": "-98.99139000",
    "native": null,
    "timezone": null,
    "translations": {}
  },
  {
    "id": 69296,
    "name": "Colonia Emiliano Zapata",
    "state_id": 3450,
    "state_code": "MEX",
    "country_id": 142,
    "country_code": "MX",
    "latitude": "19.39111000",
    "longitude": "-99.52528000",
    "native": null,
    "timezone": null,
    "translations": {}
  },
  {
    "id": 69298,
    "name": "Colonia Emiliano Zapata Ejido de Tenancingo",
    "state_id": 3450,
    "state_code": "MEX",
    "country_id": 142,
    "country_code": "MX",
    "latitude": "18.95361000",
    "longitude": "-99.55889000",
    "native": null,
    "timezone": null,
    "translations": {}
  },
  {
    "id": 69306,
    "name": "Colonia Guadalupe",
    "state_id": 3450,
    "state_code": "MEX",
    "country_id": 142,
    "country_code": "MX",
    "latitude": "19.71306000",
    "longitude": "-99.24972000",
    "native": null,
    "timezone": null,
    "translations": {}
  },
  {
    "id": 69307,
    "name": "Colonia Guadalupe Victoria",
    "state_id": 3450,
    "state_code": "MEX",
    "country_id": 142,
    "country_code": "MX",
    "latitude": "19.49917000",
    "longitude": "-98.91917000",
    "native": null,
    "timezone": null,
    "translations": {}
  },
  {
    "id": 69308,
    "name": "Colonia Guadalupe Victoria (La Capilla)",
    "state_id": 3450,
    "state_code": "MEX",
    "country_id": 142,
    "country_code": "MX",
    "latitude": "19.40222000",
    "longitude": "-99.45417000",
    "native": null,
    "timezone": null,
    "translations": {}
  },
  {
    "id": 69309,
    "name": "Colonia Gustavo Baz Prada",
    "state_id": 3450,
    "state_code": "MEX",
    "country_id": 142,
    "country_code": "MX",
    "latitude": "19.42139000",
    "longitude": "-99.01361000",
    "native": null,
    "timezone": null,
    "translations": {}
  },
  {
    "id": 69314,
    "name": "Colonia Isidro Fabela",
    "state_id": 3450,
    "state_code": "MEX",
    "country_id": 142,
    "country_code": "MX",
    "latitude": "19.30056000",
    "longitude": "-99.52278000",
    "native": null,
    "timezone": null,
    "translations": {}
  },
  {
    "id": 69318,
    "name": "Colonia Juárez",
    "state_id": 3450,
    "state_code": "MEX",
    "country_id": 142,
    "country_code": "MX",
    "latitude": "19.99583000",
    "longitude": "-99.14944000",
    "native": null,
    "timezone": null,
    "translations": {}
  },
  {
    "id": 69392,
    "name": "Colonia la Asunción",
    "state_id": 3450,
    "state_code": "MEX",
    "country_id": 142,
    "country_code": "MX",
    "latitude": "19.69083000",
    "longitude": "-99.06417000",
    "native": null,
    "timezone": null,
    "translations": {}
  },
  {
    "id": 69395,
    "name": "Colonia la Libertad",
    "state_id": 3450,
    "state_code": "MEX",
    "country_id": 142,
    "country_code": "MX",
    "latitude": "19.18528000",
    "longitude": "-99.50278000",
    "native": null,
    "timezone": null,
    "translations": {}
  },
  {
    "id": 69325,
    "name": "Colonia Lázaro Cárdenas",
    "state_id": 3450,
    "state_code": "MEX",
    "country_id": 142,
    "country_code": "MX",
    "latitude": "19.51306000",
    "longitude": "-98.92000000",
    "native": null,
    "timezone": null,
    "translations": {}
  },
  {
    "id": 69326,
    "name": "Colonia Lázaro Cárdenas (Los Hornos)",
    "state_id": 3450,
    "state_code": "MEX",
    "country_id": 142,
    "country_code": "MX",
    "latitude": "19.63167000",
    "longitude": "-99.15333000",
    "native": null,
    "timezone": null,
    "translations": {}
  },
  {
    "id": 69322,
    "name": "Colonia Lindavista",
    "state_id": 3450,
    "state_code": "MEX",
    "country_id": 142,
    "country_code": "MX",
    "latitude": "19.49156000",
    "longitude": "-99.12475000",
    "native": null,
    "timezone": null,
    "translations": {}
  },
  {
    "id": 69399,
    "name": "Colonia los Aguiluchos",
    "state_id": 3450,
    "state_code": "MEX",
    "country_id": 142,
    "country_code": "MX",
    "latitude": "19.72611000",
    "longitude": "-99.09028000",
    "native": null,
    "timezone": null,
    "translations": {}
  },
  {
    "id": 69400,
    "name": "Colonia los Cedros",
    "state_id": 3450,
    "state_code": "MEX",
    "country_id": 142,
    "country_code": "MX",
    "latitude": "19.31167000",
    "longitude": "-99.54111000",
    "native": null,
    "timezone": null,
    "translations": {}
  },
  {
    "id": 69402,
    "name": "Colonia los Remedios",
    "state_id": 3450,
    "state_code": "MEX",
    "country_id": 142,
    "country_code": "MX",
    "latitude": "19.73444000",
    "longitude": "-98.79111000",
    "native": null,
    "timezone": null,
    "translations": {}
  },
  {
    "id": 69333,
    "name": "Colonia Morelos",
    "state_id": 3450,
    "state_code": "MEX",
    "country_id": 142,
    "country_code": "MX",
    "latitude": "19.63778000",
    "longitude": "-99.33917000",
    "native": null,
    "timezone": null,
    "translations": {}
  },
  {
    "id": 69346,
    "name": "Colonia Palma",
    "state_id": 3450,
    "state_code": "MEX",
    "country_id": 142,
    "country_code": "MX",
    "latitude": "19.56444000",
    "longitude": "-99.42417000",
    "native": null,
    "timezone": null,
    "translations": {}
  },
  {
    "id": 69354,
    "name": "Colonia Reforma Tlalmimilolpan",
    "state_id": 3450,
    "state_code": "MEX",
    "country_id": 142,
    "country_code": "MX",
    "latitude": "19.38806000",
    "longitude": "-99.48889000",
    "native": null,
    "timezone": null,
    "translations": {}
  },
  {
    "id": 69357,
    "name": "Colonia Ricardo Flores Magón",
    "state_id": 3450,
    "state_code": "MEX",
    "country_id": 142,
    "country_code": "MX",
    "latitude": "19.26833000",
    "longitude": "-99.75833000",
    "native": null,
    "timezone": null,
    "translations": {}
  },
  {
    "id": 69359,
    "name": "Colonia Rincón Villa del Valle",
    "state_id": 3450,
    "state_code": "MEX",
    "country_id": 142,
    "country_code": "MX",
    "latitude": "19.20966000",
    "longitude": "-100.11917000",
    "native": null,
    "timezone": null,
    "translations": {}
  },
  {
    "id": 69360,
    "name": "Colonia Río Lerma (Tic Ti)",
    "state_id": 3450,
    "state_code": "MEX",
    "country_id": 142,
    "country_code": "MX",
    "latitude": "19.80556000",
    "longitude": "-99.89722000",
    "native": null,
    "timezone": null,
    "translations": {}
  },
  {
    "id": 69363,
    "name": "Colonia San Francisco de Asís",
    "state_id": 3450,
    "state_code": "MEX",
    "country_id": 142,
    "country_code": "MX",
    "latitude": "19.57861000",
    "longitude": "-99.75444000",
    "native": null,
    "timezone": null,
    "translations": {}
  },
  {
    "id": 69368,
    "name": "Colonia San Ramón",
    "state_id": 3450,
    "state_code": "MEX",
    "country_id": 142,
    "country_code": "MX",
    "latitude": "18.96833000",
    "longitude": "-99.57222000",
    "native": null,
    "timezone": null,
    "translations": {}
  },
  {
    "id": 69373,
    "name": "Colonia Tulteca Teopan",
    "state_id": 3450,
    "state_code": "MEX",
    "country_id": 142,
    "country_code": "MX",
    "latitude": "19.56139000",
    "longitude": "-98.84417000",
    "native": null,
    "timezone": null,
    "translations": {}
  },
  {
    "id": 69379,
    "name": "Colonia Wenceslao Labra",
    "state_id": 3450,
    "state_code": "MEX",
    "country_id": 142,
    "country_code": "MX",
    "latitude": "19.82773000",
    "longitude": "-99.12435000",
    "native": null,
    "timezone": null,
    "translations": {}
  },
  {
    "id": 69409,
    "name": "Colorines",
    "state_id": 3450,
    "state_code": "MEX",
    "country_id": 142,
    "country_code": "MX",
    "latitude": "19.17829000",
    "longitude": "-100.21817000",
    "native": null,
    "timezone": null,
    "translations": {}
  },
  {
    "id": 69434,
    "name": "Concepción Caro",
    "state_id": 3450,
    "state_code": "MEX",
    "country_id": 142,
    "country_code": "MX",
    "latitude": "19.77139000",
    "longitude": "-99.90917000",
    "native": null,
    "timezone": null,
    "translations": {}
  },
  {
    "id": 69440,
    "name": "Concepción del Monte",
    "state_id": 3450,
    "state_code": "MEX",
    "country_id": 142,
    "country_code": "MX",
    "latitude": "19.65128000",
    "longitude": "-100.15440000",
    "native": null,
    "timezone": null,
    "translations": {}
  },
  {
    "id": 69438,
    "name": "Concepción Jolalpan",
    "state_id": 3450,
    "state_code": "MEX",
    "country_id": 142,
    "country_code": "MX",
    "latitude": "19.58399000",
    "longitude": "-98.84643000",
    "native": null,
    "timezone": null,
    "translations": {}
  },
  {
    "id": 69442,
    "name": "Concepción la Venta",
    "state_id": 3450,
    "state_code": "MEX",
    "country_id": 142,
    "country_code": "MX",
    "latitude": "19.69144000",
    "longitude": "-100.15181000",
    "native": null,
    "timezone": null,
    "translations": {}
  },
  {
    "id": 69448,
    "name": "Conejeras",
    "state_id": 3450,
    "state_code": "MEX",
    "country_id": 142,
    "country_code": "MX",
    "latitude": "20.01271000",
    "longitude": "-99.96202000",
    "native": null,
    "timezone": null,
    "translations": {}
  },
  {
    "id": 69455,
    "name": "Conjunto Habitacional Ecológico SUTEYM",
    "state_id": 3450,
    "state_code": "MEX",
    "country_id": 142,
    "country_code": "MX",
    "latitude": "19.36889000",
    "longitude": "-99.77861000",
    "native": null,
    "timezone": null,
    "translations": {}
  },
  {
    "id": 69458,
    "name": "Conjunto Urbano la Loma I",
    "state_id": 3450,
    "state_code": "MEX",
    "country_id": 142,
    "country_code": "MX",
    "latitude": "19.32639000",
    "longitude": "-99.73194000",
    "native": null,
    "timezone": null,
    "translations": {}
  },
  {
    "id": 69467,
    "name": "Contepec",
    "state_id": 3450,
    "state_code": "MEX",
    "country_id": 142,
    "country_code": "MX",
    "latitude": "19.95432000",
    "longitude": "-100.16385000",
    "native": null,
    "timezone": null,
    "translations": {}
  },
  {
    "id": 69501,
    "name": "Coscomate del Progreso",
    "state_id": 3450,
    "state_code": "MEX",
    "country_id": 142,
    "country_code": "MX",
    "latitude": "19.93416000",
    "longitude": "-99.51902000",
    "native": null,
    "timezone": null,
    "translations": {}
  },
  {
    "id": 69521,
    "name": "Coyotepec",
    "state_id": 3450,
    "state_code": "MEX",
    "country_id": 142,
    "country_code": "MX",
    "latitude": "19.77722000",
    "longitude": "-99.21295000",
    "native": null,
    "timezone": null,
    "translations": {}
  },
  {
    "id": 69530,
    "name": "Cozotlán Norte",
    "state_id": 3450,
    "state_code": "MEX",
    "country_id": 142,
    "country_code": "MX",
    "latitude": "19.70833000",
    "longitude": "-98.86000000",
    "native": null,
    "timezone": null,
    "translations": {}
  },
  {
    "id": 69552,
    "name": "Cuadrilla de Dolores",
    "state_id": 3450,
    "state_code": "MEX",
    "country_id": 142,
    "country_code": "MX",
    "latitude": "19.14000000",
    "longitude": "-100.06944000",
    "native": null,
    "timezone": null,
    "translations": {}
  },
  {
    "id": 69551,
    "name": "Cuadrilla Vieja",
    "state_id": 3450,
    "state_code": "MEX",
    "country_id": 142,
    "country_code": "MX",
    "latitude": "19.51205000",
    "longitude": "-99.98692000",
    "native": null,
    "timezone": null,
    "translations": {}
  },
  {
    "id": 69590,
    "name": "Cuautitlán",
    "state_id": 3450,
    "state_code": "MEX",
    "country_id": 142,
    "country_code": "MX",
    "latitude": "19.67052000",
    "longitude": "-99.17989000",
    "native": null,
    "timezone": null,
    "translations": {}
  },
  {
    "id": 69592,
    "name": "Cuautlacingo",
    "state_id": 3450,
    "state_code": "MEX",
    "country_id": 142,
    "country_code": "MX",
    "latitude": "19.69405000",
    "longitude": "-98.78385000",
    "native": null,
    "timezone": null,
    "translations": {}
  },
  {
    "id": 69610,
    "name": "Cuecuecuatitla",
    "state_id": 3450,
    "state_code": "MEX",
    "country_id": 142,
    "country_code": "MX",
    "latitude": "19.01349000",
    "longitude": "-98.84351000",
    "native": null,
    "timezone": null,
    "translations": {}
  },
  {
    "id": 69613,
    "name": "Cuendo",
    "state_id": 3450,
    "state_code": "MEX",
    "country_id": 142,
    "country_code": "MX",
    "latitude": "19.80028000",
    "longitude": "-99.94778000",
    "native": null,
    "timezone": null,
    "translations": {}
  },
  {
    "id": 69679,
    "name": "Denjhi",
    "state_id": 3450,
    "state_code": "MEX",
    "country_id": 142,
    "country_code": "MX",
    "latitude": "19.92116000",
    "longitude": "-99.53561000",
    "native": null,
    "timezone": null,
    "translations": {}
  },
  {
    "id": 69682,
    "name": "Detiña (San Antonio Detiña)",
    "state_id": 3450,
    "state_code": "MEX",
    "country_id": 142,
    "country_code": "MX",
    "latitude": "19.97028000",
    "longitude": "-99.88389000",
    "native": null,
    "timezone": null,
    "translations": {}
  },
  {
    "id": 69688,
    "name": "Dios Padre",
    "state_id": 3450,
    "state_code": "MEX",
    "country_id": 142,
    "country_code": "MX",
    "latitude": "19.61474000",
    "longitude": "-100.06499000",
    "native": null,
    "timezone": null,
    "translations": {}
  },
  {
    "id": 69702,
    "name": "Dolores",
    "state_id": 3450,
    "state_code": "MEX",
    "country_id": 142,
    "country_code": "MX",
    "latitude": "20.06059000",
    "longitude": "-100.32211000",
    "native": null,
    "timezone": null,
    "translations": {}
  },
  {
    "id": 69704,
    "name": "Dolores Hidalgo",
    "state_id": 3450,
    "state_code": "MEX",
    "country_id": 142,
    "country_code": "MX",
    "latitude": "19.65528000",
    "longitude": "-99.92639000",
    "native": null,
    "timezone": null,
    "translations": {}
  },
  {
    "id": 69715,
    "name": "Dongu",
    "state_id": 3450,
    "state_code": "MEX",
    "country_id": 142,
    "country_code": "MX",
    "latitude": "19.84295000",
    "longitude": "-99.58651000",
    "native": null,
    "timezone": null,
    "translations": {}
  },
  {
    "id": 69723,
    "name": "Dotegiare",
    "state_id": 3450,
    "state_code": "MEX",
    "country_id": 142,
    "country_code": "MX",
    "latitude": "19.70705000",
    "longitude": "-100.04354000",
    "native": null,
    "timezone": null,
    "translations": {}
  },
  {
    "id": 69725,
    "name": "Doxhicho",
    "state_id": 3450,
    "state_code": "MEX",
    "country_id": 142,
    "country_code": "MX",
    "latitude": "19.89999000",
    "longitude": "-99.55727000",
    "native": null,
    "timezone": null,
    "translations": {}
  },
  {
    "id": 69726,
    "name": "Doxteje Barrio Primero",
    "state_id": 3450,
    "state_code": "MEX",
    "country_id": 142,
    "country_code": "MX",
    "latitude": "19.95972000",
    "longitude": "-99.95861000",
    "native": null,
    "timezone": null,
    "translations": {}
  },
  {
    "id": 69727,
    "name": "Doxteje Centro",
    "state_id": 3450,
    "state_code": "MEX",
    "country_id": 142,
    "country_code": "MX",
    "latitude": "19.97528000",
    "longitude": "-99.95472000",
    "native": null,
    "timezone": null,
    "translations": {}
  },
  {
    "id": 69752,
    "name": "Ecatepec de Morelos",
    "state_id": 3450,
    "state_code": "MEX",
    "country_id": 142,
    "country_code": "MX",
    "latitude": "19.60378000",
    "longitude": "-99.05514000",
    "native": null,
    "timezone": null,
    "translations": {}
  },
  {
    "id": 69753,
    "name": "Ecatzingo de Hidalgo",
    "state_id": 3450,
    "state_code": "MEX",
    "country_id": 142,
    "country_code": "MX",
    "latitude": "18.95508000",
    "longitude": "-98.75198000",
    "native": null,
    "timezone": null,
    "translations": {}
  },
  {
    "id": 69802,
    "name": "Ejido de Coscomate del Progreso",
    "state_id": 3450,
    "state_code": "MEX",
    "country_id": 142,
    "country_code": "MX",
    "latitude": "19.93379000",
    "longitude": "-99.54720000",
    "native": null,
    "timezone": null,
    "translations": {}
  },
  {
    "id": 69803,
    "name": "Ejido de Dolores",
    "state_id": 3450,
    "state_code": "MEX",
    "country_id": 142,
    "country_code": "MX",
    "latitude": "19.43083000",
    "longitude": "-99.61278000",
    "native": null,
    "timezone": null,
    "translations": {}
  },
  {
    "id": 69804,
    "name": "Ejido de Guadalupe",
    "state_id": 3450,
    "state_code": "MEX",
    "country_id": 142,
    "country_code": "MX",
    "latitude": "19.63765000",
    "longitude": "-99.27178000",
    "native": null,
    "timezone": null,
    "translations": {}
  },
  {
    "id": 69807,
    "name": "Ejido de la Finca",
    "state_id": 3450,
    "state_code": "MEX",
    "country_id": 142,
    "country_code": "MX",
    "latitude": "18.88635000",
    "longitude": "-99.62693000",
    "native": null,
    "timezone": null,
    "translations": {}
  },
  {
    "id": 69805,
    "name": "Ejido de Mozoquilpan",
    "state_id": 3450,
    "state_code": "MEX",
    "country_id": 142,
    "country_code": "MX",
    "latitude": "19.42417000",
    "longitude": "-99.52833000",
    "native": null,
    "timezone": null,
    "translations": {}
  },
  {
    "id": 69806,
    "name": "Ejido de San Mateo Coapexco",
    "state_id": 3450,
    "state_code": "MEX",
    "country_id": 142,
    "country_code": "MX",
    "latitude": "18.94889000",
    "longitude": "-99.64249000",
    "native": null,
    "timezone": null,
    "translations": {}
  },
  {
    "id": 69808,
    "name": "Ejido del Tejocote",
    "state_id": 3450,
    "state_code": "MEX",
    "country_id": 142,
    "country_code": "MX",
    "latitude": "19.48474000",
    "longitude": "-99.27847000",
    "native": null,
    "timezone": null,
    "translations": {}
  },
  {
    "id": 69809,
    "name": "Ejido del Tunal Nenaxi",
    "state_id": 3450,
    "state_code": "MEX",
    "country_id": 142,
    "country_code": "MX",
    "latitude": "19.74389000",
    "longitude": "-99.90889000",
    "native": null,
    "timezone": null,
    "translations": {}
  },
  {
    "id": 69810,
    "name": "Ejido el Castillo",
    "state_id": 3450,
    "state_code": "MEX",
    "country_id": 142,
    "country_code": "MX",
    "latitude": "19.43583000",
    "longitude": "-99.30583000",
    "native": null,
    "timezone": null,
    "translations": {}
  },
  {
    "id": 69817,
    "name": "Ejido la Soledad",
    "state_id": 3450,
    "state_code": "MEX",
    "country_id": 142,
    "country_code": "MX",
    "latitude": "19.64500000",
    "longitude": "-100.10639000",
    "native": null,
    "timezone": null,
    "translations": {}
  },
  {
    "id": 69773,
    "name": "Ejido Loma de Malacota",
    "state_id": 3450,
    "state_code": "MEX",
    "country_id": 142,
    "country_code": "MX",
    "latitude": "19.65753000",
    "longitude": "-99.67122000",
    "native": null,
    "timezone": null,
    "translations": {}
  },
  {
    "id": 69777,
    "name": "Ejido Miraflores",
    "state_id": 3450,
    "state_code": "MEX",
    "country_id": 142,
    "country_code": "MX",
    "latitude": "19.57000000",
    "longitude": "-99.39750000",
    "native": null,
    "timezone": null,
    "translations": {}
  },
  {
    "id": 69783,
    "name": "Ejido Palma (Ejido San Francisco)",
    "state_id": 3450,
    "state_code": "MEX",
    "country_id": 142,
    "country_code": "MX",
    "latitude": "19.56889000",
    "longitude": "-99.40889000",
    "native": null,
    "timezone": null,
    "translations": {}
  },
  {
    "id": 69788,
    "name": "Ejido San Cristóbal",
    "state_id": 3450,
    "state_code": "MEX",
    "country_id": 142,
    "country_code": "MX",
    "latitude": "19.54250000",
    "longitude": "-98.89417000",
    "native": null,
    "timezone": null,
    "translations": {}
  },
  {
    "id": 69789,
    "name": "Ejido San Diego",
    "state_id": 3450,
    "state_code": "MEX",
    "country_id": 142,
    "country_code": "MX",
    "latitude": "19.41329000",
    "longitude": "-99.82537000",
    "native": null,
    "timezone": null,
    "translations": {}
  },
  {
    "id": 69791,
    "name": "Ejido San Lorenzo Cuauhtenco",
    "state_id": 3450,
    "state_code": "MEX",
    "country_id": 142,
    "country_code": "MX",
    "latitude": "19.30139000",
    "longitude": "-99.75028000",
    "native": null,
    "timezone": null,
    "translations": {}
  },
  {
    "id": 70266,
    "name": "El Águila (La Mesa)",
    "state_id": 3450,
    "state_code": "MEX",
    "country_id": 142,
    "country_code": "MX",
    "latitude": "19.16694000",
    "longitude": "-99.40639000",
    "native": null,
    "timezone": null,
    "translations": {}
  },
  {
    "id": 69831,
    "name": "El Arco",
    "state_id": 3450,
    "state_code": "MEX",
    "country_id": 142,
    "country_code": "MX",
    "latitude": "19.22528000",
    "longitude": "-100.13167000",
    "native": null,
    "timezone": null,
    "translations": {}
  },
  {
    "id": 69853,
    "name": "El Cabi",
    "state_id": 3450,
    "state_code": "MEX",
    "country_id": 142,
    "country_code": "MX",
    "latitude": "19.18986000",
    "longitude": "-98.85371000",
    "native": null,
    "timezone": null,
    "translations": {}
  },
  {
    "id": 69875,
    "name": "El Carmen (El Desierto del Carmen)",
    "state_id": 3450,
    "state_code": "MEX",
    "country_id": 142,
    "country_code": "MX",
    "latitude": "18.92028000",
    "longitude": "-99.55667000",
    "native": null,
    "timezone": null,
    "translations": {}
  },
  {
    "id": 69878,
    "name": "El Carmen Ocotepec",
    "state_id": 3450,
    "state_code": "MEX",
    "country_id": 142,
    "country_code": "MX",
    "latitude": "19.68722000",
    "longitude": "-99.97417000",
    "native": null,
    "timezone": null,
    "translations": {}
  },
  {
    "id": 69894,
    "name": "El Cerrillo Vista Hermosa",
    "state_id": 3450,
    "state_code": "MEX",
    "country_id": 142,
    "country_code": "MX",
    "latitude": "19.32337000",
    "longitude": "-99.54250000",
    "native": null,
    "timezone": null,
    "translations": {}
  },
  {
    "id": 69895,
    "name": "El Cerrito",
    "state_id": 3450,
    "state_code": "MEX",
    "country_id": 142,
    "country_code": "MX",
    "latitude": "19.35528000",
    "longitude": "-99.34833000",
    "native": null,
    "timezone": null,
    "translations": {}
  },
  {
    "id": 69914,
    "name": "El Colorado",
    "state_id": 3450,
    "state_code": "MEX",
    "country_id": 142,
    "country_code": "MX",
    "latitude": "20.09639000",
    "longitude": "-99.76278000",
    "native": null,
    "timezone": null,
    "translations": {}
  },
  {
    "id": 69915,
    "name": "El Coloso",
    "state_id": 3450,
    "state_code": "MEX",
    "country_id": 142,
    "country_code": "MX",
    "latitude": "19.09778000",
    "longitude": "-99.59778000",
    "native": null,
    "timezone": null,
    "translations": {}
  },
  {
    "id": 69921,
    "name": "El Contadero de Matamoros",
    "state_id": 3450,
    "state_code": "MEX",
    "country_id": 142,
    "country_code": "MX",
    "latitude": "19.23734000",
    "longitude": "-99.80990000",
    "native": null,
    "timezone": null,
    "translations": {}
  },
  {
    "id": 69941,
    "name": "El Cóporo",
    "state_id": 3450,
    "state_code": "MEX",
    "country_id": 142,
    "country_code": "MX",
    "latitude": "19.28306000",
    "longitude": "-99.83528000",
    "native": null,
    "timezone": null,
    "translations": {}
  },
  {
    "id": 69938,
    "name": "El Curtidor",
    "state_id": 3450,
    "state_code": "MEX",
    "country_id": 142,
    "country_code": "MX",
    "latitude": "19.29167000",
    "longitude": "-99.83500000",
    "native": null,
    "timezone": null,
    "translations": {}
  },
  {
    "id": 69954,
    "name": "El Esclavo",
    "state_id": 3450,
    "state_code": "MEX",
    "country_id": 142,
    "country_code": "MX",
    "latitude": "19.67667000",
    "longitude": "-99.37139000",
    "native": null,
    "timezone": null,
    "translations": {}
  },
  {
    "id": 69962,
    "name": "El Espinal",
    "state_id": 3450,
    "state_code": "MEX",
    "country_id": 142,
    "country_code": "MX",
    "latitude": "19.46756000",
    "longitude": "-100.06051000",
    "native": null,
    "timezone": null,
    "translations": {}
  },
  {
    "id": 69980,
    "name": "El Habillal",
    "state_id": 3450,
    "state_code": "MEX",
    "country_id": 142,
    "country_code": "MX",
    "latitude": "18.00699000",
    "longitude": "-102.37263000",
    "native": null,
    "timezone": null,
    "translations": {}
  },
  {
    "id": 69982,
    "name": "El Hielo",
    "state_id": 3450,
    "state_code": "MEX",
    "country_id": 142,
    "country_code": "MX",
    "latitude": "19.42583000",
    "longitude": "-99.35556000",
    "native": null,
    "timezone": null,
    "translations": {}
  },
  {
    "id": 69996,
    "name": "El Jacal",
    "state_id": 3450,
    "state_code": "MEX",
    "country_id": 142,
    "country_code": "MX",
    "latitude": "19.40500000",
    "longitude": "-100.08944000",
    "native": null,
    "timezone": null,
    "translations": {}
  },
  {
    "id": 70025,
    "name": "El Llano del Compromiso",
    "state_id": 3450,
    "state_code": "MEX",
    "country_id": 142,
    "country_code": "MX",
    "latitude": "19.25472000",
    "longitude": "-99.47917000",
    "native": null,
    "timezone": null,
    "translations": {}
  },
  {
    "id": 70024,
    "name": "El Llano Santa María",
    "state_id": 3450,
    "state_code": "MEX",
    "country_id": 142,
    "country_code": "MX",
    "latitude": "19.78389000",
    "longitude": "-99.08639000",
    "native": null,
    "timezone": null,
    "translations": {}
  },
  {
    "id": 70030,
    "name": "El Magueyal",
    "state_id": 3450,
    "state_code": "MEX",
    "country_id": 142,
    "country_code": "MX",
    "latitude": "19.94250000",
    "longitude": "-99.57462000",
    "native": null,
    "timezone": null,
    "translations": {}
  },
  {
    "id": 70042,
    "name": "El Mogote",
    "state_id": 3450,
    "state_code": "MEX",
    "country_id": 142,
    "country_code": "MX",
    "latitude": "20.16583000",
    "longitude": "-99.91444000",
    "native": null,
    "timezone": null,
    "translations": {}
  },
  {
    "id": 70069,
    "name": "El Obraje",
    "state_id": 3450,
    "state_code": "MEX",
    "country_id": 142,
    "country_code": "MX",
    "latitude": "19.72269000",
    "longitude": "-99.96259000",
    "native": null,
    "timezone": null,
    "translations": {}
  },
  {
    "id": 70070,
    "name": "El Ocotal",
    "state_id": 3450,
    "state_code": "MEX",
    "country_id": 142,
    "country_code": "MX",
    "latitude": "19.67983000",
    "longitude": "-99.47008000",
    "native": null,
    "timezone": null,
    "translations": {}
  },
  {
    "id": 70075,
    "name": "El Oro de Hidalgo",
    "state_id": 3450,
    "state_code": "MEX",
    "country_id": 142,
    "country_code": "MX",
    "latitude": "19.80272000",
    "longitude": "-100.13081000",
    "native": null,
    "timezone": null,
    "translations": {}
  },
  {
    "id": 70077,
    "name": "El Palacio",
    "state_id": 3450,
    "state_code": "MEX",
    "country_id": 142,
    "country_code": "MX",
    "latitude": "19.35139000",
    "longitude": "-99.35667000",
    "native": null,
    "timezone": null,
    "translations": {}
  },
  {
    "id": 70084,
    "name": "El Palmito",
    "state_id": 3450,
    "state_code": "MEX",
    "country_id": 142,
    "country_code": "MX",
    "latitude": "19.91733000",
    "longitude": "-99.68127000",
    "native": null,
    "timezone": null,
    "translations": {}
  },
  {
    "id": 70097,
    "name": "El Pedregal de Guadalupe Hidalgo",
    "state_id": 3450,
    "state_code": "MEX",
    "country_id": 142,
    "country_code": "MX",
    "latitude": "19.25278000",
    "longitude": "-99.46500000",
    "native": null,
    "timezone": null,
    "translations": {}
  },
  {
    "id": 70103,
    "name": "El Pilar",
    "state_id": 3450,
    "state_code": "MEX",
    "country_id": 142,
    "country_code": "MX",
    "latitude": "20.24201000",
    "longitude": "-101.40209000",
    "native": null,
    "timezone": null,
    "translations": {}
  },
  {
    "id": 70104,
    "name": "El Pino",
    "state_id": 3450,
    "state_code": "MEX",
    "country_id": 142,
    "country_code": "MX",
    "latitude": "19.35139000",
    "longitude": "-98.94833000",
    "native": null,
    "timezone": null,
    "translations": {}
  },
  {
    "id": 70109,
    "name": "El Plan",
    "state_id": 3450,
    "state_code": "MEX",
    "country_id": 142,
    "country_code": "MX",
    "latitude": "19.37452000",
    "longitude": "-99.80049000",
    "native": null,
    "timezone": null,
    "translations": {}
  },
  {
    "id": 70121,
    "name": "El Porvenir I",
    "state_id": 3450,
    "state_code": "MEX",
    "country_id": 142,
    "country_code": "MX",
    "latitude": "19.31694000",
    "longitude": "-99.72889000",
    "native": null,
    "timezone": null,
    "translations": {}
  },
  {
    "id": 70124,
    "name": "El Potrero",
    "state_id": 3450,
    "state_code": "MEX",
    "country_id": 142,
    "country_code": "MX",
    "latitude": "19.30625000",
    "longitude": "-99.99393000",
    "native": null,
    "timezone": null,
    "translations": {}
  },
  {
    "id": 70126,
    "name": "El Potrero de San Diego",
    "state_id": 3450,
    "state_code": "MEX",
    "country_id": 142,
    "country_code": "MX",
    "latitude": "19.48899000",
    "longitude": "-100.08210000",
    "native": null,
    "timezone": null,
    "translations": {}
  },
  {
    "id": 70135,
    "name": "El Progreso Hidalgo",
    "state_id": 3450,
    "state_code": "MEX",
    "country_id": 142,
    "country_code": "MX",
    "latitude": "18.84639000",
    "longitude": "-99.61417000",
    "native": null,
    "timezone": null,
    "translations": {}
  },
  {
    "id": 70140,
    "name": "El Puerto Magú",
    "state_id": 3450,
    "state_code": "MEX",
    "country_id": 142,
    "country_code": "MX",
    "latitude": "19.68846000",
    "longitude": "-99.37290000",
    "native": null,
    "timezone": null,
    "translations": {}
  },
  {
    "id": 70147,
    "name": "El Recodo de San José Axalco",
    "state_id": 3450,
    "state_code": "MEX",
    "country_id": 142,
    "country_code": "MX",
    "latitude": "19.20278000",
    "longitude": "-98.90278000",
    "native": null,
    "timezone": null,
    "translations": {}
  },
  {
    "id": 70164,
    "name": "El Rincón de la Candelaria",
    "state_id": 3450,
    "state_code": "MEX",
    "country_id": 142,
    "country_code": "MX",
    "latitude": "19.79000000",
    "longitude": "-99.84306000",
    "native": null,
    "timezone": null,
    "translations": {}
  },
  {
    "id": 70165,
    "name": "El Rincón de los Perales",
    "state_id": 3450,
    "state_code": "MEX",
    "country_id": 142,
    "country_code": "MX",
    "latitude": "19.54222000",
    "longitude": "-99.82806000",
    "native": null,
    "timezone": null,
    "translations": {}
  },
  {
    "id": 70170,
    "name": "El Rosal",
    "state_id": 3450,
    "state_code": "MEX",
    "country_id": 142,
    "country_code": "MX",
    "latitude": "20.10126000",
    "longitude": "-99.68555000",
    "native": null,
    "timezone": null,
    "translations": {}
  },
  {
    "id": 70186,
    "name": "El Salitre",
    "state_id": 3450,
    "state_code": "MEX",
    "country_id": 142,
    "country_code": "MX",
    "latitude": "18.95250000",
    "longitude": "-99.58972000",
    "native": null,
    "timezone": null,
    "translations": {}
  },
  {
    "id": 70217,
    "name": "El Tepetatal",
    "state_id": 3450,
    "state_code": "MEX",
    "country_id": 142,
    "country_code": "MX",
    "latitude": "19.34581000",
    "longitude": "-99.77086000",
    "native": null,
    "timezone": null,
    "translations": {}
  },
  {
    "id": 70223,
    "name": "El Terrero",
    "state_id": 3450,
    "state_code": "MEX",
    "country_id": 142,
    "country_code": "MX",
    "latitude": "18.79028000",
    "longitude": "-99.64528000",
    "native": null,
    "timezone": null,
    "translations": {}
  },
  {
    "id": 70286,
    "name": "Emiliano Zapata",
    "state_id": 3450,
    "state_code": "MEX",
    "country_id": 142,
    "country_code": "MX",
    "latitude": "19.34361000",
    "longitude": "-98.97472000",
    "native": null,
    "timezone": null,
    "translations": {}
  },
  {
    "id": 70292,
    "name": "Emiliano Zapata (San José Bata)",
    "state_id": 3450,
    "state_code": "MEX",
    "country_id": 142,
    "country_code": "MX",
    "latitude": "19.91111000",
    "longitude": "-99.00667000",
    "native": null,
    "timezone": null,
    "translations": {}
  },
  {
    "id": 70293,
    "name": "Emiliano Zapata (Santo Domingo)",
    "state_id": 3450,
    "state_code": "MEX",
    "country_id": 142,
    "country_code": "MX",
    "latitude": "19.57972000",
    "longitude": "-99.78806000",
    "native": null,
    "timezone": null,
    "translations": {}
  },
  {
    "id": 70297,
    "name": "Emilio Portes Gil",
    "state_id": 3450,
    "state_code": "MEX",
    "country_id": 142,
    "country_code": "MX",
    "latitude": "19.64444000",
    "longitude": "-99.91667000",
    "native": null,
    "timezone": null,
    "translations": {}
  },
  {
    "id": 70312,
    "name": "Epitacio Huerta",
    "state_id": 3450,
    "state_code": "MEX",
    "country_id": 142,
    "country_code": "MX",
    "latitude": "20.13493000",
    "longitude": "-100.29321000",
    "native": null,
    "timezone": null,
    "translations": {}
  },
  {
    "id": 70376,
    "name": "Etúcuaro",
    "state_id": 3450,
    "state_code": "MEX",
    "country_id": 142,
    "country_code": "MX",
    "latitude": "19.89286000",
    "longitude": "-102.12945000",
    "native": null,
    "timezone": null,
    "translations": {}
  },
  {
    "id": 70382,
    "name": "Ex-Hacienda de Guadalupe",
    "state_id": 3450,
    "state_code": "MEX",
    "country_id": 142,
    "country_code": "MX",
    "latitude": "19.80889000",
    "longitude": "-98.97250000",
    "native": null,
    "timezone": null,
    "translations": {}
  },
  {
    "id": 70388,
    "name": "Ex-hacienda de Xalpa",
    "state_id": 3450,
    "state_code": "MEX",
    "country_id": 142,
    "country_code": "MX",
    "latitude": "19.82150000",
    "longitude": "-99.18275000",
    "native": null,
    "timezone": null,
    "translations": {}
  },
  {
    "id": 70381,
    "name": "Ex-Hacienda Santa Inés",
    "state_id": 3450,
    "state_code": "MEX",
    "country_id": 142,
    "country_code": "MX",
    "latitude": "19.70667000",
    "longitude": "-99.07250000",
    "native": null,
    "timezone": null,
    "translations": {}
  },
  {
    "id": 70386,
    "name": "Ex-Rancho San Dimas",
    "state_id": 3450,
    "state_code": "MEX",
    "country_id": 142,
    "country_code": "MX",
    "latitude": "19.17389000",
    "longitude": "-99.56528000",
    "native": null,
    "timezone": null,
    "translations": {}
  },
  {
    "id": 70498,
    "name": "Fábrica Concepción",
    "state_id": 3450,
    "state_code": "MEX",
    "country_id": 142,
    "country_code": "MX",
    "latitude": "19.63445000",
    "longitude": "-100.13596000",
    "native": null,
    "timezone": null,
    "translations": {}
  },
  {
    "id": 70462,
    "name": "Fracción San Roque (El Prieto)",
    "state_id": 3450,
    "state_code": "MEX",
    "country_id": 142,
    "country_code": "MX",
    "latitude": "19.68722000",
    "longitude": "-99.17222000",
    "native": null,
    "timezone": null,
    "translations": {}
  },
  {
    "id": 70416,
    "name": "Fraccionamiento Colinas del Sol",
    "state_id": 3450,
    "state_code": "MEX",
    "country_id": 142,
    "country_code": "MX",
    "latitude": "19.37222000",
    "longitude": "-99.74028000",
    "native": null,
    "timezone": null,
    "translations": {}
  },
  {
    "id": 70423,
    "name": "Fraccionamiento Hacienda del Bosque",
    "state_id": 3450,
    "state_code": "MEX",
    "country_id": 142,
    "country_code": "MX",
    "latitude": "19.72667000",
    "longitude": "-98.96861000",
    "native": null,
    "timezone": null,
    "translations": {}
  },
  {
    "id": 70453,
    "name": "Fraccionamiento la Trinidad",
    "state_id": 3450,
    "state_code": "MEX",
    "country_id": 142,
    "country_code": "MX",
    "latitude": "19.82917000",
    "longitude": "-99.08278000",
    "native": null,
    "timezone": null,
    "translations": {}
  },
  {
    "id": 70436,
    "name": "Fraccionamiento Real de San Pablo",
    "state_id": 3450,
    "state_code": "MEX",
    "country_id": 142,
    "country_code": "MX",
    "latitude": "19.38944000",
    "longitude": "-99.64861000",
    "native": null,
    "timezone": null,
    "translations": {}
  },
  {
    "id": 70439,
    "name": "Fraccionamiento Rinconada del Valle",
    "state_id": 3450,
    "state_code": "MEX",
    "country_id": 142,
    "country_code": "MX",
    "latitude": "19.41111000",
    "longitude": "-99.57417000",
    "native": null,
    "timezone": null,
    "translations": {}
  },
  {
    "id": 70460,
    "name": "Fraccionamiento y Club de Golf los Encinos",
    "state_id": 3450,
    "state_code": "MEX",
    "country_id": 142,
    "country_code": "MX",
    "latitude": "19.28917000",
    "longitude": "-99.48000000",
    "native": null,
    "timezone": null,
    "translations": {}
  },
  {
    "id": 70489,
    "name": "Fresno Nichi",
    "state_id": 3450,
    "state_code": "MEX",
    "country_id": 142,
    "country_code": "MX",
    "latitude": "19.56694000",
    "longitude": "-99.94889000",
    "native": null,
    "timezone": null,
    "translations": {}
  },
  {
    "id": 70496,
    "name": "Fuentes del Valle",
    "state_id": 3450,
    "state_code": "MEX",
    "country_id": 142,
    "country_code": "MX",
    "latitude": "19.63250000",
    "longitude": "-99.13861000",
    "native": null,
    "timezone": null,
    "translations": {}
  },
  {
    "id": 70507,
    "name": "Galaxias Toluca",
    "state_id": 3450,
    "state_code": "MEX",
    "country_id": 142,
    "country_code": "MX",
    "latitude": "19.39806000",
    "longitude": "-99.65000000",
    "native": null,
    "timezone": null,
    "translations": {}
  },
  {
    "id": 70510,
    "name": "Galeana",
    "state_id": 3450,
    "state_code": "MEX",
    "country_id": 142,
    "country_code": "MX",
    "latitude": "20.03585000",
    "longitude": "-101.57150000",
    "native": null,
    "timezone": null,
    "translations": {}
  },
  {
    "id": 70519,
    "name": "Ganzda",
    "state_id": 3450,
    "state_code": "MEX",
    "country_id": 142,
    "country_code": "MX",
    "latitude": "19.99000000",
    "longitude": "-99.84750000",
    "native": null,
    "timezone": null,
    "translations": {}
  },
  {
    "id": 70564,
    "name": "Granjas Ampliación Santa Rosa",
    "state_id": 3450,
    "state_code": "MEX",
    "country_id": 142,
    "country_code": "MX",
    "latitude": "19.59278000",
    "longitude": "-98.96667000",
    "native": null,
    "timezone": null,
    "translations": {}
  },
  {
    "id": 70577,
    "name": "Guadalupe Buenavista",
    "state_id": 3450,
    "state_code": "MEX",
    "country_id": 142,
    "country_code": "MX",
    "latitude": "19.61194000",
    "longitude": "-100.12720000",
    "native": null,
    "timezone": null,
    "translations": {}
  },
  {
    "id": 70578,
    "name": "Guadalupe Cachi",
    "state_id": 3450,
    "state_code": "MEX",
    "country_id": 142,
    "country_code": "MX",
    "latitude": "19.60111000",
    "longitude": "-99.82500000",
    "native": null,
    "timezone": null,
    "translations": {}
  },
  {
    "id": 70580,
    "name": "Guadalupe Coté",
    "state_id": 3450,
    "state_code": "MEX",
    "country_id": 142,
    "country_code": "MX",
    "latitude": "19.61075000",
    "longitude": "-99.98499000",
    "native": null,
    "timezone": null,
    "translations": {}
  },
  {
    "id": 70594,
    "name": "Guadalupe Totoltepec",
    "state_id": 3450,
    "state_code": "MEX",
    "country_id": 142,
    "country_code": "MX",
    "latitude": "19.34833000",
    "longitude": "-99.56417000",
    "native": null,
    "timezone": null,
    "translations": {}
  },
  {
    "id": 70637,
    "name": "Gunyo Poniente (San José Gunyo)",
    "state_id": 3450,
    "state_code": "MEX",
    "country_id": 142,
    "country_code": "MX",
    "latitude": "20.11149000",
    "longitude": "-99.83861000",
    "native": null,
    "timezone": null,
    "translations": {}
  },
  {
    "id": 70730,
    "name": "Huancito",
    "state_id": 3450,
    "state_code": "MEX",
    "country_id": 142,
    "country_code": "MX",
    "latitude": "19.84889000",
    "longitude": "-102.06784000",
    "native": null,
    "timezone": null,
    "translations": {}
  },
  {
    "id": 70761,
    "name": "Huehuetoca",
    "state_id": 3450,
    "state_code": "MEX",
    "country_id": 142,
    "country_code": "MX",
    "latitude": "19.82819000",
    "longitude": "-99.20370000",
    "native": null,
    "timezone": null,
    "translations": {}
  },
  {
    "id": 70768,
    "name": "Huemetla",
    "state_id": 3450,
    "state_code": "MEX",
    "country_id": 142,
    "country_code": "MX",
    "latitude": "19.71500000",
    "longitude": "-99.73583000",
    "native": null,
    "timezone": null,
    "translations": {}
  },
  {
    "id": 70782,
    "name": "Hueypoxtla",
    "state_id": 3450,
    "state_code": "MEX",
    "country_id": 142,
    "country_code": "MX",
    "latitude": "19.91301000",
    "longitude": "-99.07384000",
    "native": null,
    "timezone": null,
    "translations": {}
  },
  {
    "id": 70791,
    "name": "Huilango",
    "state_id": 3450,
    "state_code": "MEX",
    "country_id": 142,
    "country_code": "MX",
    "latitude": "19.68056000",
    "longitude": "-99.25639000",
    "native": null,
    "timezone": null,
    "translations": {}
  },
  {
    "id": 70814,
    "name": "Huitzoltepec",
    "state_id": 3450,
    "state_code": "MEX",
    "country_id": 142,
    "country_code": "MX",
    "latitude": "18.76737000",
    "longitude": "-99.80014000",
    "native": null,
    "timezone": null,
    "translations": {}
  },
  {
    "id": 70818,
    "name": "Huixquilucan",
    "state_id": 3450,
    "state_code": "MEX",
    "country_id": 142,
    "country_code": "MX",
    "latitude": "19.35985000",
    "longitude": "-99.35016000",
    "native": null,
    "timezone": null,
    "translations": {}
  },
  {
    "id": 70819,
    "name": "Huixquilucan de Degollado",
    "state_id": 3450,
    "state_code": "MEX",
    "country_id": 142,
    "country_code": "MX",
    "latitude": "19.36028000",
    "longitude": "-99.34980000",
    "native": null,
    "timezone": null,
    "translations": {}
  },
  {
    "id": 70836,
    "name": "Ignacio Allende",
    "state_id": 3450,
    "state_code": "MEX",
    "country_id": 142,
    "country_code": "MX",
    "latitude": "19.34426000",
    "longitude": "-99.36146000",
    "native": null,
    "timezone": null,
    "translations": {}
  },
  {
    "id": 70929,
    "name": "Ixtapaluca",
    "state_id": 3450,
    "state_code": "MEX",
    "country_id": 142,
    "country_code": "MX",
    "latitude": "19.31556000",
    "longitude": "-98.88284000",
    "native": null,
    "timezone": null,
    "translations": {}
  },
  {
    "id": 70931,
    "name": "Ixtapan de la Sal",
    "state_id": 3450,
    "state_code": "MEX",
    "country_id": 142,
    "country_code": "MX",
    "latitude": "18.84369000",
    "longitude": "-99.67671000",
    "native": null,
    "timezone": null,
    "translations": {}
  },
  {
    "id": 70932,
    "name": "Ixtapan del Oro",
    "state_id": 3450,
    "state_code": "MEX",
    "country_id": 142,
    "country_code": "MX",
    "latitude": "19.26303000",
    "longitude": "-100.26459000",
    "native": null,
    "timezone": null,
    "translations": {}
  },
  {
    "id": 70940,
    "name": "Ixtlahuaca de Cuauhtémoc",
    "state_id": 3450,
    "state_code": "MEX",
    "country_id": 142,
    "country_code": "MX",
    "latitude": "19.88139000",
    "longitude": "-98.86028000",
    "native": null,
    "timezone": null,
    "translations": {}
  },
  {
    "id": 70941,
    "name": "Ixtlahuaca de Rayón",
    "state_id": 3450,
    "state_code": "MEX",
    "country_id": 142,
    "country_code": "MX",
    "latitude": "19.56889000",
    "longitude": "-99.76694000",
    "native": null,
    "timezone": null,
    "translations": {}
  },
  {
    "id": 70960,
    "name": "Jacona de Plancarte",
    "state_id": 3450,
    "state_code": "MEX",
    "country_id": 142,
    "country_code": "MX",
    "latitude": "19.95232000",
    "longitude": "-102.30781000",
    "native": null,
    "timezone": null,
    "translations": {}
  },
  {
    "id": 70974,
    "name": "Jalmolonga (La Hacienda)",
    "state_id": 3450,
    "state_code": "MEX",
    "country_id": 142,
    "country_code": "MX",
    "latitude": "18.91835000",
    "longitude": "-99.49407000",
    "native": null,
    "timezone": null,
    "translations": {}
  },
  {
    "id": 70978,
    "name": "Jalpa de los Baños",
    "state_id": 3450,
    "state_code": "MEX",
    "country_id": 142,
    "country_code": "MX",
    "latitude": "19.67833000",
    "longitude": "-99.87389000",
    "native": null,
    "timezone": null,
    "translations": {}
  },
  {
    "id": 70984,
    "name": "Jaltenco",
    "state_id": 3450,
    "state_code": "MEX",
    "country_id": 142,
    "country_code": "MX",
    "latitude": "19.75298000",
    "longitude": "-99.09390000",
    "native": null,
    "timezone": null,
    "translations": {}
  },
  {
    "id": 70999,
    "name": "Janambo",
    "state_id": 3450,
    "state_code": "MEX",
    "country_id": 142,
    "country_code": "MX",
    "latitude": "20.20642000",
    "longitude": "-101.52644000",
    "native": null,
    "timezone": null,
    "translations": {}
  },
  {
    "id": 71000,
    "name": "Janamuato",
    "state_id": 3450,
    "state_code": "MEX",
    "country_id": 142,
    "country_code": "MX",
    "latitude": "20.09961000",
    "longitude": "-101.58540000",
    "native": null,
    "timezone": null,
    "translations": {}
  },
  {
    "id": 71023,
    "name": "Jesús Carranza (Rancho de Jesús)",
    "state_id": 3450,
    "state_code": "MEX",
    "country_id": 142,
    "country_code": "MX",
    "latitude": "18.94528000",
    "longitude": "-99.63056000",
    "native": null,
    "timezone": null,
    "translations": {}
  },
  {
    "id": 71036,
    "name": "Jesús del Monte",
    "state_id": 3450,
    "state_code": "MEX",
    "country_id": 142,
    "country_code": "MX",
    "latitude": "19.37500000",
    "longitude": "-99.29444000",
    "native": null,
    "timezone": null,
    "translations": {}
  },
  {
    "id": 71027,
    "name": "Jesús María",
    "state_id": 3450,
    "state_code": "MEX",
    "country_id": 142,
    "country_code": "MX",
    "latitude": "19.41773000",
    "longitude": "-99.99696000",
    "native": null,
    "timezone": null,
    "translations": {}
  },
  {
    "id": 71039,
    "name": "Jicaltepec Autopan",
    "state_id": 3450,
    "state_code": "MEX",
    "country_id": 142,
    "country_code": "MX",
    "latitude": "19.37167000",
    "longitude": "-99.64083000",
    "native": null,
    "timezone": null,
    "translations": {}
  },
  {
    "id": 71040,
    "name": "Jicaltepec Cuexcontitlán",
    "state_id": 3450,
    "state_code": "MEX",
    "country_id": 142,
    "country_code": "MX",
    "latitude": "19.37306000",
    "longitude": "-99.62750000",
    "native": null,
    "timezone": null,
    "translations": {}
  },
  {
    "id": 71045,
    "name": "Jilotepec de Molina Enríquez",
    "state_id": 3450,
    "state_code": "MEX",
    "country_id": 142,
    "country_code": "MX",
    "latitude": "19.95194000",
    "longitude": "-99.53278000",
    "native": null,
    "timezone": null,
    "translations": {}
  },
  {
    "id": 71046,
    "name": "Jilotzingo",
    "state_id": 3450,
    "state_code": "MEX",
    "country_id": 142,
    "country_code": "MX",
    "latitude": "19.86889000",
    "longitude": "-99.06194000",
    "native": null,
    "timezone": null,
    "translations": {}
  },
  {
    "id": 71056,
    "name": "Jiquipilco",
    "state_id": 3450,
    "state_code": "MEX",
    "country_id": 142,
    "country_code": "MX",
    "latitude": "19.55644000",
    "longitude": "-99.60833000",
    "native": null,
    "timezone": null,
    "translations": {}
  },
  {
    "id": 71067,
    "name": "Jocotitlán",
    "state_id": 3450,
    "state_code": "MEX",
    "country_id": 142,
    "country_code": "MX",
    "latitude": "19.70991000",
    "longitude": "-99.78867000",
    "native": null,
    "timezone": null,
    "translations": {}
  },
  {
    "id": 71083,
    "name": "Joquicingo",
    "state_id": 3450,
    "state_code": "MEX",
    "country_id": 142,
    "country_code": "MX",
    "latitude": "19.05032000",
    "longitude": "-99.53375000",
    "native": null,
    "timezone": null,
    "translations": {}
  },
  {
    "id": 71084,
    "name": "Jorge Jiménez Cantú",
    "state_id": 3450,
    "state_code": "MEX",
    "country_id": 142,
    "country_code": "MX",
    "latitude": "19.30972000",
    "longitude": "-98.84667000",
    "native": null,
    "timezone": null,
    "translations": {}
  },
  {
    "id": 71085,
    "name": "Jorobas",
    "state_id": 3450,
    "state_code": "MEX",
    "country_id": 142,
    "country_code": "MX",
    "latitude": "19.82389000",
    "longitude": "-99.24833000",
    "native": null,
    "timezone": null,
    "translations": {}
  },
  {
    "id": 71132,
    "name": "Juchitepec",
    "state_id": 3450,
    "state_code": "MEX",
    "country_id": 142,
    "country_code": "MX",
    "latitude": "19.10059000",
    "longitude": "-98.87880000",
    "native": null,
    "timezone": null,
    "translations": {}
  },
  {
    "id": 71169,
    "name": "La Albarrada (San Francisco la Albarrada)",
    "state_id": 3450,
    "state_code": "MEX",
    "country_id": 142,
    "country_code": "MX",
    "latitude": "19.06750000",
    "longitude": "-100.07528000",
    "native": null,
    "timezone": null,
    "translations": {}
  },
  {
    "id": 71187,
    "name": "La Cabecera",
    "state_id": 3450,
    "state_code": "MEX",
    "country_id": 142,
    "country_code": "MX",
    "latitude": "19.35611000",
    "longitude": "-99.74806000",
    "native": null,
    "timezone": null,
    "translations": {}
  },
  {
    "id": 71188,
    "name": "La Cabecera Concepción",
    "state_id": 3450,
    "state_code": "MEX",
    "country_id": 142,
    "country_code": "MX",
    "latitude": "19.70361000",
    "longitude": "-99.94111000",
    "native": null,
    "timezone": null,
    "translations": {}
  },
  {
    "id": 71192,
    "name": "La Calle",
    "state_id": 3450,
    "state_code": "MEX",
    "country_id": 142,
    "country_code": "MX",
    "latitude": "20.28628000",
    "longitude": "-101.63679000",
    "native": null,
    "timezone": null,
    "translations": {}
  },
  {
    "id": 71194,
    "name": "La Campanilla",
    "state_id": 3450,
    "state_code": "MEX",
    "country_id": 142,
    "country_code": "MX",
    "latitude": "19.50983000",
    "longitude": "-99.94230000",
    "native": null,
    "timezone": null,
    "translations": {}
  },
  {
    "id": 71207,
    "name": "La Cañada",
    "state_id": 3450,
    "state_code": "MEX",
    "country_id": 142,
    "country_code": "MX",
    "latitude": "19.48639000",
    "longitude": "-99.59889000",
    "native": null,
    "timezone": null,
    "translations": {}
  },
  {
    "id": 71198,
    "name": "La Candelaria Tlapala",
    "state_id": 3450,
    "state_code": "MEX",
    "country_id": 142,
    "country_code": "MX",
    "latitude": "19.24042000",
    "longitude": "-98.84766000",
    "native": null,
    "timezone": null,
    "translations": {}
  },
  {
    "id": 71199,
    "name": "La Cantera",
    "state_id": 3450,
    "state_code": "MEX",
    "country_id": 142,
    "country_code": "MX",
    "latitude": "19.86375000",
    "longitude": "-102.40838000",
    "native": null,
    "timezone": null,
    "translations": {}
  },
  {
    "id": 71204,
    "name": "La Caridad",
    "state_id": 3450,
    "state_code": "MEX",
    "country_id": 142,
    "country_code": "MX",
    "latitude": "19.94778000",
    "longitude": "-99.83694000",
    "native": null,
    "timezone": null,
    "translations": {}
  },
  {
    "id": 71217,
    "name": "La Ciénega",
    "state_id": 3450,
    "state_code": "MEX",
    "country_id": 142,
    "country_code": "MX",
    "latitude": "18.95611000",
    "longitude": "-99.58139000",
    "native": null,
    "timezone": null,
    "translations": {}
  },
  {
    "id": 71220,
    "name": "La Colonia",
    "state_id": 3450,
    "state_code": "MEX",
    "country_id": 142,
    "country_code": "MX",
    "latitude": "19.14444000",
    "longitude": "-98.78667000",
    "native": null,
    "timezone": null,
    "translations": {}
  },
  {
    "id": 71225,
    "name": "La Compañía",
    "state_id": 3450,
    "state_code": "MEX",
    "country_id": 142,
    "country_code": "MX",
    "latitude": "19.16460000",
    "longitude": "-100.07966000",
    "native": null,
    "timezone": null,
    "translations": {}
  },
  {
    "id": 71227,
    "name": "La Comunidad",
    "state_id": 3450,
    "state_code": "MEX",
    "country_id": 142,
    "country_code": "MX",
    "latitude": "20.02111000",
    "longitude": "-99.57611000",
    "native": null,
    "timezone": null,
    "translations": {}
  },
  {
    "id": 71233,
    "name": "La Concepción",
    "state_id": 3450,
    "state_code": "MEX",
    "country_id": 142,
    "country_code": "MX",
    "latitude": "19.69611000",
    "longitude": "-99.30028000",
    "native": null,
    "timezone": null,
    "translations": {}
  },
  {
    "id": 71235,
    "name": "La Concepción Coatipac (La Conchita)",
    "state_id": 3450,
    "state_code": "MEX",
    "country_id": 142,
    "country_code": "MX",
    "latitude": "19.18188000",
    "longitude": "-99.56833000",
    "native": null,
    "timezone": null,
    "translations": {}
  },
  {
    "id": 71238,
    "name": "La Concepción de Hidalgo",
    "state_id": 3450,
    "state_code": "MEX",
    "country_id": 142,
    "country_code": "MX",
    "latitude": "19.45054000",
    "longitude": "-99.53139000",
    "native": null,
    "timezone": null,
    "translations": {}
  },
  {
    "id": 71239,
    "name": "La Concepción de los Baños",
    "state_id": 3450,
    "state_code": "MEX",
    "country_id": 142,
    "country_code": "MX",
    "latitude": "19.68249000",
    "longitude": "-99.86104000",
    "native": null,
    "timezone": null,
    "translations": {}
  },
  {
    "id": 71236,
    "name": "La Concepción Enyege",
    "state_id": 3450,
    "state_code": "MEX",
    "country_id": 142,
    "country_code": "MX",
    "latitude": "19.56472000",
    "longitude": "-99.84139000",
    "native": null,
    "timezone": null,
    "translations": {}
  },
  {
    "id": 71237,
    "name": "La Concepción Xochicuautla",
    "state_id": 3450,
    "state_code": "MEX",
    "country_id": 142,
    "country_code": "MX",
    "latitude": "19.38226000",
    "longitude": "-99.44050000",
    "native": null,
    "timezone": null,
    "translations": {}
  },
  {
    "id": 71245,
    "name": "La Constitución Toltepec",
    "state_id": 3450,
    "state_code": "MEX",
    "country_id": 142,
    "country_code": "MX",
    "latitude": "19.34861000",
    "longitude": "-99.54917000",
    "native": null,
    "timezone": null,
    "translations": {}
  },
  {
    "id": 71253,
    "name": "La Cruz y Carrizal",
    "state_id": 3450,
    "state_code": "MEX",
    "country_id": 142,
    "country_code": "MX",
    "latitude": "19.83021000",
    "longitude": "-99.42168000",
    "native": null,
    "timezone": null,
    "translations": {}
  },
  {
    "id": 71270,
    "name": "La Esperanza",
    "state_id": 3450,
    "state_code": "MEX",
    "country_id": 142,
    "country_code": "MX",
    "latitude": "19.68377000",
    "longitude": "-99.51575000",
    "native": null,
    "timezone": null,
    "translations": {}
  },
  {
    "id": 71283,
    "name": "La Estancia Sector Uno (La Estancia)",
    "state_id": 3450,
    "state_code": "MEX",
    "country_id": 142,
    "country_code": "MX",
    "latitude": "19.87056000",
    "longitude": "-99.79167000",
    "native": null,
    "timezone": null,
    "translations": {}
  },
  {
    "id": 71290,
    "name": "La Finca",
    "state_id": 3450,
    "state_code": "MEX",
    "country_id": 142,
    "country_code": "MX",
    "latitude": "18.89047000",
    "longitude": "-99.64028000",
    "native": null,
    "timezone": null,
    "translations": {}
  },
  {
    "id": 71303,
    "name": "La Glorieta",
    "state_id": 3450,
    "state_code": "MEX",
    "country_id": 142,
    "country_code": "MX",
    "latitude": "19.41154000",
    "longitude": "-99.38562000",
    "native": null,
    "timezone": null,
    "translations": {}
  },
  {
    "id": 71309,
    "name": "La Guadalupana",
    "state_id": 3450,
    "state_code": "MEX",
    "country_id": 142,
    "country_code": "MX",
    "latitude": "19.55414000",
    "longitude": "-99.90922000",
    "native": null,
    "timezone": null,
    "translations": {}
  },
  {
    "id": 71315,
    "name": "La Herradura",
    "state_id": 3450,
    "state_code": "MEX",
    "country_id": 142,
    "country_code": "MX",
    "latitude": "19.04000000",
    "longitude": "-99.58472000",
    "native": null,
    "timezone": null,
    "translations": {}
  },
  {
    "id": 71333,
    "name": "La Joya",
    "state_id": 3450,
    "state_code": "MEX",
    "country_id": 142,
    "country_code": "MX",
    "latitude": "19.27639000",
    "longitude": "-99.75889000",
    "native": null,
    "timezone": null,
    "translations": {}
  },
  {
    "id": 71365,
    "name": "La Loma",
    "state_id": 3450,
    "state_code": "MEX",
    "country_id": 142,
    "country_code": "MX",
    "latitude": "20.01966000",
    "longitude": "-100.01027000",
    "native": null,
    "timezone": null,
    "translations": {}
  },
  {
    "id": 71368,
    "name": "La Loma Cuexcontitlán",
    "state_id": 3450,
    "state_code": "MEX",
    "country_id": 142,
    "country_code": "MX",
    "latitude": "19.38000000",
    "longitude": "-99.64889000",
    "native": null,
    "timezone": null,
    "translations": {}
  },
  {
    "id": 71381,
    "name": "La Magdalena",
    "state_id": 3450,
    "state_code": "MEX",
    "country_id": 142,
    "country_code": "MX",
    "latitude": "19.94796000",
    "longitude": "-99.99947000",
    "native": null,
    "timezone": null,
    "translations": {}
  },
  {
    "id": 71382,
    "name": "La Magdalena Chichicaspa",
    "state_id": 3450,
    "state_code": "MEX",
    "country_id": 142,
    "country_code": "MX",
    "latitude": "19.41237000",
    "longitude": "-99.32555000",
    "native": null,
    "timezone": null,
    "translations": {}
  },
  {
    "id": 71387,
    "name": "La Magdalena de los Reyes (La Magdalena)",
    "state_id": 3450,
    "state_code": "MEX",
    "country_id": 142,
    "country_code": "MX",
    "latitude": "19.18972000",
    "longitude": "-99.41000000",
    "native": null,
    "timezone": null,
    "translations": {}
  },
  {
    "id": 71383,
    "name": "La Magdalena Tenexpan",
    "state_id": 3450,
    "state_code": "MEX",
    "country_id": 142,
    "country_code": "MX",
    "latitude": "19.46333000",
    "longitude": "-99.58861000",
    "native": null,
    "timezone": null,
    "translations": {}
  },
  {
    "id": 71389,
    "name": "La Mesa",
    "state_id": 3450,
    "state_code": "MEX",
    "country_id": 142,
    "country_code": "MX",
    "latitude": "19.58748000",
    "longitude": "-100.17373000",
    "native": null,
    "timezone": null,
    "translations": {}
  },
  {
    "id": 71392,
    "name": "La Mesa de Chosto",
    "state_id": 3450,
    "state_code": "MEX",
    "country_id": 142,
    "country_code": "MX",
    "latitude": "19.85250000",
    "longitude": "-99.89028000",
    "native": null,
    "timezone": null,
    "translations": {}
  },
  {
    "id": 71433,
    "name": "La Pastoría",
    "state_id": 3450,
    "state_code": "MEX",
    "country_id": 142,
    "country_code": "MX",
    "latitude": "19.54306000",
    "longitude": "-98.91111000",
    "native": null,
    "timezone": null,
    "translations": {}
  },
  {
    "id": 71451,
    "name": "La Planada",
    "state_id": 3450,
    "state_code": "MEX",
    "country_id": 142,
    "country_code": "MX",
    "latitude": "19.78129000",
    "longitude": "-99.18267000",
    "native": null,
    "timezone": null,
    "translations": {}
  },
  {
    "id": 71452,
    "name": "La Planada (El Arenal)",
    "state_id": 3450,
    "state_code": "MEX",
    "country_id": 142,
    "country_code": "MX",
    "latitude": "19.33333000",
    "longitude": "-99.67694000",
    "native": null,
    "timezone": null,
    "translations": {}
  },
  {
    "id": 71459,
    "name": "La Presita Segundo Cuartel",
    "state_id": 3450,
    "state_code": "MEX",
    "country_id": 142,
    "country_code": "MX",
    "latitude": "20.16278000",
    "longitude": "-99.87278000",
    "native": null,
    "timezone": null,
    "translations": {}
  },
  {
    "id": 71462,
    "name": "La Providencia",
    "state_id": 3450,
    "state_code": "MEX",
    "country_id": 142,
    "country_code": "MX",
    "latitude": "19.75833000",
    "longitude": "-99.14667000",
    "native": null,
    "timezone": null,
    "translations": {}
  },
  {
    "id": 71466,
    "name": "La Puerta del Pilar",
    "state_id": 3450,
    "state_code": "MEX",
    "country_id": 142,
    "country_code": "MX",
    "latitude": "19.46018000",
    "longitude": "-100.01577000",
    "native": null,
    "timezone": null,
    "translations": {}
  },
  {
    "id": 71468,
    "name": "La Purificación",
    "state_id": 3450,
    "state_code": "MEX",
    "country_id": 142,
    "country_code": "MX",
    "latitude": "19.52441000",
    "longitude": "-98.81731000",
    "native": null,
    "timezone": null,
    "translations": {}
  },
  {
    "id": 71480,
    "name": "La Rosa",
    "state_id": 3450,
    "state_code": "MEX",
    "country_id": 142,
    "country_code": "MX",
    "latitude": "19.48519000",
    "longitude": "-99.32984000",
    "native": null,
    "timezone": null,
    "translations": {}
  },
  {
    "id": 71496,
    "name": "La Soledad Barrio",
    "state_id": 3450,
    "state_code": "MEX",
    "country_id": 142,
    "country_code": "MX",
    "latitude": "20.09194000",
    "longitude": "-99.82306000",
    "native": null,
    "timezone": null,
    "translations": {}
  },
  {
    "id": 71510,
    "name": "La Trinidad",
    "state_id": 3450,
    "state_code": "MEX",
    "country_id": 142,
    "country_code": "MX",
    "latitude": "18.96639000",
    "longitude": "-99.58083000",
    "native": null,
    "timezone": null,
    "translations": {}
  },