[
  {
    "id": 106848,
    "name": "Iliomar",
    "state_id": 4523,
    "state_code": "LA",
    "country_id": 63,
    "country_code": "TL",
    "latitude": "-8.70917000",
    "longitude": "126.82833000",
    "native": null,
    "timezone": null,
    "translations": {}
  },
  {
    "id": 106853,
    "name": "Lautem",
    "state_id": 4523,
    "state_code": "LA",
    "country_id": 63,
    "country_code": "TL",
    "latitude": "-8.36514000",
    "longitude": "126.90389000",
    "native": null,
    "timezone": null,
    "translations": {}
  },
  {
    "id": 106857,
    "name": "Lospalos",
    "state_id": 4523,
    "state_code": "LA",
    "country_id": 63,
    "country_code": "TL",
    "latitude": "-8.52167000",
    "longitude": "126.99833000",
    "native": null,
    "timezone": null,
    "translations": {}
  },
  {
    "id": 106858,
    "name": "Luro",
    "state_id": 4523,
    "state_code": "LA",
    "country_id": 63,
    "country_code": "TL",
    "latitude": "-8.54359000",
    "longitude": "126.83003000",
    "native": null,
    "timezone": null,
    "translations": {}
  },
  {
    "id": 106874,
    "name": "Tutuala",
    "state_id": 4523,
    "state_code": "LA",
    "country_id": 63,
    "country_code": "TL",
    "latitude": "-8.39597000",
    "longitude": "127.25923000",
    "native": null,
    "timezone": null,
    "translations": {}
  }
]