[
  {
    "id": 488,
    "name": "Andorra la Vella",
    "country_id": 6,
    "country_code": "AD",
    "fips_code": null,
    "iso2": "07",
    "type": "parish",
    "latitude": "42.50631740",
    "longitude": "1.52183550",
    "native": "Andorra la Vella",
    "timezone": "Europe/Andorra",
    "translations": {}
  },
  {
    "id": 489,
    "name": "Canillo",
    "country_id": 6,
    "country_code": "AD",
    "fips_code": null,
    "iso2": "02",
    "type": "parish",
    "latitude": "42.58680920",
    "longitude": "1.65744310",
    "native": "Canillo",
    "timezone": "Europe/Andorra",
    "translations": {}
  },
  {
    "id": 487,
    "name": "Encamp",
    "country_id": 6,
    "country_code": "AD",
    "fips_code": null,
    "iso2": "03",
    "type": "parish",
    "latitude": "42.53597640",
    "longitude": "1.58367730",
    "native": "Encamp",
    "timezone": "Europe/Andorra",
    "translations": {}
  },
  {
    "id": 492,
    "name": "Escaldes-Engordany",
    "country_id": 6,
    "country_code": "AD",
    "fips_code": null,
    "iso2": "08",
    "type": "parish",
    "latitude": "42.48619600",
    "longitude": "1.60377110",
    "native": "Escaldes-Engordany",
    "timezone": "Europe/Andorra",
    "translations": {}
  },
  {
    "id": 493,
    "name": "La Massana",
    "country_id": 6,
    "country_code": "AD",
    "fips_code": null,
    "iso2": "04",
    "type": "parish",
    "latitude": "42.54562500",
    "longitude": "1.51473920",
    "native": "La Massana",
    "timezone": "Europe/Andorra",
    "translations": {}
  },
  {
    "id": 491,
    "name": "Ordino",
    "country_id": 6,
    "country_code": "AD",
    "fips_code": null,
    "iso2": "05",
    "type": "parish",
    "latitude": "42.59944330",
    "longitude": "1.54023270",
    "native": "Ordino",
    "timezone": "Europe/Andorra",
    "translations": {}
  },
  {
    "id": 490,
    "name": "Sant Julià de Lòria",
    "country_id": 6,
    "country_code": "AD",
    "fips_code": null,
    "iso2": "06",
    "type": "parish",
    "latitude": "42.46685410",
    "longitude": "1.49232770",
    "native": "Sant Julià de Lòria",
    "timezone": "Europe/Andorra",
    "translations": {}
  }
]