[
  {
    "id": 38592,
    "name": "Alaba Special Wereda",
    "state_id": 1,
    "state_code": "SN",
    "country_id": 70,
    "country_code": "ET",
    "latitude": "7.45347000",
    "longitude": "38.21189000",
    "native": null,
    "timezone": null,
    "translations": {}
  },
  {
    "id": 38593,
    "name": "Arba Minch",
    "state_id": 1,
    "state_code": "SN",
    "country_id": 70,
    "country_code": "ET",
    "latitude": "6.03333000",
    "longitude": "37.55000000",
    "native": null,
    "timezone": null,
    "translations": {}
  },
  {
    "id": 38725,
    "name": "Āreka",
    "state_id": 1,
    "state_code": "SN",
    "country_id": 70,
    "country_code": "ET",
    "latitude": "7.06667000",
    "longitude": "37.70000000",
    "native": null,
    "timezone": null,
    "translations": {}
  },
  {
    "id": 38599,
    "name": "Bako",
    "state_id": 1,
    "state_code": "SN",
    "country_id": 70,
    "country_code": "ET",
    "latitude": "5.78333000",
    "longitude": "36.56667000",
    "native": null,
    "timezone": null,
    "translations": {}
  },
  {
    "id": 38603,
    "name": "Bench Maji Zone",
    "state_id": 1,
    "state_code": "SN",
    "country_id": 70,
    "country_code": "ET",
    "latitude": "6.45994000",
    "longitude": "35.30549000",
    "native": null,
    "timezone": null,
    "translations": {}
  },
  {
    "id": 38606,
    "name": "Bodītī",
    "state_id": 1,
    "state_code": "SN",
    "country_id": 70,
    "country_code": "ET",
    "latitude": "6.96667000",
    "longitude": "37.86667000",
    "native": null,
    "timezone": null,
    "translations": {}
  },
  {
    "id": 38607,
    "name": "Bonga",
    "state_id": 1,
    "state_code": "SN",
    "country_id": 70,
    "country_code": "ET",
    "latitude": "7.28333000",
    "longitude": "36.23333000",
    "native": null,
    "timezone": null,
    "translations": {}
  },
  {
    "id": 38609,
    "name": "Butajīra",
    "state_id": 1,
    "state_code": "SN",
    "country_id": 70,
    "country_code": "ET",
    "latitude": "8.11667000",
    "longitude": "38.36667000",
    "native": null,
    "timezone": null,
    "translations": {}
  },
  {
    "id": 38625,
    "name": "Dīla",
    "state_id": 1,
    "state_code": "SN",
    "country_id": 70,
    "country_code": "ET",
    "latitude": "6.41667000",
    "longitude": "38.31667000",
    "native": null,
    "timezone": null,
    "translations": {}
  },
  {
    "id": 38629,
    "name": "Felege Neway",
    "state_id": 1,
    "state_code": "SN",
    "country_id": 70,
    "country_code": "ET",
    "latitude": "6.30000000",
    "longitude": "36.88333000",
    "native": null,
    "timezone": null,
    "translations": {}
  },
  {
    "id": 38634,
    "name": "Gedeo Zone",
    "state_id": 1,
    "state_code": "SN",
    "country_id": 70,
    "country_code": "ET",
    "latitude": "6.12727000",
    "longitude": "38.27716000",
    "native": null,
    "timezone": null,
    "translations": {}
  },
  {
    "id": 38647,
    "name": "Gīdolē",
    "state_id": 1,
    "state_code": "SN",
    "country_id": 70,
    "country_code": "ET",
    "latitude": "5.65000000",
    "longitude": "37.36667000",
    "native": null,
    "timezone": null,
    "translations": {}
  },
  {
    "id": 38645,
    "name": "Guraghe Zone",
    "state_id": 1,
    "state_code": "SN",
    "country_id": 70,
    "country_code": "ET",
    "latitude": "8.25000000",
    "longitude": "38.00000000",
    "native": null,
    "timezone": null,
    "translations": {}
  },
  {
    "id": 38648,
    "name": "Hadiya Zone",
    "state_id": 1,
    "state_code": "SN",
    "country_id": 70,
    "country_code": "ET",
    "latitude": "7.50000000",
    "longitude": "37.75000000",
    "native": null,
    "timezone": null,
    "translations": {}
  },
  {
    "id": 38655,
    "name": "Hāgere Selam",
    "state_id": 1,
    "state_code": "SN",
    "country_id": 70,
    "country_code": "ET",
    "latitude": "6.48333000",
    "longitude": "38.51667000",
    "native": null,
    "timezone": null,
    "translations": {}
  },
  {
    "id": 38651,
    "name": "Hawassa",
    "state_id": 1,
    "state_code": "SN",
    "country_id": 70,
    "country_code": "ET",
    "latitude": "7.06205000",
    "longitude": "38.47635000",
    "native": null,
    "timezone": null,
    "translations": {}
  },
  {
    "id": 38652,
    "name": "Hosa’ina",
    "state_id": 1,
    "state_code": "SN",
    "country_id": 70,
    "country_code": "ET",
    "latitude": "7.54978000",
    "longitude": "37.85374000",
    "native": null,
    "timezone": null,
    "translations": {}
  },
  {
    "id": 38662,
    "name": "Jinka",
    "state_id": 1,
    "state_code": "SN",
    "country_id": 70,
    "country_code": "ET",
    "latitude": "5.65000000",
    "longitude": "36.65000000",
    "native": null,
    "timezone": null,
    "translations": {}
  },
  {
    "id": 38670,
    "name": "K’olīto",
    "state_id": 1,
    "state_code": "SN",
    "country_id": 70,
    "country_code": "ET",
    "latitude": "7.31667000",
    "longitude": "38.08333000",
    "native": null,
    "timezone": null,
    "translations": {}
  },
  {
    "id": 38663,
    "name": "Kembata Alaba Tembaro Zone",
    "state_id": 1,
    "state_code": "SN",
    "country_id": 70,
    "country_code": "ET",
    "latitude": "7.27039000",
    "longitude": "37.77887000",
    "native": null,
    "timezone": null,
    "translations": {}
  },
  {
    "id": 38668,
    "name": "Konso",
    "state_id": 1,
    "state_code": "SN",
    "country_id": 70,
    "country_code": "ET",
    "latitude": "5.25000000",
    "longitude": "37.48333000",
    "native": null,
    "timezone": null,
    "translations": {}
  },
  {
    "id": 38672,
    "name": "Leku",
    "state_id": 1,
    "state_code": "SN",
    "country_id": 70,
    "country_code": "ET",
    "latitude": "6.87309000",
    "longitude": "38.44425000",
    "native": null,
    "timezone": null,
    "translations": {}
  },
  {
    "id": 38674,
    "name": "Lobuni",
    "state_id": 1,
    "state_code": "SN",
    "country_id": 70,
    "country_code": "ET",
    "latitude": "4.83333000",
    "longitude": "36.10000000",
    "native": null,
    "timezone": null,
    "translations": {}
  },
  {
    "id": 38683,
    "name": "Mīzan Teferī",
    "state_id": 1,
    "state_code": "SN",
    "country_id": 70,
    "country_code": "ET",
    "latitude": "6.99865000",
    "longitude": "35.58879000",
    "native": null,
    "timezone": null,
    "translations": {}
  },
  {
    "id": 38696,
    "name": "Sheka Zone",
    "state_id": 1,
    "state_code": "SN",
    "country_id": 70,
    "country_code": "ET",
    "latitude": "7.56166000",
    "longitude": "35.40174000",
    "native": null,
    "timezone": null,
    "translations": {}
  },
  {
    "id": 38698,
    "name": "Sidama Zone",
    "state_id": 1,
    "state_code": "SN",
    "country_id": 70,
    "country_code": "ET",
    "latitude": "6.71800000",
    "longitude": "38.44800000",
    "native": null,
    "timezone": null,
    "translations": {}
  },
  {
    "id": 38700,
    "name": "Sodo",
    "state_id": 1,
    "state_code": "SN",
    "country_id": 70,
    "country_code": "ET",
    "latitude": "6.86000000",
    "longitude": "37.76159000",
    "native": null,
    "timezone": null,
    "translations": {}
  },
  {
    "id": 38705,
    "name": "Tippi",
    "state_id": 1,
    "state_code": "SN",
    "country_id": 70,
    "country_code": "ET",
    "latitude": "7.20000000",
    "longitude": "35.45000000",
    "native": null,
    "timezone": null,
    "translations": {}
  },
  {
    "id": 38707,
    "name": "Turmi",
    "state_id": 1,
    "state_code": "SN",
    "country_id": 70,
    "country_code": "ET",
    "latitude": "4.96667000",
    "longitude": "36.48333000",
    "native": null,
    "timezone": null,
    "translations": {}
  },
  {
    "id": 38710,
    "name": "Wendo",
    "state_id": 1,
    "state_code": "SN",
    "country_id": 70,
    "country_code": "ET",
    "latitude": "6.60000000",
    "longitude": "38.41667000",
    "native": null,
    "timezone": null,
    "translations": {}
  },
  {
    "id": 38716,
    "name": "Wolayita Zone",
    "state_id": 1,
    "state_code": "SN",
    "country_id": 70,
    "country_code": "ET",
    "latitude": "6.84312000",
    "longitude": "37.70051000",
    "native": null,
    "timezone": null,
    "translations": {}
  },
  {
    "id": 38718,
    "name": "Yem",
    "state_id": 1,
    "state_code": "SN",
    "country_id": 70,
    "country_code": "ET",
    "latitude": "7.83333000",
    "longitude": "37.50000000",
    "native": null,
    "timezone": null,
    "translations": {}
  },
  {
    "id": 38719,
    "name": "Yirga ‘Alem",
    "state_id": 1,
    "state_code": "SN",
    "country_id": 70,
    "country_code": "ET",
    "latitude": "6.75000000",
    "longitude": "38.41667000",
    "native": null,
    "timezone": null,
    "translations": {}
  }
]