[
  {
    "id": 109357,
    "name": "Batiovo",
    "state_id": 4670,
    "state_code": "21",
    "country_id": 230,
    "country_code": "UA",
    "latitude": "48.36166000",
    "longitude": "22.39970000",
    "native": null,
    "timezone": null,
    "translations": {}
  },
  {
    "id": 109373,
    "name": "Berehivs’ka Mis’krada",
    "state_id": 4670,
    "state_code": "21",
    "country_id": 230,
    "country_code": "UA",
    "latitude": "48.21255000",
    "longitude": "22.65536000",
    "native": null,
    "timezone": null,
    "translations": {}
  },
  {
    "id": 109375,
    "name": "Berehove",
    "state_id": 4670,
    "state_code": "21",
    "country_id": 230,
    "country_code": "UA",
    "latitude": "48.20555000",
    "longitude": "22.64418000",
    "native": null,
    "timezone": null,
    "translations": {}
  },
  {
    "id": 109376,
    "name": "Berehove Raion",
    "state_id": 4670,
    "state_code": "21",
    "country_id": 230,
    "country_code": "UA",
    "latitude": "48.16667000",
    "longitude": "22.66667000",
    "native": null,
    "timezone": null,
    "translations": {}
  },
  {
    "id": 109383,
    "name": "Bereznyky",
    "state_id": 4670,
    "state_code": "21",
    "country_id": 230,
    "country_code": "UA",
    "latitude": "48.51407000",
    "longitude": "23.21982000",
    "native": null,
    "timezone": null,
    "translations": {}
  },
  {
    "id": 109385,
    "name": "Berezovo",
    "state_id": 4670,
    "state_code": "21",
    "country_id": 230,
    "country_code": "UA",
    "latitude": "48.30943000",
    "longitude": "23.47400000",
    "native": null,
    "timezone": null,
    "translations": {}
  },
  {
    "id": 109398,
    "name": "Bilky",
    "state_id": 4670,
    "state_code": "21",
    "country_id": 230,
    "country_code": "UA",
    "latitude": "48.31503000",
    "longitude": "23.13248000",
    "native": null,
    "timezone": null,
    "translations": {}
  },
  {
    "id": 109414,
    "name": "Bobovo",
    "state_id": 4670,
    "state_code": "21",
    "country_id": 230,
    "country_code": "UA",
    "latitude": "48.07166000",
    "longitude": "22.89585000",
    "native": null,
    "timezone": null,
    "translations": {}
  },
  {
    "id": 109418,
    "name": "Bohdan",
    "state_id": 4670,
    "state_code": "21",
    "country_id": 230,
    "country_code": "UA",
    "latitude": "48.04122000",
    "longitude": "24.35222000",
    "native": null,
    "timezone": null,
    "translations": {}
  },
  {
    "id": 109464,
    "name": "Bushtyno",
    "state_id": 4670,
    "state_code": "21",
    "country_id": 230,
    "country_code": "UA",
    "latitude": "48.05121000",
    "longitude": "23.48579000",
    "native": null,
    "timezone": null,
    "translations": {}
  },
  {
    "id": 109508,
    "name": "Chop",
    "state_id": 4670,
    "state_code": "21",
    "country_id": 230,
    "country_code": "UA",
    "latitude": "48.43198000",
    "longitude": "22.20555000",
    "native": null,
    "timezone": null,
    "translations": {}
  },
  {
    "id": 109525,
    "name": "Chynadiyovo",
    "state_id": 4670,
    "state_code": "21",
    "country_id": 230,
    "country_code": "UA",
    "latitude": "48.48179000",
    "longitude": "22.82170000",
    "native": null,
    "timezone": null,
    "translations": {}
  },
  {
    "id": 109573,
    "name": "Dovhe",
    "state_id": 4670,
    "state_code": "21",
    "country_id": 230,
    "country_code": "UA",
    "latitude": "48.36527000",
    "longitude": "23.27904000",
    "native": null,
    "timezone": null,
    "translations": {}
  },
  {
    "id": 109576,
    "name": "Drahovo",
    "state_id": 4670,
    "state_code": "21",
    "country_id": 230,
    "country_code": "UA",
    "latitude": "48.23573000",
    "longitude": "23.54914000",
    "native": null,
    "timezone": null,
    "translations": {}
  },
  {
    "id": 109585,
    "name": "Dubove",
    "state_id": 4670,
    "state_code": "21",
    "country_id": 230,
    "country_code": "UA",
    "latitude": "48.17205000",
    "longitude": "23.88954000",
    "native": null,
    "timezone": null,
    "translations": {}
  },
  {
    "id": 109640,
    "name": "Horinchovo",
    "state_id": 4670,
    "state_code": "21",
    "country_id": 230,
    "country_code": "UA",
    "latitude": "48.27076000",
    "longitude": "23.43475000",
    "native": null,
    "timezone": null,
    "translations": {}
  },
  {
    "id": 109674,
    "name": "Irshava",
    "state_id": 4670,
    "state_code": "21",
    "country_id": 230,
    "country_code": "UA",
    "latitude": "48.31667000",
    "longitude": "23.03846000",
    "native": null,
    "timezone": null,
    "translations": {}
  },
  {
    "id": 109675,
    "name": "Irshava Raion",
    "state_id": 4670,
    "state_code": "21",
    "country_id": 230,
    "country_code": "UA",
    "latitude": "48.33333000",
    "longitude": "23.08333000",
    "native": null,
    "timezone": null,
    "translations": {}
  },
  {
    "id": 109686,
    "name": "Iza",
    "state_id": 4670,
    "state_code": "21",
    "country_id": 230,
    "country_code": "UA",
    "latitude": "48.21525000",
    "longitude": "23.32867000",
    "native": null,
    "timezone": null,
    "translations": {}
  },
  {
    "id": 109706,
    "name": "Kalyny",
    "state_id": 4670,
    "state_code": "21",
    "country_id": 230,
    "country_code": "UA",
    "latitude": "48.14078000",
    "longitude": "23.87380000",
    "native": null,
    "timezone": null,
    "translations": {}
  },
  {
    "id": 109711,
    "name": "Kamianytsia",
    "state_id": 4670,
    "state_code": "21",
    "country_id": 230,
    "country_code": "UA",
    "latitude": "48.69343000",
    "longitude": "22.39570000",
    "native": null,
    "timezone": null,
    "translations": {}
  },
  {
    "id": 109742,
    "name": "Khust",
    "state_id": 4670,
    "state_code": "21",
    "country_id": 230,
    "country_code": "UA",
    "latitude": "48.17930000",
    "longitude": "23.29909000",
    "native": null,
    "timezone": null,
    "translations": {}
  },
  {
    "id": 109743,
    "name": "Khust Raion",
    "state_id": 4670,
    "state_code": "21",
    "country_id": 230,
    "country_code": "UA",
    "latitude": "48.25000000",
    "longitude": "23.41667000",
    "native": null,
    "timezone": null,
    "translations": {}
  },
  {
    "id": 109744,
    "name": "Khusts’ka Mis’krada",
    "state_id": 4670,
    "state_code": "21",
    "country_id": 230,
    "country_code": "UA",
    "latitude": "48.19058000",
    "longitude": "23.30322000",
    "native": null,
    "timezone": null,
    "translations": {}
  },
  {
    "id": 109772,
    "name": "Kolochava",
    "state_id": 4670,
    "state_code": "21",
    "country_id": 230,
    "country_code": "UA",
    "latitude": "48.42851000",
    "longitude": "23.69590000",
    "native": null,
    "timezone": null,
    "translations": {}
  },
  {
    "id": 109791,
    "name": "Kopashnovo",
    "state_id": 4670,
    "state_code": "21",
    "country_id": 230,
    "country_code": "UA",
    "latitude": "48.21970000",
    "longitude": "23.48457000",
    "native": null,
    "timezone": null,
    "translations": {}
  },
  {
    "id": 109799,
    "name": "Korolevo",
    "state_id": 4670,
    "state_code": "21",
    "country_id": 230,
    "country_code": "UA",
    "latitude": "48.15247000",
    "longitude": "23.13659000",
    "native": null,
    "timezone": null,
    "translations": {}
  },
  {
    "id": 109810,
    "name": "Koson’",
    "state_id": 4670,
    "state_code": "21",
    "country_id": 230,
    "country_code": "UA",
    "latitude": "48.25505000",
    "longitude": "22.45597000",
    "native": null,
    "timezone": null,
    "translations": {}
  },
  {
    "id": 109873,
    "name": "Kryva",
    "state_id": 4670,
    "state_code": "21",
    "country_id": 230,
    "country_code": "UA",
    "latitude": "48.17234000",
    "longitude": "23.23647000",
    "native": null,
    "timezone": null,
    "translations": {}
  },
  {
    "id": 109891,
    "name": "Kushnytsya",
    "state_id": 4670,
    "state_code": "21",
    "country_id": 230,
    "country_code": "UA",
    "latitude": "48.43988000",
    "longitude": "23.25816000",
    "native": null,
    "timezone": null,
    "translations": {}
  },
  {
    "id": 109896,
    "name": "Kvasy",
    "state_id": 4670,
    "state_code": "21",
    "country_id": 230,
    "country_code": "UA",
    "latitude": "48.14973000",
    "longitude": "24.27995000",
    "native": null,
    "timezone": null,
    "translations": {}
  },
  {
    "id": 109905,
    "name": "Lazeshchyna",
    "state_id": 4670,
    "state_code": "21",
    "country_id": 230,
    "country_code": "UA",
    "latitude": "48.26852000",
    "longitude": "24.42010000",
    "native": null,
    "timezone": null,
    "translations": {}
  },
  {
    "id": 109906,
    "name": "Lazi",
    "state_id": 4670,
    "state_code": "21",
    "country_id": 230,
    "country_code": "UA",
    "latitude": "48.06667000",
    "longitude": "24.23333000",
    "native": null,
    "timezone": null,
    "translations": {}
  },
  {
    "id": 109930,
    "name": "Lopukhiv",
    "state_id": 4670,
    "state_code": "21",
    "country_id": 230,
    "country_code": "UA",
    "latitude": "48.36527000",
    "longitude": "23.96382000",
    "native": null,
    "timezone": null,
    "translations": {}
  },
  {
    "id": 109954,
    "name": "Lypcha",
    "state_id": 4670,
    "state_code": "21",
    "country_id": 230,
    "country_code": "UA",
    "latitude": "48.26107000",
    "longitude": "23.38336000",
    "native": null,
    "timezone": null,
    "translations": {}
  },
  {
    "id": 109961,
    "name": "Lysychovo",
    "state_id": 4670,
    "state_code": "21",
    "country_id": 230,
    "country_code": "UA",
    "latitude": "48.49677000",
    "longitude": "23.28992000",
    "native": null,
    "timezone": null,
    "translations": {}
  },
  {
    "id": 110039,
    "name": "Mizhhirya",
    "state_id": 4670,
    "state_code": "21",
    "country_id": 230,
    "country_code": "UA",
    "latitude": "48.52458000",
    "longitude": "23.50563000",
    "native": null,
    "timezone": null,
    "translations": {}
  },
  {
    "id": 110040,
    "name": "Mizhhirya Raion",
    "state_id": 4670,
    "state_code": "21",
    "country_id": 230,
    "country_code": "UA",
    "latitude": "48.58333000",
    "longitude": "23.50000000",
    "native": null,
    "timezone": null,
    "translations": {}
  },
  {
    "id": 110058,
    "name": "Mukacheve",
    "state_id": 4670,
    "state_code": "21",
    "country_id": 230,
    "country_code": "UA",
    "latitude": "48.43919000",
    "longitude": "22.71779000",
    "native": null,
    "timezone": null,
    "translations": {}
  },
  {
    "id": 110059,
    "name": "Mukachevo Raion",
    "state_id": 4670,
    "state_code": "21",
    "country_id": 230,
    "country_code": "UA",
    "latitude": "48.41667000",
    "longitude": "22.66667000",
    "native": null,
    "timezone": null,
    "translations": {}
  },
  {
    "id": 110065,
    "name": "Muzhiyevo",
    "state_id": 4670,
    "state_code": "21",
    "country_id": 230,
    "country_code": "UA",
    "latitude": "48.17959000",
    "longitude": "22.69943000",
    "native": null,
    "timezone": null,
    "translations": {}
  },
  {
    "id": 110074,
    "name": "Mynay",
    "state_id": 4670,
    "state_code": "21",
    "country_id": 230,
    "country_code": "UA",
    "latitude": "48.58880000",
    "longitude": "22.27502000",
    "native": null,
    "timezone": null,
    "translations": {}
  },
  {
    "id": 110090,
    "name": "Nelipyno",
    "state_id": 4670,
    "state_code": "21",
    "country_id": 230,
    "country_code": "UA",
    "latitude": "48.56101000",
    "longitude": "23.03146000",
    "native": null,
    "timezone": null,
    "translations": {}
  },
  {
    "id": 110092,
    "name": "Neresnytsya",
    "state_id": 4670,
    "state_code": "21",
    "country_id": 230,
    "country_code": "UA",
    "latitude": "48.11814000",
    "longitude": "23.76588000",
    "native": null,
    "timezone": null,
    "translations": {}
  },
  {
    "id": 110094,
    "name": "Nevyts’ke",
    "state_id": 4670,
    "state_code": "21",
    "country_id": 230,
    "country_code": "UA",
    "latitude": "48.67472000",
    "longitude": "22.38813000",
    "native": null,
    "timezone": null,
    "translations": {}
  },
  {
    "id": 110111,
    "name": "Nove Davydkovo",
    "state_id": 4670,
    "state_code": "21",
    "country_id": 230,
    "country_code": "UA",
    "latitude": "48.44133000",
    "longitude": "22.62164000",
    "native": null,
    "timezone": null,
    "translations": {}
  },
  {
    "id": 110168,
    "name": "Nyzhnye Selyshche",
    "state_id": 4670,
    "state_code": "21",
    "country_id": 230,
    "country_code": "UA",
    "latitude": "48.19911000",
    "longitude": "23.44757000",
    "native": null,
    "timezone": null,
    "translations": {}
  },
  {
    "id": 110192,
    "name": "Oleshnyk",
    "state_id": 4670,
    "state_code": "21",
    "country_id": 230,
    "country_code": "UA",
    "latitude": "48.16406000",
    "longitude": "22.96167000",
    "native": null,
    "timezone": null,
    "translations": {}
  },
  {
    "id": 110197,
    "name": "Onokivtsi",
    "state_id": 4670,
    "state_code": "21",
    "country_id": 230,
    "country_code": "UA",
    "latitude": "48.65763000",
    "longitude": "22.34183000",
    "native": null,
    "timezone": null,
    "translations": {}
  },
  {
    "id": 110236,
    "name": "Perechyn",
    "state_id": 4670,
    "state_code": "21",
    "country_id": 230,
    "country_code": "UA",
    "latitude": "48.73616000",
    "longitude": "22.48200000",
    "native": null,
    "timezone": null,
    "translations": {}
  },
  {
    "id": 110237,
    "name": "Perechyn Raion",
    "state_id": 4670,
    "state_code": "21",
    "country_id": 230,
    "country_code": "UA",
    "latitude": "48.75000000",
    "longitude": "22.66667000",
    "native": null,
    "timezone": null,
    "translations": {}
  },
  {
    "id": 110271,
    "name": "Pidvynohradiv",
    "state_id": 4670,
    "state_code": "21",
    "country_id": 230,
    "country_code": "UA",
    "latitude": "48.13947000",
    "longitude": "22.97194000",
    "native": null,
    "timezone": null,
    "translations": {}
  },
  {
    "id": 110304,
    "name": "Poroshkovo",
    "state_id": 4670,
    "state_code": "21",
    "country_id": 230,
    "country_code": "UA",
    "latitude": "48.66832000",
    "longitude": "22.75328000",
    "native": null,
    "timezone": null,
    "translations": {}
  },
  {
    "id": 110334,
    "name": "Pylypets",
    "state_id": 4670,
    "state_code": "21",
    "country_id": 230,
    "country_code": "UA",
    "latitude": "48.65899000",
    "longitude": "23.28346000",
    "native": null,
    "timezone": null,
    "translations": {}
  },
  {
    "id": 110340,
    "name": "Rakhiv",
    "state_id": 4670,
    "state_code": "21",
    "country_id": 230,
    "country_code": "UA",
    "latitude": "48.05260000",
    "longitude": "24.20089000",
    "native": null,
    "timezone": null,
    "translations": {}
  },
  {
    "id": 110341,
    "name": "Rakhiv Raion",
    "state_id": 4670,
    "state_code": "21",
    "country_id": 230,
    "country_code": "UA",
    "latitude": "48.08333000",
    "longitude": "24.33333000",
    "native": null,
    "timezone": null,
    "translations": {}
  },
  {
    "id": 110343,
    "name": "Rakoshyno",
    "state_id": 4670,
    "state_code": "21",
    "country_id": 230,
    "country_code": "UA",
    "latitude": "48.46713000",
    "longitude": "22.59687000",
    "native": null,
    "timezone": null,
    "translations": {}
  },
  {
    "id": 110362,
    "name": "Rokosovo",
    "state_id": 4670,
    "state_code": "21",
    "country_id": 230,
    "country_code": "UA",
    "latitude": "48.21018000",
    "longitude": "23.17624000",
    "native": null,
    "timezone": null,
    "translations": {}
  },
  {
    "id": 110422,
    "name": "Serednye",
    "state_id": 4670,
    "state_code": "21",
    "country_id": 230,
    "country_code": "UA",
    "latitude": "48.54043000",
    "longitude": "22.50696000",
    "native": null,
    "timezone": null,
    "translations": {}
  },
  {
    "id": 110423,
    "name": "Serednye Vodyane",
    "state_id": 4670,
    "state_code": "21",
    "country_id": 230,
    "country_code": "UA",
    "latitude": "47.98159000",
    "longitude": "23.91041000",
    "native": null,
    "timezone": null,
    "translations": {}
  },
  {
    "id": 110513,
    "name": "Solotvyno",
    "state_id": 4670,
    "state_code": "21",
    "country_id": 230,
    "country_code": "UA",
    "latitude": "47.94604000",
    "longitude": "23.87035000",
    "native": null,
    "timezone": null,
    "translations": {}
  },
  {
    "id": 110554,
    "name": "Storozhnytsya",
    "state_id": 4670,
    "state_code": "21",
    "country_id": 230,
    "country_code": "UA",
    "latitude": "48.60403000",
    "longitude": "22.23269000",
    "native": null,
    "timezone": null,
    "translations": {}
  },
  {
    "id": 110555,
    "name": "Strabychovo",
    "state_id": 4670,
    "state_code": "21",
    "country_id": 230,
    "country_code": "UA",
    "latitude": "48.39247000",
    "longitude": "22.54308000",
    "native": null,
    "timezone": null,
    "translations": {}
  },
  {
    "id": 110569,
    "name": "Svaliava Raion",
    "state_id": 4670,
    "state_code": "21",
    "country_id": 230,
    "country_code": "UA",
    "latitude": "48.55000000",
    "longitude": "23.00000000",
    "native": null,
    "timezone": null,
    "translations": {}
  },
  {
    "id": 110570,
    "name": "Svalyava",
    "state_id": 4670,
    "state_code": "21",
    "country_id": 230,
    "country_code": "UA",
    "latitude": "48.54853000",
    "longitude": "22.99578000",
    "native": null,
    "timezone": null,
    "translations": {}
  },
  {
    "id": 110584,
    "name": "Synevyr",
    "state_id": 4670,
    "state_code": "21",
    "country_id": 230,
    "country_code": "UA",
    "latitude": "48.48745000",
    "longitude": "23.62575000",
    "native": null,
    "timezone": null,
    "translations": {}
  },
  {
    "id": 110585,
    "name": "Synevyrska Poliana",
    "state_id": 4670,
    "state_code": "21",
    "country_id": 230,
    "country_code": "UA",
    "latitude": "48.58484000",
    "longitude": "23.68910000",
    "native": null,
    "timezone": null,
    "translations": {}
  },
  {
    "id": 110607,
    "name": "Tiachiv Raion",
    "state_id": 4670,
    "state_code": "21",
    "country_id": 230,
    "country_code": "UA",
    "latitude": "48.08333000",
    "longitude": "23.58333000",
    "native": null,
    "timezone": null,
    "translations": {}
  },
  {
    "id": 110640,
    "name": "Tyachiv",
    "state_id": 4670,
    "state_code": "21",
    "country_id": 230,
    "country_code": "UA",
    "latitude": "48.01179000",
    "longitude": "23.57061000",
    "native": null,
    "timezone": null,
    "translations": {}
  },
  {
    "id": 110667,
    "name": "Uzhgorod",
    "state_id": 4670,
    "state_code": "21",
    "country_id": 230,
    "country_code": "UA",
    "latitude": "48.61667000",
    "longitude": "22.30000000",
    "native": null,
    "timezone": null,
    "translations": {}
  },
  {
    "id": 110668,
    "name": "Uzhhorod Raion",
    "state_id": 4670,
    "state_code": "21",
    "country_id": 230,
    "country_code": "UA",
    "latitude": "48.58333000",
    "longitude": "22.33333000",
    "native": null,
    "timezone": null,
    "translations": {}
  },
  {
    "id": 110674,
    "name": "Vary",
    "state_id": 4670,
    "state_code": "21",
    "country_id": 230,
    "country_code": "UA",
    "latitude": "48.12207000",
    "longitude": "22.71281000",
    "native": null,
    "timezone": null,
    "translations": {}
  },
  {
    "id": 110689,
    "name": "Velyki Berehy",
    "state_id": 4670,
    "state_code": "21",
    "country_id": 230,
    "country_code": "UA",
    "latitude": "48.23187000",
    "longitude": "22.74591000",
    "native": null,
    "timezone": null,
    "translations": {}
  },
  {
    "id": 110694,
    "name": "Velykyi Bereznyi",
    "state_id": 4670,
    "state_code": "21",
    "country_id": 230,
    "country_code": "UA",
    "latitude": "48.88831000",
    "longitude": "22.46052000",
    "native": null,
    "timezone": null,
    "translations": {}
  },
  {
    "id": 110695,
    "name": "Velykyi Bereznyi Raion",
    "state_id": 4670,
    "state_code": "21",
    "country_id": 230,
    "country_code": "UA",
    "latitude": "48.91667000",
    "longitude": "22.58333000",
    "native": null,
    "timezone": null,
    "translations": {}
  },
  {
    "id": 110737,
    "name": "Volovets",
    "state_id": 4670,
    "state_code": "21",
    "country_id": 230,
    "country_code": "UA",
    "latitude": "48.71090000",
    "longitude": "23.18510000",
    "native": null,
    "timezone": null,
    "translations": {}
  },
  {
    "id": 110738,
    "name": "Volovets Raion",
    "state_id": 4670,
    "state_code": "21",
    "country_id": 230,
    "country_code": "UA",
    "latitude": "48.75000000",
    "longitude": "23.08333000",
    "native": null,
    "timezone": null,
    "translations": {}
  },
  {
    "id": 110756,
    "name": "Vylok",
    "state_id": 4670,
    "state_code": "21",
    "country_id": 230,
    "country_code": "UA",
    "latitude": "48.10915000",
    "longitude": "22.83865000",
    "native": null,
    "timezone": null,
    "translations": {}
  },
  {
    "id": 110757,
    "name": "Vynohradiv",
    "state_id": 4670,
    "state_code": "21",
    "country_id": 230,
    "country_code": "UA",
    "latitude": "48.14135000",
    "longitude": "23.02666000",
    "native": null,
    "timezone": null,
    "translations": {}
  },
  {
    "id": 110758,
    "name": "Vynohradiv Raion",
    "state_id": 4670,
    "state_code": "21",
    "country_id": 230,
    "country_code": "UA",
    "latitude": "48.16667000",
    "longitude": "23.00000000",
    "native": null,
    "timezone": null,
    "translations": {}
  },
  {
    "id": 110764,
    "name": "Vyshkovo",
    "state_id": 4670,
    "state_code": "21",
    "country_id": 230,
    "country_code": "UA",
    "latitude": "48.04911000",
    "longitude": "23.42113000",
    "native": null,
    "timezone": null,
    "translations": {}
  },
  {
    "id": 110788,
    "name": "Yasinya",
    "state_id": 4670,
    "state_code": "21",
    "country_id": 230,
    "country_code": "UA",
    "latitude": "48.27937000",
    "longitude": "24.36042000",
    "native": null,
    "timezone": null,
    "translations": {}
  }
]