[
  {
    "id": 4874,
    "name": "Ferizaj",
    "country_id": 248,
    "country_code": "XK",
    "fips_code": null,
    "iso2": "XUF",
    "type": "district",
    "latitude": "42.37018440",
    "longitude": "21.14832810",
    "native": "Ferizaj",
    "timezone": "Europe/Belgrade",
    "translations": {}
  },
  {
    "id": 4876,
    "name": "Gjakove",
    "country_id": 248,
    "country_code": "XK",
    "fips_code": null,
    "iso2": "XDG",
    "type": "district",
    "latitude": "42.37987930",
    "longitude": "20.43162260",
    "native": "Gjakove",
    "timezone": "Europe/Belgrade",
    "translations": {}
  },
  {
    "id": 4877,
    "name": "Gjilan",
    "country_id": 248,
    "country_code": "XK",
    "fips_code": null,
    "iso2": "XGJ",
    "type": "district",
    "latitude": "42.46352060",
    "longitude": "21.46940110",
    "native": "Gjilan",
    "timezone": "Europe/Belgrade",
    "translations": {}
  },
  {
    "id": 4878,
    "name": "Mitrovica",
    "country_id": 248,
    "country_code": "XK",
    "fips_code": null,
    "iso2": "XKM",
    "type": "district",
    "latitude": "42.87904240",
    "longitude": "20.86578620",
    "native": "Mitrovica",
    "timezone": "Europe/Belgrade",
    "translations": {}
  },
  {
    "id": 5321,
    "name": "Peja",
    "country_id": 248,
    "country_code": "XK",
    "fips_code": null,
    "iso2": "PEJ",
    "type": "district",
    "latitude": "42.65939860",
    "longitude": "20.28857570",
    "native": "Peja",
    "timezone": "Europe/Belgrade",
    "translations": {}
  },
  {
    "id": 4879,
    "name": "Pristina",
    "country_id": 248,
    "country_code": "XK",
    "fips_code": null,
    "iso2": "XPI",
    "type": "district",
    "latitude": "42.66291380",
    "longitude": "21.16550280",
    "native": "Pristina",
    "timezone": "Europe/Belgrade",
    "translations": {}
  },
  {
    "id": 5322,
    "name": "Prizren",
    "country_id": 248,
    "country_code": "XK",
    "fips_code": null,
    "iso2": "PRI",
    "type": "district",
    "latitude": "42.21301510",
    "longitude": "20.73633390",
    "native": "Prizren",
    "timezone": "Europe/Belgrade",
    "translations": {}
  }
]