[
  {
    "id": 144635,
    "name": "Banguingui",
    "state_id": 1288,
    "state_code": "SLU",
    "country_id": 174,
    "country_code": "PH",
    "latitude": "6.08188500",
    "longitude": "121.40761480",
    "native": null,
    "timezone": null,
    "translations": {}
  },
  {
    "id": 154816,
    "name": "Hadji Panglima Tahil",
    "state_id": 1288,
    "state_code": "SLU",
    "country_id": 174,
    "country_code": "PH",
    "latitude": "6.22260290",
    "longitude": "120.78041360",
    "native": null,
    "timezone": null,
    "translations": {}
  },
  {
    "id": 144529,
    "name": "Indanan",
    "state_id": 1288,
    "state_code": "SLU",
    "country_id": 174,
    "country_code": "PH",
    "latitude": "5.99239660",
    "longitude": "120.88041850",
    "native": null,
    "timezone": null,
    "translations": {}
  },
  {
    "id": 144531,
    "name": "Jolo",
    "state_id": 1288,
    "state_code": "SLU",
    "country_id": 174,
    "country_code": "PH",
    "latitude": "6.04757200",
    "longitude": "120.97829560",
    "native": null,
    "timezone": null,
    "translations": {}
  },
  {
    "id": 144538,
    "name": "Kalingalan Caluang",
    "state_id": 1288,
    "state_code": "SLU",
    "country_id": 174,
    "country_code": "PH",
    "latitude": "5.90756470",
    "longitude": "121.20380710",
    "native": null,
    "timezone": null,
    "translations": {}
  },
  {
    "id": 144569,
    "name": "Lugus",
    "state_id": 1288,
    "state_code": "SLU",
    "country_id": 174,
    "country_code": "PH",
    "latitude": "5.68653540",
    "longitude": "120.80106040",
    "native": null,
    "timezone": null,
    "translations": {}
  },
  {
    "id": 144575,
    "name": "Luuk",
    "state_id": 1288,
    "state_code": "SLU",
    "country_id": 174,
    "country_code": "PH",
    "latitude": "5.96916260",
    "longitude": "121.28382580",
    "native": null,
    "timezone": null,
    "translations": {}
  },
  {
    "id": 144581,
    "name": "Maimbung",
    "state_id": 1288,
    "state_code": "SLU",
    "country_id": 174,
    "country_code": "PH",
    "latitude": "5.93176850",
    "longitude": "120.91329170",
    "native": null,
    "timezone": null,
    "translations": {}
  },
  {
    "id": 154817,
    "name": "Omar",
    "state_id": 1288,
    "state_code": "SLU",
    "country_id": 174,
    "country_code": "PH",
    "latitude": "5.97875910",
    "longitude": "121.31352020",
    "native": null,
    "timezone": null,
    "translations": {}
  },
  {
    "id": 154818,
    "name": "Panamao",
    "state_id": 1288,
    "state_code": "SLU",
    "country_id": 174,
    "country_code": "PH",
    "latitude": "5.97633070",
    "longitude": "121.14102200",
    "native": null,
    "timezone": null,
    "translations": {}
  },
  {
    "id": 144658,
    "name": "Pandami",
    "state_id": 1288,
    "state_code": "SLU",
    "country_id": 174,
    "country_code": "PH",
    "latitude": "5.62628300",
    "longitude": "120.20873160",
    "native": null,
    "timezone": null,
    "translations": {}
  },
  {
    "id": 154819,
    "name": "Panglima Estino",
    "state_id": 1288,
    "state_code": "SLU",
    "country_id": 174,
    "country_code": "PH",
    "latitude": "5.96502490",
    "longitude": "121.15327730",
    "native": null,
    "timezone": null,
    "translations": {}
  },
  {
    "id": 144662,
    "name": "Pangutaran",
    "state_id": 1288,
    "state_code": "SLU",
    "country_id": 174,
    "country_code": "PH",
    "latitude": "6.11136880",
    "longitude": "119.51887770",
    "native": null,
    "timezone": null,
    "translations": {}
  },
  {
    "id": 154820,
    "name": "Parang",
    "state_id": 1288,
    "state_code": "SLU",
    "country_id": 174,
    "country_code": "PH",
    "latitude": "5.91074330",
    "longitude": "120.70067690",
    "native": null,
    "timezone": null,
    "translations": {}
  },
  {
    "id": 145264,
    "name": "Pata",
    "state_id": 1288,
    "state_code": "SLU",
    "country_id": 174,
    "country_code": "PH",
    "latitude": "5.82681960",
    "longitude": "120.96422010",
    "native": null,
    "timezone": null,
    "translations": {}
  },
  {
    "id": 144697,
    "name": "Patikul",
    "state_id": 1288,
    "state_code": "SLU",
    "country_id": 174,
    "country_code": "PH",
    "latitude": "6.05236640",
    "longitude": "120.92966670",
    "native": null,
    "timezone": null,
    "translations": {}
  },
  {
    "id": 144720,
    "name": "Siasi",
    "state_id": 1288,
    "state_code": "SLU",
    "country_id": 174,
    "country_code": "PH",
    "latitude": "5.53208770",
    "longitude": "120.80720510",
    "native": null,
    "timezone": null,
    "translations": {}
  },
  {
    "id": 144737,
    "name": "Talipao",
    "state_id": 1288,
    "state_code": "SLU",
    "country_id": 174,
    "country_code": "PH",
    "latitude": "5.94209640",
    "longitude": "121.01242620",
    "native": null,
    "timezone": null,
    "translations": {}
  },
  {
    "id": 144744,
    "name": "Tapul",
    "state_id": 1288,
    "state_code": "SLU",
    "country_id": 174,
    "country_code": "PH",
    "latitude": "5.70726520",
    "longitude": "120.81285770",
    "native": null,
    "timezone": null,
    "translations": {}
  }
]