[
  {
    "id": 85819,
    "name": "Baćkowice",
    "state_id": 1630,
    "state_code": "26",
    "country_id": 176,
    "country_code": "PL",
    "latitude": "50.79194000",
    "longitude": "21.23211000",
    "native": null,
    "timezone": null,
    "translations": {}
  },
  {
    "id": 85820,
    "name": "Bałtów",
    "state_id": 1630,
    "state_code": "26",
    "country_id": 176,
    "country_code": "PL",
    "latitude": "51.01845000",
    "longitude": "21.54385000",
    "native": null,
    "timezone": null,
    "translations": {}
  },
  {
    "id": 85823,
    "name": "Bejsce",
    "state_id": 1630,
    "state_code": "26",
    "country_id": 176,
    "country_code": "PL",
    "latitude": "50.23903000",
    "longitude": "20.59834000",
    "native": null,
    "timezone": null,
    "translations": {}
  },
  {
    "id": 85858,
    "name": "Bieliny",
    "state_id": 1630,
    "state_code": "26",
    "country_id": 176,
    "country_code": "PL",
    "latitude": "50.84947000",
    "longitude": "20.94149000",
    "native": null,
    "timezone": null,
    "translations": {}
  },
  {
    "id": 85883,
    "name": "Bliżyn",
    "state_id": 1630,
    "state_code": "26",
    "country_id": 176,
    "country_code": "PL",
    "latitude": "51.10778000",
    "longitude": "20.75935000",
    "native": null,
    "timezone": null,
    "translations": {}
  },
  {
    "id": 85894,
    "name": "Bodzentyn",
    "state_id": 1630,
    "state_code": "26",
    "country_id": 176,
    "country_code": "PL",
    "latitude": "50.94115000",
    "longitude": "20.95719000",
    "native": null,
    "timezone": null,
    "translations": {}
  },
  {
    "id": 85897,
    "name": "Bogoria",
    "state_id": 1630,
    "state_code": "26",
    "country_id": 176,
    "country_code": "PL",
    "latitude": "50.65175000",
    "longitude": "21.26000000",
    "native": null,
    "timezone": null,
    "translations": {}
  },
  {
    "id": 85945,
    "name": "Brody",
    "state_id": 1630,
    "state_code": "26",
    "country_id": 176,
    "country_code": "PL",
    "latitude": "51.02466000",
    "longitude": "21.22147000",
    "native": null,
    "timezone": null,
    "translations": {}
  },
  {
    "id": 85963,
    "name": "Brzeziny",
    "state_id": 1630,
    "state_code": "26",
    "country_id": 176,
    "country_code": "PL",
    "latitude": "50.77273000",
    "longitude": "20.57319000",
    "native": null,
    "timezone": null,
    "translations": {}
  },
  {
    "id": 85996,
    "name": "Busko-Zdrój",
    "state_id": 1630,
    "state_code": "26",
    "country_id": 176,
    "country_code": "PL",
    "latitude": "50.47078000",
    "longitude": "20.71884000",
    "native": null,
    "timezone": null,
    "translations": {}
  },
  {
    "id": 86073,
    "name": "Chęciny",
    "state_id": 1630,
    "state_code": "26",
    "country_id": 176,
    "country_code": "PL",
    "latitude": "50.80021000",
    "longitude": "20.46229000",
    "native": null,
    "timezone": null,
    "translations": {}
  },
  {
    "id": 86034,
    "name": "Chmielnik",
    "state_id": 1630,
    "state_code": "26",
    "country_id": 176,
    "country_code": "PL",
    "latitude": "50.61440000",
    "longitude": "20.75206000",
    "native": null,
    "timezone": null,
    "translations": {}
  },
  {
    "id": 88754,
    "name": "Ćmielów",
    "state_id": 1630,
    "state_code": "26",
    "country_id": 176,
    "country_code": "PL",
    "latitude": "50.89028000",
    "longitude": "21.51426000",
    "native": null,
    "timezone": null,
    "translations": {}
  },
  {
    "id": 86113,
    "name": "Czarnocin",
    "state_id": 1630,
    "state_code": "26",
    "country_id": 176,
    "country_code": "PL",
    "latitude": "50.34080000",
    "longitude": "20.51620000",
    "native": null,
    "timezone": null,
    "translations": {}
  },
  {
    "id": 86154,
    "name": "Daleszyce",
    "state_id": 1630,
    "state_code": "26",
    "country_id": 176,
    "country_code": "PL",
    "latitude": "50.80229000",
    "longitude": "20.80791000",
    "native": null,
    "timezone": null,
    "translations": {}
  },
  {
    "id": 86186,
    "name": "Domaszowice",
    "state_id": 1630,
    "state_code": "26",
    "country_id": 176,
    "country_code": "PL",
    "latitude": "50.87488000",
    "longitude": "20.68288000",
    "native": null,
    "timezone": null,
    "translations": {}
  },
  {
    "id": 86210,
    "name": "Dwikozy",
    "state_id": 1630,
    "state_code": "26",
    "country_id": 176,
    "country_code": "PL",
    "latitude": "50.73613000",
    "longitude": "21.78864000",
    "native": null,
    "timezone": null,
    "translations": {}
  },
  {
    "id": 86217,
    "name": "Działoszyce",
    "state_id": 1630,
    "state_code": "26",
    "country_id": 176,
    "country_code": "PL",
    "latitude": "50.36534000",
    "longitude": "20.35226000",
    "native": null,
    "timezone": null,
    "translations": {}
  },
  {
    "id": 86268,
    "name": "Fałków",
    "state_id": 1630,
    "state_code": "26",
    "country_id": 176,
    "country_code": "PL",
    "latitude": "51.13606000",
    "longitude": "20.10610000",
    "native": null,
    "timezone": null,
    "translations": {}
  },
  {
    "id": 86316,
    "name": "Gnojno",
    "state_id": 1630,
    "state_code": "26",
    "country_id": 176,
    "country_code": "PL",
    "latitude": "50.60263000",
    "longitude": "20.84913000",
    "native": null,
    "timezone": null,
    "translations": {}
  },
  {
    "id": 86415,
    "name": "Górno",
    "state_id": 1630,
    "state_code": "26",
    "country_id": 176,
    "country_code": "PL",
    "latitude": "50.84774000",
    "longitude": "20.82501000",
    "native": null,
    "timezone": null,
    "translations": {}
  },
  {
    "id": 86350,
    "name": "Gowarczów",
    "state_id": 1630,
    "state_code": "26",
    "country_id": 176,
    "country_code": "PL",
    "latitude": "51.27845000",
    "longitude": "20.43835000",
    "native": null,
    "timezone": null,
    "translations": {}
  },
  {
    "id": 86396,
    "name": "Grzybowa Góra",
    "state_id": 1630,
    "state_code": "26",
    "country_id": 176,
    "country_code": "PL",
    "latitude": "51.13326000",
    "longitude": "20.96174000",
    "native": null,
    "timezone": null,
    "translations": {}
  },
  {
    "id": 86458,
    "name": "Imielno",
    "state_id": 1630,
    "state_code": "26",
    "country_id": 176,
    "country_code": "PL",
    "latitude": "50.58569000",
    "longitude": "20.44813000",
    "native": null,
    "timezone": null,
    "translations": {}
  },
  {
    "id": 86463,
    "name": "Iwaniska",
    "state_id": 1630,
    "state_code": "26",
    "country_id": 176,
    "country_code": "PL",
    "latitude": "50.73146000",
    "longitude": "21.28060000",
    "native": null,
    "timezone": null,
    "translations": {}
  },
  {
    "id": 86578,
    "name": "Jędrzejów",
    "state_id": 1630,
    "state_code": "26",
    "country_id": 176,
    "country_code": "PL",
    "latitude": "50.63945000",
    "longitude": "20.30454000",
    "native": null,
    "timezone": null,
    "translations": {}
  },
  {
    "id": 86607,
    "name": "Kaniów",
    "state_id": 1630,
    "state_code": "26",
    "country_id": 176,
    "country_code": "PL",
    "latitude": "50.98577000",
    "longitude": "20.66391000",
    "native": null,
    "timezone": null,
    "translations": {}
  },
  {
    "id": 86627,
    "name": "Kazimierza Wielka",
    "state_id": 1630,
    "state_code": "26",
    "country_id": 176,
    "country_code": "PL",
    "latitude": "50.26564000",
    "longitude": "20.49358000",
    "native": null,
    "timezone": null,
    "translations": {}
  },
  {
    "id": 86633,
    "name": "Kielce",
    "state_id": 1630,
    "state_code": "26",
    "country_id": 176,
    "country_code": "PL",
    "latitude": "50.87033000",
    "longitude": "20.62752000",
    "native": null,
    "timezone": null,
    "translations": {}
  },
  {
    "id": 86638,
    "name": "Kije",
    "state_id": 1630,
    "state_code": "26",
    "country_id": 176,
    "country_code": "PL",
    "latitude": "50.60721000",
    "longitude": "20.57121000",
    "native": null,
    "timezone": null,
    "translations": {}
  },
  {
    "id": 86650,
    "name": "Klimontów",
    "state_id": 1630,
    "state_code": "26",
    "country_id": 176,
    "country_code": "PL",
    "latitude": "50.65588000",
    "longitude": "21.45587000",
    "native": null,
    "timezone": null,
    "translations": {}
  },
  {
    "id": 86750,
    "name": "Końskie",
    "state_id": 1630,
    "state_code": "26",
    "country_id": 176,
    "country_code": "PL",
    "latitude": "51.19166000",
    "longitude": "20.40607000",
    "native": null,
    "timezone": null,
    "translations": {}
  },
  {
    "id": 86699,
    "name": "Koprzywnica",
    "state_id": 1630,
    "state_code": "26",
    "country_id": 176,
    "country_code": "PL",
    "latitude": "50.59340000",
    "longitude": "21.58380000",
    "native": null,
    "timezone": null,
    "translations": {}
  },
  {
    "id": 86712,
    "name": "Kostomłoty Drugie",
    "state_id": 1630,
    "state_code": "26",
    "country_id": 176,
    "country_code": "PL",
    "latitude": "50.92684000",
    "longitude": "20.56529000",
    "native": null,
    "timezone": null,
    "translations": {}
  },
  {
    "id": 86713,
    "name": "Kostomłoty Pierwsze",
    "state_id": 1630,
    "state_code": "26",
    "country_id": 176,
    "country_code": "PL",
    "latitude": "50.92322000",
    "longitude": "20.59490000",
    "native": null,
    "timezone": null,
    "translations": {}
  },
  {
    "id": 86774,
    "name": "Krasocin",
    "state_id": 1630,
    "state_code": "26",
    "country_id": 176,
    "country_code": "PL",
    "latitude": "50.88874000",
    "longitude": "20.11863000",
    "native": null,
    "timezone": null,
    "translations": {}
  },
  {
    "id": 86839,
    "name": "Kunów",
    "state_id": 1630,
    "state_code": "26",
    "country_id": 176,
    "country_code": "PL",
    "latitude": "50.96156000",
    "longitude": "21.28058000",
    "native": null,
    "timezone": null,
    "translations": {}
  },
  {
    "id": 86916,
    "name": "Lipnik",
    "state_id": 1630,
    "state_code": "26",
    "country_id": 176,
    "country_code": "PL",
    "latitude": "50.72977000",
    "longitude": "21.49389000",
    "native": null,
    "timezone": null,
    "translations": {}
  },
  {
    "id": 88814,
    "name": "Łączna",
    "state_id": 1630,
    "state_code": "26",
    "country_id": 176,
    "country_code": "PL",
    "latitude": "51.00231000",
    "longitude": "20.79712000",
    "native": null,
    "timezone": null,
    "translations": {}
  },
  {
    "id": 88759,
    "name": "Łagów",
    "state_id": 1630,
    "state_code": "26",
    "country_id": 176,
    "country_code": "PL",
    "latitude": "50.77517000",
    "longitude": "21.08431000",
    "native": null,
    "timezone": null,
    "translations": {}
  },
  {
    "id": 88787,
    "name": "Łoniów",
    "state_id": 1630,
    "state_code": "26",
    "country_id": 176,
    "country_code": "PL",
    "latitude": "50.56443000",
    "longitude": "21.52599000",
    "native": null,
    "timezone": null,
    "translations": {}
  },
  {
    "id": 88791,
    "name": "Łopuszno",
    "state_id": 1630,
    "state_code": "26",
    "country_id": 176,
    "country_code": "PL",
    "latitude": "50.94864000",
    "longitude": "20.25081000",
    "native": null,
    "timezone": null,
    "translations": {}
  },
  {
    "id": 88798,
    "name": "Łubnice",
    "state_id": 1630,
    "state_code": "26",
    "country_id": 176,
    "country_code": "PL",
    "latitude": "50.41164000",
    "longitude": "21.15014000",
    "native": null,
    "timezone": null,
    "translations": {}
  },
  {
    "id": 87008,
    "name": "Małogoszcz",
    "state_id": 1630,
    "state_code": "26",
    "country_id": 176,
    "country_code": "PL",
    "latitude": "50.81214000",
    "longitude": "20.26407000",
    "native": null,
    "timezone": null,
    "translations": {}
  },
  {
    "id": 87003,
    "name": "Masłów",
    "state_id": 1630,
    "state_code": "26",
    "country_id": 176,
    "country_code": "PL",
    "latitude": "50.90065000",
    "longitude": "20.72322000",
    "native": null,
    "timezone": null,
    "translations": {}
  },
  {
    "id": 87023,
    "name": "Michałów",
    "state_id": 1630,
    "state_code": "26",
    "country_id": 176,
    "country_code": "PL",
    "latitude": "50.49541000",
    "longitude": "20.46178000",
    "native": null,
    "timezone": null,
    "translations": {}
  },
  {
    "id": 87028,
    "name": "Miedziana Góra",
    "state_id": 1630,
    "state_code": "26",
    "country_id": 176,
    "country_code": "PL",
    "latitude": "50.93680000",
    "longitude": "20.55096000",
    "native": null,
    "timezone": null,
    "translations": {}
  },
  {
    "id": 87057,
    "name": "Mirzec",
    "state_id": 1630,
    "state_code": "26",
    "country_id": 176,
    "country_code": "PL",
    "latitude": "51.13466000",
    "longitude": "21.05710000",
    "native": null,
    "timezone": null,
    "translations": {}
  },
  {
    "id": 87079,
    "name": "Mniów",
    "state_id": 1630,
    "state_code": "26",
    "country_id": 176,
    "country_code": "PL",
    "latitude": "51.01224000",
    "longitude": "20.48427000",
    "native": null,
    "timezone": null,
    "translations": {}
  },
  {
    "id": 87090,
    "name": "Morawica",
    "state_id": 1630,
    "state_code": "26",
    "country_id": 176,
    "country_code": "PL",
    "latitude": "50.74678000",
    "longitude": "20.61756000",
    "native": null,
    "timezone": null,
    "translations": {}
  },
  {
    "id": 87132,
    "name": "Nagłowice",
    "state_id": 1630,
    "state_code": "26",
    "country_id": 176,
    "country_code": "PL",
    "latitude": "50.67835000",
    "longitude": "20.10661000",
    "native": null,
    "timezone": null,
    "translations": {}
  },
  {
    "id": 87176,
    "name": "Nowa Słupia",
    "state_id": 1630,
    "state_code": "26",
    "country_id": 176,
    "country_code": "PL",
    "latitude": "50.86432000",
    "longitude": "21.09049000",
    "native": null,
    "timezone": null,
    "translations": {}
  },
  {
    "id": 87204,
    "name": "Nowy Korczyn",
    "state_id": 1630,
    "state_code": "26",
    "country_id": 176,
    "country_code": "PL",
    "latitude": "50.30124000",
    "longitude": "20.80759000",
    "native": null,
    "timezone": null,
    "translations": {}
  },
  {
    "id": 87218,
    "name": "Obrazów",
    "state_id": 1630,
    "state_code": "26",
    "country_id": 176,
    "country_code": "PL",
    "latitude": "50.69276000",
    "longitude": "21.65045000",
    "native": null,
    "timezone": null,
    "translations": {}
  },
  {
    "id": 87235,
    "name": "Oksa",
    "state_id": 1630,
    "state_code": "26",
    "country_id": 176,
    "country_code": "PL",
    "latitude": "50.72874000",
    "longitude": "20.10086000",
    "native": null,
    "timezone": null,
    "translations": {}
  },
  {
    "id": 87240,
    "name": "Oleśnica",
    "state_id": 1630,
    "state_code": "26",
    "country_id": 176,
    "country_code": "PL",
    "latitude": "50.45357000",
    "longitude": "21.06457000",
    "native": null,
    "timezone": null,
    "translations": {}
  },
  {
    "id": 87256,
    "name": "Opatów",
    "state_id": 1630,
    "state_code": "26",
    "country_id": 176,
    "country_code": "PL",
    "latitude": "50.80058000",
    "longitude": "21.42538000",
    "native": null,
    "timezone": null,
    "translations": {}
  },
  {
    "id": 87255,
    "name": "Opatowiec",
    "state_id": 1630,
    "state_code": "26",
    "country_id": 176,
    "country_code": "PL",
    "latitude": "50.24314000",
    "longitude": "20.72348000",
    "native": null,
    "timezone": null,
    "translations": {}
  },
  {
    "id": 87282,
    "name": "Osiedle-Nowiny",
    "state_id": 1630,
    "state_code": "26",
    "country_id": 176,
    "country_code": "PL",
    "latitude": "50.81770000",
    "longitude": "20.54117000",
    "native": null,
    "timezone": null,
    "translations": {}
  },
  {
    "id": 87283,
    "name": "Osiek",
    "state_id": 1630,
    "state_code": "26",
    "country_id": 176,
    "country_code": "PL",
    "latitude": "50.51996000",
    "longitude": "21.44192000",
    "native": null,
    "timezone": null,
    "translations": {}
  },
  {
    "id": 87299,
    "name": "Ostrowiec Świętokrzyski",
    "state_id": 1630,
    "state_code": "26",
    "country_id": 176,
    "country_code": "PL",
    "latitude": "50.92936000",
    "longitude": "21.38525000",
    "native": null,
    "timezone": null,
    "translations": {}
  },
  {
    "id": 87327,
    "name": "Ożarów",
    "state_id": 1630,
    "state_code": "26",
    "country_id": 176,
    "country_code": "PL",
    "latitude": "50.88798000",
    "longitude": "21.66658000",
    "native": null,
    "timezone": null,
    "translations": {}
  },
  {
    "id": 87331,
    "name": "Pacanów",
    "state_id": 1630,
    "state_code": "26",
    "country_id": 176,
    "country_code": "PL",
    "latitude": "50.40031000",
    "longitude": "21.04148000",
    "native": null,
    "timezone": null,
    "translations": {}
  },
  {
    "id": 87360,
    "name": "Pawłów",
    "state_id": 1630,
    "state_code": "26",
    "country_id": 176,
    "country_code": "PL",
    "latitude": "50.96216000",
    "longitude": "21.12062000",
    "native": null,
    "timezone": null,
    "translations": {}
  },
  {
    "id": 87378,
    "name": "Piekoszów",
    "state_id": 1630,
    "state_code": "26",
    "country_id": 176,
    "country_code": "PL",
    "latitude": "50.88035000",
    "longitude": "20.46418000",
    "native": null,
    "timezone": null,
    "translations": {}
  },
  {
    "id": 87381,
    "name": "Pierzchnica",
    "state_id": 1630,
    "state_code": "26",
    "country_id": 176,
    "country_code": "PL",
    "latitude": "50.69754000",
    "longitude": "20.75489000",
    "native": null,
    "timezone": null,
    "translations": {}
  },
  {
    "id": 87405,
    "name": "Pińczów",
    "state_id": 1630,
    "state_code": "26",
    "country_id": 176,
    "country_code": "PL",
    "latitude": "50.52052000",
    "longitude": "20.52649000",
    "native": null,
    "timezone": null,
    "translations": {}
  },
  {
    "id": 87776,
    "name": "Połaniec",
    "state_id": 1630,
    "state_code": "26",
    "country_id": 176,
    "country_code": "PL",
    "latitude": "50.43324000",
    "longitude": "21.28120000",
    "native": null,
    "timezone": null,
    "translations": {}
  },
  {
    "id": 87478,
    "name": "Powiat buski",
    "state_id": 1630,
    "state_code": "26",
    "country_id": 176,
    "country_code": "PL",
    "latitude": "50.45583000",
    "longitude": "20.87624000",
    "native": null,
    "timezone": null,
    "translations": {}
  },
  {
    "id": 87532,
    "name": "Powiat jędrzejowski",
    "state_id": 1630,
    "state_code": "26",
    "country_id": 176,
    "country_code": "PL",
    "latitude": "50.65676000",
    "longitude": "20.18655000",
    "native": null,
    "timezone": null,
    "translations": {}
  },
  {
    "id": 87537,
    "name": "Powiat kazimierski",
    "state_id": 1630,
    "state_code": "26",
    "country_id": 176,
    "country_code": "PL",
    "latitude": "50.28811000",
    "longitude": "20.53368000",
    "native": null,
    "timezone": null,
    "translations": {}
  },
  {
    "id": 87538,
    "name": "Powiat kielecki",
    "state_id": 1630,
    "state_code": "26",
    "country_id": 176,
    "country_code": "PL",
    "latitude": "50.80156000",
    "longitude": "20.63322000",
    "native": null,
    "timezone": null,
    "translations": {}
  },
  {
    "id": 87543,
    "name": "Powiat konecki",
    "state_id": 1630,
    "state_code": "26",
    "country_id": 176,
    "country_code": "PL",
    "latitude": "51.15145000",
    "longitude": "20.34186000",
    "native": null,
    "timezone": null,
    "translations": {}
  },
  {
    "id": 87615,
    "name": "Powiat opatowski",
    "state_id": 1630,
    "state_code": "26",
    "country_id": 176,
    "country_code": "PL",
    "latitude": "50.79639000",
    "longitude": "21.44531000",
    "native": null,
    "timezone": null,
    "translations": {}
  },
  {
    "id": 87619,
    "name": "Powiat ostrowiecki",
    "state_id": 1630,
    "state_code": "26",
    "country_id": 176,
    "country_code": "PL",
    "latitude": "50.94232000",
    "longitude": "21.40739000",
    "native": null,
    "timezone": null,
    "translations": {}
  },
  {
    "id": 87635,
    "name": "Powiat pińczowski",
    "state_id": 1630,
    "state_code": "26",
    "country_id": 176,
    "country_code": "PL",
    "latitude": "50.49968000",
    "longitude": "20.47253000",
    "native": null,
    "timezone": null,
    "translations": {}
  },
  {
    "id": 87667,
    "name": "Powiat sandomierski",
    "state_id": 1630,
    "state_code": "26",
    "country_id": 176,
    "country_code": "PL",
    "latitude": "50.69508000",
    "longitude": "21.60900000",
    "native": null,
    "timezone": null,
    "translations": {}
  },
  {
    "id": 87674,
    "name": "Powiat skarżyski",
    "state_id": 1630,
    "state_code": "26",
    "country_id": 176,
    "country_code": "PL",
    "latitude": "51.06496000",
    "longitude": "20.79228000",
    "native": null,
    "timezone": null,
    "translations": {}
  },
  {
    "id": 87680,
    "name": "Powiat starachowicki",
    "state_id": 1630,
    "state_code": "26",
    "country_id": 176,
    "country_code": "PL",
    "latitude": "51.05365000",
    "longitude": "21.14295000",
    "native": null,
    "timezone": null,
    "translations": {}
  },
  {
    "id": 87683,
    "name": "Powiat staszowski",
    "state_id": 1630,
    "state_code": "26",
    "country_id": 176,
    "country_code": "PL",
    "latitude": "50.51737000",
    "longitude": "21.19594000",
    "native": null,
    "timezone": null,
    "translations": {}
  },
  {
    "id": 87735,
    "name": "Powiat włoszczowski",
    "state_id": 1630,
    "state_code": "26",
    "country_id": 176,
    "country_code": "PL",
    "latitude": "50.83205000",
    "longitude": "19.97696000",
    "native": null,
    "timezone": null,
    "translations": {}
  },
  {
    "id": 87890,
    "name": "Radoszyce",
    "state_id": 1630,
    "state_code": "26",
    "country_id": 176,
    "country_code": "PL",
    "latitude": "51.07392000",
    "longitude": "20.25836000",
    "native": null,
    "timezone": null,
    "translations": {}
  },
  {
    "id": 87911,
    "name": "Raków",
    "state_id": 1630,
    "state_code": "26",
    "country_id": 176,
    "country_code": "PL",
    "latitude": "50.67427000",
    "longitude": "21.04517000",
    "native": null,
    "timezone": null,
    "translations": {}
  },
  {
    "id": 87947,
    "name": "Rogów",
    "state_id": 1630,
    "state_code": "26",
    "country_id": 176,
    "country_code": "PL",
    "latitude": "51.20414000",
    "longitude": "20.43483000",
    "native": null,
    "timezone": null,
    "translations": {}
  },
  {
    "id": 87970,
    "name": "Ruda Maleniecka",
    "state_id": 1630,
    "state_code": "26",
    "country_id": 176,
    "country_code": "PL",
    "latitude": "51.14592000",
    "longitude": "20.22377000",
    "native": null,
    "timezone": null,
    "translations": {}
  },
  {
    "id": 88014,
    "name": "Rytwiany",
    "state_id": 1630,
    "state_code": "26",
    "country_id": 176,
    "country_code": "PL",
    "latitude": "50.52920000",
    "longitude": "21.20636000",
    "native": null,
    "timezone": null,
    "translations": {}
  },
  {
    "id": 88043,
    "name": "Sadowie",
    "state_id": 1630,
    "state_code": "26",
    "country_id": 176,
    "country_code": "PL",
    "latitude": "50.85261000",
    "longitude": "21.36884000",
    "native": null,
    "timezone": null,
    "translations": {}
  },
  {
    "id": 88045,
    "name": "Samborzec",
    "state_id": 1630,
    "state_code": "26",
    "country_id": 176,
    "country_code": "PL",
    "latitude": "50.64663000",
    "longitude": "21.64822000",
    "native": null,
    "timezone": null,
    "translations": {}
  },
  {
    "id": 88046,
    "name": "Sandomierz",
    "state_id": 1630,
    "state_code": "26",
    "country_id": 176,
    "country_code": "PL",
    "latitude": "50.68265000",
    "longitude": "21.74898000",
    "native": null,
    "timezone": null,
    "translations": {}
  },
  {
    "id": 88054,
    "name": "Secemin",
    "state_id": 1630,
    "state_code": "26",
    "country_id": 176,
    "country_code": "PL",
    "latitude": "50.76676000",
    "longitude": "19.83599000",
    "native": null,
    "timezone": null,
    "translations": {}
  },
  {
    "id": 88328,
    "name": "Sędziszów",
    "state_id": 1630,
    "state_code": "26",
    "country_id": 176,
    "country_code": "PL",
    "latitude": "50.56590000",
    "longitude": "20.05563000",
    "native": null,
    "timezone": null,
    "translations": {}
  },
  {
    "id": 88095,
    "name": "Skalbmierz",
    "state_id": 1630,
    "state_code": "26",
    "country_id": 176,
    "country_code": "PL",
    "latitude": "50.31993000",
    "longitude": "20.39929000",
    "native": null,
    "timezone": null,
    "translations": {}
  },
  {
    "id": 88100,
    "name": "Skarżysko Kościelne",
    "state_id": 1630,
    "state_code": "26",
    "country_id": 176,
    "country_code": "PL",
    "latitude": "51.13822000",
    "longitude": "20.91196000",
    "native": null,
    "timezone": null,
    "translations": {}
  },
  {
    "id": 88101,
    "name": "Skarżysko-Kamienna",
    "state_id": 1630,
    "state_code": "26",
    "country_id": 176,
    "country_code": "PL",
    "latitude": "51.11311000",
    "longitude": "20.87162000",
    "native": null,
    "timezone": null,
    "translations": {}
  },
  {
    "id": 88348,
    "name": "Słupia",
    "state_id": 1630,
    "state_code": "26",
    "country_id": 176,
    "country_code": "PL",
    "latitude": "50.60073000",
    "longitude": "19.97435000",
    "native": null,
    "timezone": null,
    "translations": {}
  },
  {
    "id": 88127,
    "name": "Smyków",
    "state_id": 1630,
    "state_code": "26",
    "country_id": 176,
    "country_code": "PL",
    "latitude": "51.04442000",
    "longitude": "20.40032000",
    "native": null,
    "timezone": null,
    "translations": {}
  },
  {
    "id": 88131,
    "name": "Sobków",
    "state_id": 1630,
    "state_code": "26",
    "country_id": 176,
    "country_code": "PL",
    "latitude": "50.69999000",
    "longitude": "20.45062000",
    "native": null,
    "timezone": null,
    "translations": {}
  },
  {
    "id": 88144,
    "name": "Solec-Zdrój",
    "state_id": 1630,
    "state_code": "26",
    "country_id": 176,
    "country_code": "PL",
    "latitude": "50.36594000",
    "longitude": "20.88956000",
    "native": null,
    "timezone": null,
    "translations": {}
  },
  {
    "id": 88242,
    "name": "Stąporków",
    "state_id": 1630,
    "state_code": "26",
    "country_id": 176,
    "country_code": "PL",
    "latitude": "51.13762000",
    "longitude": "20.57173000",
    "native": null,
    "timezone": null,
    "translations": {}
  },
  {
    "id": 88179,
    "name": "Starachowice",
    "state_id": 1630,
    "state_code": "26",
    "country_id": 176,
    "country_code": "PL",
    "latitude": "51.03740000",
    "longitude": "21.07126000",
    "native": null,
    "timezone": null,
    "translations": {}
  },
  {
    "id": 88198,
    "name": "Staszów",
    "state_id": 1630,
    "state_code": "26",
    "country_id": 176,
    "country_code": "PL",
    "latitude": "50.56307000",
    "longitude": "21.16593000",
    "native": null,
    "timezone": null,
    "translations": {}
  },
  {
    "id": 88207,
    "name": "Stopnica",
    "state_id": 1630,
    "state_code": "26",
    "country_id": 176,
    "country_code": "PL",
    "latitude": "50.44018000",
    "longitude": "20.93780000",
    "native": null,
    "timezone": null,
    "translations": {}
  },
  {
    "id": 88214,
    "name": "Strawczyn",
    "state_id": 1630,
    "state_code": "26",
    "country_id": 176,
    "country_code": "PL",
    "latitude": "50.94177000",
    "longitude": "20.42135000",
    "native": null,
    "timezone": null,
    "translations": {}
  },
  {
    "id": 88250,
    "name": "Suchedniów",
    "state_id": 1630,
    "state_code": "26",
    "country_id": 176,
    "country_code": "PL",
    "latitude": "51.04776000",
    "longitude": "20.82922000",
    "native": null,
    "timezone": null,
    "translations": {}
  },
  {
    "id": 88322,
    "name": "Szydłów",
    "state_id": 1630,
    "state_code": "26",
    "country_id": 176,
    "country_code": "PL",
    "latitude": "50.59114000",
    "longitude": "21.00680000",
    "native": null,
    "timezone": null,
    "translations": {}
  },
  {
    "id": 88368,
    "name": "Tarłów",
    "state_id": 1630,
    "state_code": "26",
    "country_id": 176,
    "country_code": "PL",
    "latitude": "51.00160000",
    "longitude": "21.71474000",
    "native": null,
    "timezone": null,
    "translations": {}
  },
  {
    "id": 88421,
    "name": "Tuczępy",
    "state_id": 1630,
    "state_code": "26",
    "country_id": 176,
    "country_code": "PL",
    "latitude": "50.51676000",
    "longitude": "20.99187000",
    "native": null,
    "timezone": null,
    "translations": {}
  },
  {
    "id": 88632,
    "name": "Wąchock",
    "state_id": 1630,
    "state_code": "26",
    "country_id": 176,
    "country_code": "PL",
    "latitude": "51.07391000",
    "longitude": "21.01243000",
    "native": null,
    "timezone": null,
    "translations": {}
  },
  {
    "id": 88489,
    "name": "Waśniów",
    "state_id": 1630,
    "state_code": "26",
    "country_id": 176,
    "country_code": "PL",
    "latitude": "50.89914000",
    "longitude": "21.22301000",
    "native": null,
    "timezone": null,
    "translations": {}
  },
  {
    "id": 88506,
    "name": "Wielka Wieś",
    "state_id": 1630,
    "state_code": "26",
    "country_id": 176,
    "country_code": "PL",
    "latitude": "51.07107000",
    "longitude": "20.96655000",
    "native": null,
    "timezone": null,
    "translations": {}
  },
  {
    "id": 88534,
    "name": "Wilczyce",
    "state_id": 1630,
    "state_code": "26",
    "country_id": 176,
    "country_code": "PL",
    "latitude": "50.74694000",
    "longitude": "21.65783000",
    "native": null,
    "timezone": null,
    "translations": {}
  },
  {
    "id": 88560,
    "name": "Wiślica",
    "state_id": 1630,
    "state_code": "26",
    "country_id": 176,
    "country_code": "PL",
    "latitude": "50.34891000",
    "longitude": "20.67438000",
    "native": null,
    "timezone": null,
    "translations": {}
  },
  {
    "id": 88654,
    "name": "Włoszczowa",
    "state_id": 1630,
    "state_code": "26",
    "country_id": 176,
    "country_code": "PL",
    "latitude": "50.85256000",
    "longitude": "19.96593000",
    "native": null,
    "timezone": null,
    "translations": {}
  },
  {
    "id": 88568,
    "name": "Wodzisław",
    "state_id": 1630,
    "state_code": "26",
    "country_id": 176,
    "country_code": "PL",
    "latitude": "50.52047000",
    "longitude": "20.19150000",
    "native": null,
    "timezone": null,
    "translations": {}
  },
  {
    "id": 88572,
    "name": "Wojciechowice",
    "state_id": 1630,
    "state_code": "26",
    "country_id": 176,
    "country_code": "PL",
    "latitude": "50.84226000",
    "longitude": "21.58942000",
    "native": null,
    "timezone": null,
    "translations": {}
  },
  {
    "id": 88585,
    "name": "Wola Jachowa",
    "state_id": 1630,
    "state_code": "26",
    "country_id": 176,
    "country_code": "PL",
    "latitude": "50.84524000",
    "longitude": "20.85814000",
    "native": null,
    "timezone": null,
    "translations": {}
  },
  {
    "id": 88666,
    "name": "Zagnańsk",
    "state_id": 1630,
    "state_code": "26",
    "country_id": 176,
    "country_code": "PL",
    "latitude": "50.98037000",
    "longitude": "20.66314000",
    "native": null,
    "timezone": null,
    "translations": {}
  },
  {
    "id": 88702,
    "name": "Zawichost",
    "state_id": 1630,
    "state_code": "26",
    "country_id": 176,
    "country_code": "PL",
    "latitude": "50.80743000",
    "longitude": "21.85408000",
    "native": null,
    "timezone": null,
    "translations": {}
  },
  {
    "id": 88744,
    "name": "Złota",
    "state_id": 1630,
    "state_code": "26",
    "country_id": 176,
    "country_code": "PL",
    "latitude": "50.38160000",
    "longitude": "20.59361000",
    "native": null,
    "timezone": null,
    "translations": {}
  }
]