[
  {
    "id": 3867,
    "name": "Carriacou",
    "country_id": 87,
    "country_code": "GD",
    "fips_code": null,
    "iso2": "10",
    "type": "dependency",
    "latitude": "12.48299850",
    "longitude": "-61.44484360",
    "native": "Carriacou",
    "timezone": "America/Grenada",
    "translations": {}
  },
  {
    "id": 3865,
    "name": "Saint Andrew",
    "country_id": 87,
    "country_code": "GD",
    "fips_code": null,
    "iso2": "01",
    "type": "parish",
    "latitude": "12.11119350",
    "longitude": "-61.68659710",
    "native": "Saint Andrew",
    "timezone": "America/Grenada",
    "translations": {}
  },
  {
    "id": 3869,
    "name": "Saint David",
    "country_id": 87,
    "country_code": "GD",
    "fips_code": null,
    "iso2": "02",
    "type": "parish",
    "latitude": "12.04280690",
    "longitude": "-61.67789880",
    "native": "Saint David",
    "timezone": "America/Grenada",
    "translations": {}
  },
  {
    "id": 3864,
    "name": "Saint George",
    "country_id": 87,
    "country_code": "GD",
    "fips_code": null,
    "iso2": "03",
    "type": "parish",
    "latitude": "12.05353310",
    "longitude": "-61.75180500",
    "native": "Saint George",
    "timezone": "America/Grenada",
    "translations": {}
  },
  {
    "id": 3868,
    "name": "Saint John",
    "country_id": 87,
    "country_code": "GD",
    "fips_code": null,
    "iso2": "04",
    "type": "parish",
    "latitude": "12.14440290",
    "longitude": "-61.71218410",
    "native": "Saint John",
    "timezone": "America/Grenada",
    "translations": {}
  },
  {
    "id": 3866,
    "name": "Saint Mark",
    "country_id": 87,
    "country_code": "GD",
    "fips_code": null,
    "iso2": "05",
    "type": "parish",
    "latitude": "12.18864370",
    "longitude": "-61.69543550",
    "native": "Saint Mark",
    "timezone": "America/Grenada",
    "translations": {}
  },
  {
    "id": 3863,
    "name": "Saint Patrick",
    "country_id": 87,
    "country_code": "GD",
    "fips_code": null,
    "iso2": "06",
    "type": "parish",
    "latitude": "12.21029860",
    "longitude": "-61.63505390",
    "native": "Saint Patrick",
    "timezone": "America/Grenada",
    "translations": {}
  }
]