[
  {
    "id": 2212,
    "name": "Adana",
    "country_id": 225,
    "country_code": "TR",
    "fips_code": null,
    "iso2": "01",
    "type": "province",
    "latitude": "37.14380010",
    "longitude": "35.49840940",
    "native": "Adana",
    "timezone": "Europe/Istanbul",
    "translations": {}
  },
  {
    "id": 2155,
    "name": "Adıyaman",
    "country_id": 225,
    "country_code": "TR",
    "fips_code": null,
    "iso2": "02",
    "type": "province",
    "latitude": "37.78936000",
    "longitude": "38.31411010",
    "native": "Adıyaman",
    "timezone": "Europe/Istanbul",
    "translations": {}
  },
  {
    "id": 2179,
    "name": "Afyonkarahisar",
    "country_id": 225,
    "country_code": "TR",
    "fips_code": null,
    "iso2": "03",
    "type": "province",
    "latitude": "38.68527290",
    "longitude": "30.64274110",
    "native": "Afyonkarahisar",
    "timezone": "Europe/Istanbul",
    "translations": {}
  },
  {
    "id": 2193,
    "name": "Ağrı",
    "country_id": 225,
    "country_code": "TR",
    "fips_code": null,
    "iso2": "04",
    "type": "province",
    "latitude": "39.71912500",
    "longitude": "43.05048940",
    "native": "Ağrı",
    "timezone": "Europe/Istanbul",
    "translations": {}
  },
  {
    "id": 2210,
    "name": "Aksaray",
    "country_id": 225,
    "country_code": "TR",
    "fips_code": null,
    "iso2": "68",
    "type": "province",
    "latitude": "38.37054160",
    "longitude": "34.02690700",
    "native": "Aksaray",
    "timezone": "Europe/Istanbul",
    "translations": {}
  },
  {
    "id": 2161,
    "name": "Amasya",
    "country_id": 225,
    "country_code": "TR",
    "fips_code": null,
    "iso2": "05",
    "type": "province",
    "latitude": "40.65032480",
    "longitude": "35.83291480",
    "native": "Amasya",
    "timezone": "Europe/Istanbul",
    "translations": {}
  },
  {
    "id": 2217,
    "name": "Ankara",
    "country_id": 225,
    "country_code": "TR",
    "fips_code": null,
    "iso2": "06",
    "type": "province",
    "latitude": "39.71604220",
    "longitude": "32.70591590",
    "native": "Ankara",
    "timezone": "Europe/Istanbul",
    "translations": {}
  },
  {
    "id": 2169,
    "name": "Antalya",
    "country_id": 225,
    "country_code": "TR",
    "fips_code": null,
    "iso2": "07",
    "type": "province",
    "latitude": "36.92796540",
    "longitude": "30.72768650",
    "native": "Antalya",
    "timezone": "Europe/Istanbul",
    "translations": {}
  },
  {
    "id": 2185,
    "name": "Ardahan",
    "country_id": 225,
    "country_code": "TR",
    "fips_code": null,
    "iso2": "75",
    "type": "province",
    "latitude": "41.11029660",
    "longitude": "42.70355850",
    "native": "Ardahan",
    "timezone": "Europe/Istanbul",
    "translations": {}
  },
  {
    "id": 2191,
    "name": "Artvin",
    "country_id": 225,
    "country_code": "TR",
    "fips_code": null,
    "iso2": "08",
    "type": "province",
    "latitude": "41.16050600",
    "longitude": "41.83986270",
    "native": "Artvin",
    "timezone": "Europe/Istanbul",
    "translations": {}
  },
  {
    "id": 2187,
    "name": "Aydın",
    "country_id": 225,
    "country_code": "TR",
    "fips_code": null,
    "iso2": "09",
    "type": "province",
    "latitude": "37.74057980",
    "longitude": "28.06764040",
    "native": "Aydın",
    "timezone": "Europe/Istanbul",
    "translations": {}
  },
  {
    "id": 2175,
    "name": "Balıkesir",
    "country_id": 225,
    "country_code": "TR",
    "fips_code": null,
    "iso2": "10",
    "type": "province",
    "latitude": "39.64739170",
    "longitude": "27.88797870",
    "native": "Balıkesir",
    "timezone": "Europe/Istanbul",
    "translations": {}
  },
  {
    "id": 2148,
    "name": "Bartın",
    "country_id": 225,
    "country_code": "TR",
    "fips_code": null,
    "iso2": "74",
    "type": "province",
    "latitude": "41.49477150",
    "longitude": "32.43542550",
    "native": "Bartın",
    "timezone": "Europe/Istanbul",
    "translations": {}
  },
  {
    "id": 2194,
    "name": "Batman",
    "country_id": 225,
    "country_code": "TR",
    "fips_code": null,
    "iso2": "72",
    "type": "province",
    "latitude": "37.78741040",
    "longitude": "41.25739240",
    "native": "Batman",
    "timezone": "Europe/Istanbul",
    "translations": {}
  },
  {
    "id": 2177,
    "name": "Bayburt",
    "country_id": 225,
    "country_code": "TR",
    "fips_code": null,
    "iso2": "69",
    "type": "province",
    "latitude": "40.26032000",
    "longitude": "40.22804800",
    "native": "Bayburt",
    "timezone": "Europe/Istanbul",
    "translations": {}
  },
  {
    "id": 2221,
    "name": "Bilecik",
    "country_id": 225,
    "country_code": "TR",
    "fips_code": null,
    "iso2": "11",
    "type": "province",
    "latitude": "40.14351010",
    "longitude": "29.97529110",
    "native": "Bilecik",
    "timezone": "Europe/Istanbul",
    "translations": {}
  },
  {
    "id": 2153,
    "name": "Bingöl",
    "country_id": 225,
    "country_code": "TR",
    "fips_code": null,
    "iso2": "12",
    "type": "province",
    "latitude": "39.07380300",
    "longitude": "40.72961810",
    "native": "Bingöl",
    "timezone": "Europe/Istanbul",
    "translations": {}
  },
  {
    "id": 2215,
    "name": "Bitlis",
    "country_id": 225,
    "country_code": "TR",
    "fips_code": null,
    "iso2": "13",
    "type": "province",
    "latitude": "38.49508670",
    "longitude": "42.16783720",
    "native": "Bitlis",
    "timezone": "Europe/Istanbul",
    "translations": {}
  },
  {
    "id": 2172,
    "name": "Bolu",
    "country_id": 225,
    "country_code": "TR",
    "fips_code": null,
    "iso2": "14",
    "type": "province",
    "latitude": "40.62120990",
    "longitude": "31.64602590",
    "native": "Bolu",
    "timezone": "Europe/Istanbul",
    "translations": {}
  },
  {
    "id": 2209,
    "name": "Burdur",
    "country_id": 225,
    "country_code": "TR",
    "fips_code": null,
    "iso2": "15",
    "type": "province",
    "latitude": "37.51834070",
    "longitude": "30.16912540",
    "native": "Burdur",
    "timezone": "Europe/Istanbul",
    "translations": {}
  },
  {
    "id": 2163,
    "name": "Bursa",
    "country_id": 225,
    "country_code": "TR",
    "fips_code": null,
    "iso2": "16",
    "type": "province",
    "latitude": "40.18257340",
    "longitude": "29.06750390",
    "native": "Bursa",
    "timezone": "Europe/Istanbul",
    "translations": {}
  },
  {
    "id": 2216,
    "name": "Çanakkale",
    "country_id": 225,
    "country_code": "TR",
    "fips_code": null,
    "iso2": "17",
    "type": "province",
    "latitude": "40.05498860",
    "longitude": "26.92782920",
    "native": "Çanakkale",
    "timezone": "Europe/Istanbul",
    "translations": {}
  },
  {
    "id": 2168,
    "name": "Çankırı",
    "country_id": 225,
    "country_code": "TR",
    "fips_code": null,
    "iso2": "18",
    "type": "province",
    "latitude": "40.59719470",
    "longitude": "33.62127040",
    "native": "Çankırı",
    "timezone": "Europe/Istanbul",
    "translations": {}
  },
  {
    "id": 2173,
    "name": "Çorum",
    "country_id": 225,
    "country_code": "TR",
    "fips_code": null,
    "iso2": "19",
    "type": "province",
    "latitude": "40.56983890",
    "longitude": "34.72692920",
    "native": "Çorum",
    "timezone": "Europe/Istanbul",
    "translations": {}
  },
  {
    "id": 2157,
    "name": "Denizli",
    "country_id": 225,
    "country_code": "TR",
    "fips_code": null,
    "iso2": "20",
    "type": "province",
    "latitude": "37.78278750",
    "longitude": "29.09664760",
    "native": "Denizli",
    "timezone": "Europe/Istanbul",
    "translations": {}
  },
  {
    "id": 2226,
    "name": "Diyarbakır",
    "country_id": 225,
    "country_code": "TR",
    "fips_code": null,
    "iso2": "21",
    "type": "province",
    "latitude": "38.08147160",
    "longitude": "40.42977670",
    "native": "Diyarbakır",
    "timezone": "Europe/Istanbul",
    "translations": {}
  },
  {
    "id": 2202,
    "name": "Düzce",
    "country_id": 225,
    "country_code": "TR",
    "fips_code": null,
    "iso2": "81",
    "type": "province",
    "latitude": "40.87745450",
    "longitude": "31.20096180",
    "native": "Düzce",
    "timezone": "Europe/Istanbul",
    "translations": {}
  },
  {
    "id": 2151,
    "name": "Edirne",
    "country_id": 225,
    "country_code": "TR",
    "fips_code": null,
    "iso2": "22",
    "type": "province",
    "latitude": "41.18044990",
    "longitude": "26.62224420",
    "native": "Edirne",
    "timezone": "Europe/Istanbul",
    "translations": {}
  },
  {
    "id": 2159,
    "name": "Elazığ",
    "country_id": 225,
    "country_code": "TR",
    "fips_code": null,
    "iso2": "23",
    "type": "province",
    "latitude": "38.58247710",
    "longitude": "39.39617900",
    "native": "Elazığ",
    "timezone": "Europe/Istanbul",
    "translations": {}
  },
  {
    "id": 2160,
    "name": "Erzincan",
    "country_id": 225,
    "country_code": "TR",
    "fips_code": null,
    "iso2": "24",
    "type": "province",
    "latitude": "39.60734290",
    "longitude": "39.20132090",
    "native": "Erzincan",
    "timezone": "Europe/Istanbul",
    "translations": {}
  },
  {
    "id": 2165,
    "name": "Erzurum",
    "country_id": 225,
    "country_code": "TR",
    "fips_code": null,
    "iso2": "25",
    "type": "province",
    "latitude": "39.90632000",
    "longitude": "41.27277150",
    "native": "Erzurum",
    "timezone": "Europe/Istanbul",
    "translations": {}
  },
  {
    "id": 2164,
    "name": "Eskişehir",
    "country_id": 225,
    "country_code": "TR",
    "fips_code": null,
    "iso2": "26",
    "type": "province",
    "latitude": "39.68211560",
    "longitude": "31.07234760",
    "native": "Eskişehir",
    "timezone": "Europe/Istanbul",
    "translations": {}
  },
  {
    "id": 2203,
    "name": "Gaziantep",
    "country_id": 225,
    "country_code": "TR",
    "fips_code": null,
    "iso2": "27",
    "type": "province",
    "latitude": "37.06283170",
    "longitude": "37.37926170",
    "native": "Gaziantep",
    "timezone": "Europe/Istanbul",
    "translations": {}
  },
  {
    "id": 2186,
    "name": "Giresun",
    "country_id": 225,
    "country_code": "TR",
    "fips_code": null,
    "iso2": "28",
    "type": "province",
    "latitude": "40.65316170",
    "longitude": "38.51720320",
    "native": "Giresun",
    "timezone": "Europe/Istanbul",
    "translations": {}
  },
  {
    "id": 2204,
    "name": "Gümüşhane",
    "country_id": 225,
    "country_code": "TR",
    "fips_code": null,
    "iso2": "29",
    "type": "province",
    "latitude": "40.25332190",
    "longitude": "39.38496800",
    "native": "Gümüşhane",
    "timezone": "Europe/Istanbul",
    "translations": {}
  },
  {
    "id": 2190,
    "name": "Hakkâri",
    "country_id": 225,
    "country_code": "TR",
    "fips_code": null,
    "iso2": "30",
    "type": "province",
    "latitude": "37.57669590",
    "longitude": "43.73778620",
    "native": "Hakkâri",
    "timezone": "Europe/Istanbul",
    "translations": {}
  },
  {
    "id": 2211,
    "name": "Hatay",
    "country_id": 225,
    "country_code": "TR",
    "fips_code": null,
    "iso2": "31",
    "type": "province",
    "latitude": "36.34513320",
    "longitude": "36.07480220",
    "native": "Hatay",
    "timezone": "Europe/Istanbul",
    "translations": {}
  },
  {
    "id": 2166,
    "name": "Iğdır",
    "country_id": 225,
    "country_code": "TR",
    "fips_code": null,
    "iso2": "76",
    "type": "province",
    "latitude": "39.92187840",
    "longitude": "44.04679570",
    "native": "Iğdır",
    "timezone": "Europe/Istanbul",
    "translations": {}
  },
  {
    "id": 2222,
    "name": "Isparta",
    "country_id": 225,
    "country_code": "TR",
    "fips_code": null,
    "iso2": "32",
    "type": "province",
    "latitude": "37.94654120",
    "longitude": "30.96020930",
    "native": "Isparta",
    "timezone": "Europe/Istanbul",
    "translations": {}
  },
  {
    "id": 2170,
    "name": "İstanbul",
    "country_id": 225,
    "country_code": "TR",
    "fips_code": null,
    "iso2": "34",
    "type": "province",
    "latitude": "41.00638100",
    "longitude": "28.97587150",
    "native": "İstanbul",
    "timezone": "Europe/Istanbul",
    "translations": {}
  },
  {
    "id": 2205,
    "name": "İzmir",
    "country_id": 225,
    "country_code": "TR",
    "fips_code": null,
    "iso2": "35",
    "type": "province",
    "latitude": "38.41925370",
    "longitude": "27.12846900",
    "native": "İzmir",
    "timezone": "Europe/Istanbul",
    "translations": {}
  },
  {
    "id": 2227,
    "name": "Kahramanmaraş",
    "country_id": 225,
    "country_code": "TR",
    "fips_code": null,
    "iso2": "46",
    "type": "province",
    "latitude": "37.78303450",
    "longitude": "36.83065500",
    "native": "Kahramanmaraş",
    "timezone": "Europe/Istanbul",
    "translations": {}
  },
  {
    "id": 2223,
    "name": "Karabük",
    "country_id": 225,
    "country_code": "TR",
    "fips_code": null,
    "iso2": "78",
    "type": "province",
    "latitude": "41.19554020",
    "longitude": "32.62311540",
    "native": "Karabük",
    "timezone": "Europe/Istanbul",
    "translations": {}
  },
  {
    "id": 2184,
    "name": "Karaman",
    "country_id": 225,
    "country_code": "TR",
    "fips_code": null,
    "iso2": "70",
    "type": "province",
    "latitude": "37.17968480",
    "longitude": "33.33836650",
    "native": "Karaman",
    "timezone": "Europe/Istanbul",
    "translations": {}
  },
  {
    "id": 2208,
    "name": "Kars",
    "country_id": 225,
    "country_code": "TR",
    "fips_code": null,
    "iso2": "36",
    "type": "province",
    "latitude": "40.45584350",
    "longitude": "42.99795310",
    "native": "Karma",
    "timezone": "Europe/Istanbul",
    "translations": {}
  },
  {
    "id": 2197,
    "name": "Kastamonu",
    "country_id": 225,
    "country_code": "TR",
    "fips_code": null,
    "iso2": "37",
    "type": "province",
    "latitude": "41.36802170",
    "longitude": "33.76191770",
    "native": "Kastamonu",
    "timezone": "Europe/Istanbul",
    "translations": {}
  },
  {
    "id": 2200,
    "name": "Kayseri",
    "country_id": 225,
    "country_code": "TR",
    "fips_code": null,
    "iso2": "38",
    "type": "province",
    "latitude": "38.65822320",
    "longitude": "35.55463740",
    "native": "Kayseri",
    "timezone": "Europe/Istanbul",
    "translations": {}
  },
  {
    "id": 2154,
    "name": "Kilis",
    "country_id": 225,
    "country_code": "TR",
    "fips_code": null,
    "iso2": "79",
    "type": "province",
    "latitude": "36.77972310",
    "longitude": "37.14168920",
    "native": "Kilis",
    "timezone": "Europe/Istanbul",
    "translations": {}
  },
  {
    "id": 2178,
    "name": "Kırıkkale",
    "country_id": 225,
    "country_code": "TR",
    "fips_code": null,
    "iso2": "71",
    "type": "province",
    "latitude": "39.88601050",
    "longitude": "33.82789920",
    "native": "Kırıkkale",
    "timezone": "Europe/Istanbul",
    "translations": {}
  },
  {
    "id": 2176,
    "name": "Kırklareli",
    "country_id": 225,
    "country_code": "TR",
    "fips_code": null,
    "iso2": "39",
    "type": "province",
    "latitude": "41.70780460",
    "longitude": "27.60513340",
    "native": "Kırklareli",
    "timezone": "Europe/Istanbul",
    "translations": {}
  },
  {
    "id": 2180,
    "name": "Kırşehir",
    "country_id": 225,
    "country_code": "TR",
    "fips_code": null,
    "iso2": "40",
    "type": "province",
    "latitude": "39.33030660",
    "longitude": "34.12658840",
    "native": "Kırşehir",
    "timezone": "Europe/Istanbul",
    "translations": {}
  },
  {
    "id": 2195,
    "name": "Kocaeli",
    "country_id": 225,
    "country_code": "TR",
    "fips_code": null,
    "iso2": "41",
    "type": "province",
    "latitude": "40.82165360",
    "longitude": "29.95071840",
    "native": "Kocaeli",
    "timezone": "Europe/Istanbul",
    "translations": {}
  },
  {
    "id": 2171,
    "name": "Konya",
    "country_id": 225,
    "country_code": "TR",
    "fips_code": null,
    "iso2": "42",
    "type": "province",
    "latitude": "38.02119510",
    "longitude": "32.52249430",
    "native": "Konya",
    "timezone": "Europe/Istanbul",
    "translations": {}
  },
  {
    "id": 2149,
    "name": "Kütahya",
    "country_id": 225,
    "country_code": "TR",
    "fips_code": null,
    "iso2": "43",
    "type": "province",
    "latitude": "39.25225080",
    "longitude": "29.49377320",
    "native": "Kütahya",
    "timezone": "Europe/Istanbul",
    "translations": {}
  },
  {
    "id": 2158,
    "name": "Malatya",
    "country_id": 225,
    "country_code": "TR",
    "fips_code": null,
    "iso2": "44",
    "type": "province",
    "latitude": "38.48201560",
    "longitude": "38.10353550",
    "native": "Malatya",
    "timezone": "Europe/Istanbul",
    "translations": {}
  },
  {
    "id": 2198,
    "name": "Manisa",
    "country_id": 225,
    "country_code": "TR",
    "fips_code": null,
    "iso2": "45",
    "type": "province",
    "latitude": "38.85744020",
    "longitude": "28.05657110",
    "native": "Manisa",
    "timezone": "Europe/Istanbul",
    "translations": {}
  },
  {
    "id": 2224,
    "name": "Mardin",
    "country_id": 225,
    "country_code": "TR",
    "fips_code": null,
    "iso2": "47",
    "type": "province",
    "latitude": "37.32098020",
    "longitude": "40.72512950",
    "native": "Mardin",
    "timezone": "Europe/Istanbul",
    "translations": {}
  },
  {
    "id": 2156,
    "name": "Mersin",
    "country_id": 225,
    "country_code": "TR",
    "fips_code": null,
    "iso2": "33",
    "type": "province",
    "latitude": "36.79783810",
    "longitude": "34.62983910",
    "native": "Mersin",
    "timezone": "Europe/Istanbul",
    "translations": {}
  },
  {
    "id": 2182,
    "name": "Muğla",
    "country_id": 225,
    "country_code": "TR",
    "fips_code": null,
    "iso2": "48",
    "type": "province",
    "latitude": "37.21517840",
    "longitude": "28.36373300",
    "native": "Muğla",
    "timezone": "Europe/Istanbul",
    "translations": {}
  },
  {
    "id": 2162,
    "name": "Muş",
    "country_id": 225,
    "country_code": "TR",
    "fips_code": null,
    "iso2": "49",
    "type": "province",
    "latitude": "38.97407860",
    "longitude": "41.95904330",
    "native": "Muş",
    "timezone": "Europe/Istanbul",
    "translations": {}
  },
  {
    "id": 2196,
    "name": "Nevşehir",
    "country_id": 225,
    "country_code": "TR",
    "fips_code": null,
    "iso2": "50",
    "type": "province",
    "latitude": "38.72350720",
    "longitude": "34.71941680",
    "native": "Nevşehir",
    "timezone": "Europe/Istanbul",
    "translations": {}
  },
  {
    "id": 2189,
    "name": "Niğde",
    "country_id": 225,
    "country_code": "TR",
    "fips_code": null,
    "iso2": "51",
    "type": "province",
    "latitude": "38.06646910",
    "longitude": "34.70514380",
    "native": "Niğde",
    "timezone": "Europe/Istanbul",
    "translations": {}
  },
  {
    "id": 2174,
    "name": "Ordu",
    "country_id": 225,
    "country_code": "TR",
    "fips_code": null,
    "iso2": "52",
    "type": "province",
    "latitude": "40.82925690",
    "longitude": "37.40827640",
    "native": "Saat",
    "timezone": "Europe/Istanbul",
    "translations": {}
  },
  {
    "id": 2214,
    "name": "Osmaniye",
    "country_id": 225,
    "country_code": "TR",
    "fips_code": null,
    "iso2": "80",
    "type": "province",
    "latitude": "37.25178820",
    "longitude": "36.29935020",
    "native": "Osmaniye",
    "timezone": "Europe/Istanbul",
    "translations": {}
  },
  {
    "id": 2219,
    "name": "Rize",
    "country_id": 225,
    "country_code": "TR",
    "fips_code": null,
    "iso2": "53",
    "type": "province",
    "latitude": "40.95696170",
    "longitude": "40.88442800",
    "native": "Rize",
    "timezone": "Europe/Istanbul",
    "translations": {}
  },
  {
    "id": 2150,
    "name": "Sakarya",
    "country_id": 225,
    "country_code": "TR",
    "fips_code": null,
    "iso2": "54",
    "type": "province",
    "latitude": "40.77551880",
    "longitude": "30.40208980",
    "native": "Sakarya",
    "timezone": "Europe/Istanbul",
    "translations": {}
  },
  {
    "id": 2220,
    "name": "Samsun",
    "country_id": 225,
    "country_code": "TR",
    "fips_code": null,
    "iso2": "55",
    "type": "province",
    "latitude": "41.23035570",
    "longitude": "35.96833380",
    "native": "Samsun",
    "timezone": "Europe/Istanbul",
    "translations": {}
  },
  {
    "id": 2183,
    "name": "Şanlıurfa",
    "country_id": 225,
    "country_code": "TR",
    "fips_code": null,
    "iso2": "63",
    "type": "province",
    "latitude": "37.25951980",
    "longitude": "39.04081740",
    "native": "Şanlıurfa",
    "timezone": "Europe/Istanbul",
    "translations": {}
  },
  {
    "id": 2207,
    "name": "Siirt",
    "country_id": 225,
    "country_code": "TR",
    "fips_code": null,
    "iso2": "56",
    "type": "province",
    "latitude": "37.86469160",
    "longitude": "42.05102940",
    "native": "Siirt",
    "timezone": "Europe/Istanbul",
    "translations": {}
  },
  {
    "id": 4854,
    "name": "Sinop",
    "country_id": 225,
    "country_code": "TR",
    "fips_code": null,
    "iso2": "57",
    "type": "province",
    "latitude": "41.64763770",
    "longitude": "34.95601370",
    "native": "Sinop",
    "timezone": "Europe/Istanbul",
    "translations": {}
  },
  {
    "id": 2181,
    "name": "Sivas",
    "country_id": 225,
    "country_code": "TR",
    "fips_code": null,
    "iso2": "58",
    "type": "province",
    "latitude": "39.41917170",
    "longitude": "37.10123880",
    "native": "Sivas",
    "timezone": "Europe/Istanbul",
    "translations": {}
  },
  {
    "id": 2225,
    "name": "Şırnak",
    "country_id": 225,
    "country_code": "TR",
    "fips_code": null,
    "iso2": "73",
    "type": "province",
    "latitude": "37.45525300",
    "longitude": "42.52120490",
    "native": "Şırnak",
    "timezone": "Europe/Istanbul",
    "translations": {}
  },
  {
    "id": 2167,
    "name": "Tekirdağ",
    "country_id": 225,
    "country_code": "TR",
    "fips_code": null,
    "iso2": "59",
    "type": "province",
    "latitude": "41.07314030",
    "longitude": "27.41020130",
    "native": "Tekirdağ",
    "timezone": "Europe/Istanbul",
    "translations": {}
  },
  {
    "id": 2199,
    "name": "Tokat",
    "country_id": 225,
    "country_code": "TR",
    "fips_code": null,
    "iso2": "60",
    "type": "province",
    "latitude": "40.39027130",
    "longitude": "36.62518630",
    "native": "Tokat",
    "timezone": "Europe/Istanbul",
    "translations": {}
  },
  {
    "id": 2206,
    "name": "Trabzon",
    "country_id": 225,
    "country_code": "TR",
    "fips_code": null,
    "iso2": "61",
    "type": "province",
    "latitude": "40.85264390",
    "longitude": "39.78492730",
    "native": "Trabzon",
    "timezone": "Europe/Istanbul",
    "translations": {}
  },
  {
    "id": 2192,
    "name": "Tunceli",
    "country_id": 225,
    "country_code": "TR",
    "fips_code": null,
    "iso2": "62",
    "type": "province",
    "latitude": "39.21975530",
    "longitude": "39.41396740",
    "native": "Tunceli",
    "timezone": "Europe/Istanbul",
    "translations": {}
  },
  {
    "id": 2201,
    "name": "Uşak",
    "country_id": 225,
    "country_code": "TR",
    "fips_code": null,
    "iso2": "64",
    "type": "province",
    "latitude": "38.57689020",
    "longitude": "29.37297790",
    "native": "Uşak",
    "timezone": "Europe/Istanbul",
    "translations": {}
  },
  {
    "id": 2152,
    "name": "Van",
    "country_id": 225,
    "country_code": "TR",
    "fips_code": null,
    "iso2": "65",
    "type": "province",
    "latitude": "38.32495990",
    "longitude": "43.65898250",
    "native": "Minibüs",
    "timezone": "Europe/Istanbul",
    "translations": {}
  },
  {
    "id": 2218,
    "name": "Yalova",
    "country_id": 225,
    "country_code": "TR",
    "fips_code": null,
    "iso2": "77",
    "type": "province",
    "latitude": "40.57954220",
    "longitude": "29.16870050",
    "native": "Yalova",
    "timezone": "Europe/Istanbul",
    "translations": {}
  },
  {
    "id": 2188,
    "name": "Yozgat",
    "country_id": 225,
    "country_code": "TR",
    "fips_code": null,
    "iso2": "66",
    "type": "province",
    "latitude": "39.71524220",
    "longitude": "35.17099800",
    "native": "Yozgat",
    "timezone": "Europe/Istanbul",
    "translations": {}
  },
  {
    "id": 2213,
    "name": "Zonguldak",
    "country_id": 225,
    "country_code": "TR",
    "fips_code": null,
    "iso2": "67",
    "type": "province",
    "latitude": "41.25032400",
    "longitude": "31.83897380",
    "native": "Zonguldak",
    "timezone": "Europe/Istanbul",
    "translations": {}
  }
]