[
  {
    "id": 10204,
    "name": "Amapá",
    "state_id": 1999,
    "state_code": "AP",
    "country_id": 31,
    "country_code": "BR",
    "latitude": "1.85706000",
    "longitude": "-50.84374000",
    "native": null,
    "timezone": null,
    "translations": {}
  },
  {
    "id": 10933,
    "name": "Calçoene",
    "state_id": 1999,
    "state_code": "AP",
    "country_id": 31,
    "country_code": "BR",
    "latitude": "2.36098000",
    "longitude": "-51.45285000",
    "native": null,
    "timezone": null,
    "translations": {}
  },
  {
    "id": 11541,
    "name": "Cutias",
    "state_id": 1999,
    "state_code": "AP",
    "country_id": 31,
    "country_code": "BR",
    "latitude": "0.99713000",
    "longitude": "-50.52041000",
    "native": null,
    "timezone": null,
    "translations": {}
  },
  {
    "id": 11812,
    "name": "Ferreira Gomes",
    "state_id": 1999,
    "state_code": "AP",
    "country_id": 31,
    "country_code": "BR",
    "latitude": "0.91012000",
    "longitude": "-51.35442000",
    "native": null,
    "timezone": null,
    "translations": {}
  },
  {
    "id": 12462,
    "name": "Itaubal",
    "state_id": 1999,
    "state_code": "AP",
    "country_id": 31,
    "country_code": "BR",
    "latitude": "0.57732000",
    "longitude": "-50.67833000",
    "native": null,
    "timezone": null,
    "translations": {}
  },
  {
    "id": 12798,
    "name": "Laranjal do Jari",
    "state_id": 1999,
    "state_code": "AP",
    "country_id": 31,
    "country_code": "BR",
    "latitude": "0.93828000",
    "longitude": "-53.22949000",
    "native": null,
    "timezone": null,
    "translations": {}
  },
  {
    "id": 12887,
    "name": "Macapá",
    "state_id": 1999,
    "state_code": "AP",
    "country_id": 31,
    "country_code": "BR",
    "latitude": "0.03889000",
    "longitude": "-51.06639000",
    "native": null,
    "timezone": null,
    "translations": {}
  },
  {
    "id": 13088,
    "name": "Mazagão",
    "state_id": 1999,
    "state_code": "AP",
    "country_id": 31,
    "country_code": "BR",
    "latitude": "-0.11500000",
    "longitude": "-51.28944000",
    "native": null,
    "timezone": null,
    "translations": {}
  },
  {
    "id": 13492,
    "name": "Oiapoque",
    "state_id": 1999,
    "state_code": "AP",
    "country_id": 31,
    "country_code": "BR",
    "latitude": "2.70795000",
    "longitude": "-52.16963000",
    "native": null,
    "timezone": null,
    "translations": {}
  },
  {
    "id": 13751,
    "name": "Pedra Branca do Amapari",
    "state_id": 1999,
    "state_code": "AP",
    "country_id": 31,
    "country_code": "BR",
    "latitude": "1.14843000",
    "longitude": "-52.40118000",
    "native": null,
    "timezone": null,
    "translations": {}
  },
  {
    "id": 14008,
    "name": "Porto Grande",
    "state_id": 1999,
    "state_code": "AP",
    "country_id": 31,
    "country_code": "BR",
    "latitude": "0.56553000",
    "longitude": "-51.71181000",
    "native": null,
    "timezone": null,
    "translations": {}
  },
  {
    "id": 14058,
    "name": "Pracuúba",
    "state_id": 1999,
    "state_code": "AP",
    "country_id": 31,
    "country_code": "BR",
    "latitude": "1.67076000",
    "longitude": "-51.24490000",
    "native": null,
    "timezone": null,
    "translations": {}
  },
  {
    "id": 14568,
    "name": "Santana",
    "state_id": 1999,
    "state_code": "AP",
    "country_id": 31,
    "country_code": "BR",
    "latitude": "-0.05833000",
    "longitude": "-51.18167000",
    "native": null,
    "timezone": null,
    "translations": {}
  },
  {
    "id": 14739,
    "name": "Serra do Navio",
    "state_id": 1999,
    "state_code": "AP",
    "country_id": 31,
    "country_code": "BR",
    "latitude": "1.65803000",
    "longitude": "-52.28195000",
    "native": null,
    "timezone": null,
    "translations": {}
  },
  {
    "id": 15255,
    "name": "Tartarugalzinho",
    "state_id": 1999,
    "state_code": "AP",
    "country_id": 31,
    "country_code": "BR",
    "latitude": "1.26300000",
    "longitude": "-51.10973000",
    "native": null,
    "timezone": null,
    "translations": {}
  },
  {
    "id": 15602,
    "name": "Vitória do Jari",
    "state_id": 1999,
    "state_code": "AP",
    "country_id": 31,
    "country_code": "BR",
    "latitude": "-0.95653000",
    "longitude": "-52.03443000",
    "native": null,
    "timezone": null,
    "translations": {}
  }
]