[
  {
    "id": 3205,
    "name": "Artigas",
    "country_id": 235,
    "country_code": "UY",
    "fips_code": null,
    "iso2": "AR",
    "type": "department",
    "latitude": "-30.61707560",
    "longitude": "-56.93734510",
    "native": "Artigas",
    "timezone": "America/Montevideo",
    "translations": {}
  },
  {
    "id": 3213,
    "name": "Canelones",
    "country_id": 235,
    "country_code": "UY",
    "fips_code": null,
    "iso2": "CA",
    "type": "department",
    "latitude": "-34.62224820",
    "longitude": "-55.99037970",
    "native": "Canelones",
    "timezone": "America/Montevideo",
    "translations": {}
  },
  {
    "id": 3211,
    "name": "Cerro Largo",
    "country_id": 235,
    "country_code": "UY",
    "fips_code": null,
    "iso2": "CL",
    "type": "department",
    "latitude": "-32.33333300",
    "longitude": "-54.33333300",
    "native": "Cerro Largo",
    "timezone": "America/Montevideo",
    "translations": {}
  },
  {
    "id": 3208,
    "name": "Colonia",
    "country_id": 235,
    "country_code": "UY",
    "fips_code": null,
    "iso2": "CO",
    "type": "department",
    "latitude": "-34.16645160",
    "longitude": "-57.49932680",
    "native": "Colonia",
    "timezone": "America/Montevideo",
    "translations": {}
  },
  {
    "id": 3209,
    "name": "Durazno",
    "country_id": 235,
    "country_code": "UY",
    "fips_code": null,
    "iso2": "DU",
    "type": "department",
    "latitude": "-33.08333290",
    "longitude": "-56.08333310",
    "native": "Durazno",
    "timezone": "America/Montevideo",
    "translations": {}
  },
  {
    "id": 3203,
    "name": "Flores",
    "country_id": 235,
    "country_code": "UY",
    "fips_code": null,
    "iso2": "FS",
    "type": "department",
    "latitude": "-33.65188450",
    "longitude": "-56.83935530",
    "native": "Flores",
    "timezone": "America/Montevideo",
    "translations": {}
  },
  {
    "id": 3217,
    "name": "Florida",
    "country_id": 235,
    "country_code": "UY",
    "fips_code": null,
    "iso2": "FD",
    "type": "department",
    "latitude": "-33.83333300",
    "longitude": "-55.91666700",
    "native": "Florida",
    "timezone": "America/Montevideo",
    "translations": {}
  },
  {
    "id": 3215,
    "name": "Lavalleja",
    "country_id": 235,
    "country_code": "UY",
    "fips_code": null,
    "iso2": "LA",
    "type": "department",
    "latitude": "-33.99719640",
    "longitude": "-54.99922420",
    "native": "Lavalleja",
    "timezone": "America/Montevideo",
    "translations": {}
  },
  {
    "id": 3206,
    "name": "Maldonado",
    "country_id": 235,
    "country_code": "UY",
    "fips_code": null,
    "iso2": "MA",
    "type": "department",
    "latitude": "-34.66666700",
    "longitude": "-54.91666700",
    "native": "Maldonado",
    "timezone": "America/Montevideo",
    "translations": {}
  },
  {
    "id": 3218,
    "name": "Montevideo",
    "country_id": 235,
    "country_code": "UY",
    "fips_code": null,
    "iso2": "MO",
    "type": "department",
    "latitude": "-34.86527240",
    "longitude": "-56.18195120",
    "native": "Montevideo",
    "timezone": "America/Montevideo",
    "translations": {}
  },
  {
    "id": 3212,
    "name": "Paysandú",
    "country_id": 235,
    "country_code": "UY",
    "fips_code": null,
    "iso2": "PA",
    "type": "department",
    "latitude": "-32.00000000",
    "longitude": "-57.25000000",
    "native": "Paysandú",
    "timezone": "America/Montevideo",
    "translations": {}
  },
  {
    "id": 3210,
    "name": "Río Negro",
    "country_id": 235,
    "country_code": "UY",
    "fips_code": null,
    "iso2": "RN",
    "type": "department",
    "latitude": "-32.72574190",
    "longitude": "-57.38757800",
    "native": "Río Negro",
    "timezone": "America/Montevideo",
    "translations": {}
  },
  {
    "id": 3207,
    "name": "Rivera",
    "country_id": 235,
    "country_code": "UY",
    "fips_code": null,
    "iso2": "RV",
    "type": "department",
    "latitude": "-31.50000000",
    "longitude": "-55.25000000",
    "native": "Rivera",
    "timezone": "America/Montevideo",
    "translations": {}
  },
  {
    "id": 3216,
    "name": "Rocha",
    "country_id": 235,
    "country_code": "UY",
    "fips_code": null,
    "iso2": "RO",
    "type": "department",
    "latitude": "-34.00000000",
    "longitude": "-54.00000000",
    "native": "Rocha",
    "timezone": "America/Montevideo",
    "translations": {}
  },
  {
    "id": 3220,
    "name": "Salto",
    "country_id": 235,
    "country_code": "UY",
    "fips_code": null,
    "iso2": "SA",
    "type": "department",
    "latitude": "-31.38802800",
    "longitude": "-57.96124550",
    "native": "Tacón",
    "timezone": "America/Montevideo",
    "translations": {}
  },
  {
    "id": 3204,
    "name": "San José",
    "country_id": 235,
    "country_code": "UY",
    "fips_code": null,
    "iso2": "SJ",
    "type": "department",
    "latitude": "-34.33965210",
    "longitude": "-56.71431550",
    "native": "San José",
    "timezone": "America/Montevideo",
    "translations": {}
  },
  {
    "id": 3219,
    "name": "Soriano",
    "country_id": 235,
    "country_code": "UY",
    "fips_code": null,
    "iso2": "SO",
    "type": "department",
    "latitude": "-33.49212660",
    "longitude": "-57.78931050",
    "native": "Soriano",
    "timezone": "America/Montevideo",
    "translations": {}
  },
  {
    "id": 3221,
    "name": "Tacuarembó",
    "country_id": 235,
    "country_code": "UY",
    "fips_code": null,
    "iso2": "TA",
    "type": "department",
    "latitude": "-31.71101830",
    "longitude": "-55.97887620",
    "native": "Tacuarembó",
    "timezone": "America/Montevideo",
    "translations": {}
  },
  {
    "id": 3214,
    "name": "Treinta y Tres",
    "country_id": 235,
    "country_code": "UY",
    "fips_code": null,
    "iso2": "TT",
    "type": "department",
    "latitude": "-33.00000000",
    "longitude": "-54.25000000",
    "native": "Treinta y Tres",
    "timezone": "America/Montevideo",
    "translations": {}
  }
]