[
  {
    "id": 2251,
    "name": "Anhui",
    "country_id": 45,
    "country_code": "CN",
    "fips_code": null,
    "iso2": "AH",
    "type": "province",
    "latitude": "32.00000000",
    "longitude": "117.00000000",
    "native": "Anhui",
    "timezone": "Asia/Shanghai",
    "translations": {}
  },
  {
    "id": 2257,
    "name": "Beijing",
    "country_id": 45,
    "country_code": "CN",
    "fips_code": null,
    "iso2": "BJ",
    "type": "municipality",
    "latitude": "39.90571360",
    "longitude": "116.39129720",
    "native": "Beijing",
    "timezone": "Asia/Shanghai",
    "translations": {}
  },
  {
    "id": 2271,
    "name": "Chongqing",
    "country_id": 45,
    "country_code": "CN",
    "fips_code": null,
    "iso2": "CQ",
    "type": "municipality",
    "latitude": "30.05518000",
    "longitude": "107.87487120",
    "native": "Chongqing",
    "timezone": "Asia/Shanghai",
    "translations": {}
  },
  {
    "id": 2248,
    "name": "Fujian",
    "country_id": 45,
    "country_code": "CN",
    "fips_code": null,
    "iso2": "FJ",
    "type": "province",
    "latitude": "26.19321800",
    "longitude": "118.22087210",
    "native": "Fujian",
    "timezone": "Asia/Shanghai",
    "translations": {}
  },
  {
    "id": 2275,
    "name": "Gansu",
    "country_id": 45,
    "country_code": "CN",
    "fips_code": null,
    "iso2": "GS",
    "type": "province",
    "latitude": "38.00000010",
    "longitude": "101.99999990",
    "native": "Gansu",
    "timezone": "Asia/Shanghai",
    "translations": {}
  },
  {
    "id": 2279,
    "name": "Guangdong",
    "country_id": 45,
    "country_code": "CN",
    "fips_code": null,
    "iso2": "GD",
    "type": "province",
    "latitude": "23.13576940",
    "longitude": "113.19826880",
    "native": "Guangdong",
    "timezone": "Asia/Shanghai",
    "translations": {}
  },
  {
    "id": 2278,
    "name": "Guangxi Zhuang",
    "country_id": 45,
    "country_code": "CN",
    "fips_code": null,
    "iso2": "GX",
    "type": "autonomous region",
    "latitude": "24.00000000",
    "longitude": "109.00000000",
    "native": "Guangxi Zhuang",
    "timezone": "Asia/Shanghai",
    "translations": {}
  },
  {
    "id": 2261,
    "name": "Guizhou",
    "country_id": 45,
    "country_code": "CN",
    "fips_code": null,
    "iso2": "GZ",
    "type": "province",
    "latitude": "27.00000000",
    "longitude": "107.00000000",
    "native": "Guizhou",
    "timezone": "Asia/Shanghai",
    "translations": {}
  },
  {
    "id": 2273,
    "name": "Hainan",
    "country_id": 45,
    "country_code": "CN",
    "fips_code": null,
    "iso2": "HI",
    "type": "province",
    "latitude": "19.20000010",
    "longitude": "109.59999990",
    "native": "Hainan",
    "timezone": "Asia/Shanghai",
    "translations": {}
  },
  {
    "id": 2280,
    "name": "Hebei",
    "country_id": 45,
    "country_code": "CN",
    "fips_code": null,
    "iso2": "HE",
    "type": "province",
    "latitude": "39.00000010",
    "longitude": "116.00000000",
    "native": "Hebei",
    "timezone": "Asia/Shanghai",
    "translations": {}
  },
  {
    "id": 2265,
    "name": "Heilongjiang",
    "country_id": 45,
    "country_code": "CN",
    "fips_code": null,
    "iso2": "HL",
    "type": "province",
    "latitude": "48.00000470",
    "longitude": "127.99999200",
    "native": "Heilongjiang",
    "timezone": "Asia/Shanghai",
    "translations": {}
  },
  {
    "id": 2259,
    "name": "Henan",
    "country_id": 45,
    "country_code": "CN",
    "fips_code": null,
    "iso2": "HA",
    "type": "province",
    "latitude": "34.00000010",
    "longitude": "113.99999990",
    "native": "Henan",
    "timezone": "Asia/Shanghai",
    "translations": {}
  },
  {
    "id": 2267,
    "name": "Hong Kong SAR",
    "country_id": 45,
    "country_code": "CN",
    "fips_code": null,
    "iso2": "HK",
    "type": "special administrative region",
    "latitude": "22.35062700",
    "longitude": "114.18491610",
    "native": "Hong Kong SAR",
    "timezone": "Asia/Hong_Kong",
    "translations": {}
  },
  {
    "id": 2274,
    "name": "Hubei",
    "country_id": 45,
    "country_code": "CN",
    "fips_code": null,
    "iso2": "HB",
    "type": "province",
    "latitude": "31.00000000",
    "longitude": "112.00000000",
    "native": "Hubei",
    "timezone": "Asia/Shanghai",
    "translations": {}
  },
  {
    "id": 2258,
    "name": "Hunan",
    "country_id": 45,
    "country_code": "CN",
    "fips_code": null,
    "iso2": "HN",
    "type": "province",
    "latitude": "27.66620870",
    "longitude": "111.74870630",
    "native": "Hunan",
    "timezone": "Asia/Shanghai",
    "translations": {}
  },
  {
    "id": 2269,
    "name": "Inner Mongolia",
    "country_id": 45,
    "country_code": "CN",
    "fips_code": null,
    "iso2": "NM",
    "type": "autonomous region",
    "latitude": "43.24432420",
    "longitude": "114.32516640",
    "native": "Inner Mongolia",
    "timezone": "Asia/Shanghai",
    "translations": {}
  },
  {
    "id": 2250,
    "name": "Jiangsu",
    "country_id": 45,
    "country_code": "CN",
    "fips_code": null,
    "iso2": "JS",
    "type": "province",
    "latitude": "33.00000010",
    "longitude": "119.99999990",
    "native": "Jiangsu",
    "timezone": "Asia/Shanghai",
    "translations": {}
  },
  {
    "id": 2256,
    "name": "Jiangxi",
    "country_id": 45,
    "country_code": "CN",
    "fips_code": null,
    "iso2": "JX",
    "type": "province",
    "latitude": "28.00000000",
    "longitude": "116.00000000",
    "native": "Jiangxi",
    "timezone": "Asia/Shanghai",
    "translations": {}
  },
  {
    "id": 2253,
    "name": "Jilin",
    "country_id": 45,
    "country_code": "CN",
    "fips_code": null,
    "iso2": "JL",
    "type": "province",
    "latitude": "43.83788300",
    "longitude": "126.54957200",
    "native": "Jilin",
    "timezone": "Asia/Shanghai",
    "translations": {}
  },
  {
    "id": 2268,
    "name": "Liaoning",
    "country_id": 45,
    "country_code": "CN",
    "fips_code": null,
    "iso2": "LN",
    "type": "province",
    "latitude": "41.23741060",
    "longitude": "122.99554690",
    "native": "Liaoning",
    "timezone": "Asia/Shanghai",
    "translations": {}
  },
  {
    "id": 2266,
    "name": "Macau SAR",
    "country_id": 45,
    "country_code": "CN",
    "fips_code": null,
    "iso2": "MO",
    "type": "special administrative region",
    "latitude": "22.31452850",
    "longitude": "113.94724460",
    "native": "Macau SAR",
    "timezone": "Asia/Hong_Kong",
    "translations": {}
  },
  {
    "id": 2262,
    "name": "Ningxia Huizu",
    "country_id": 45,
    "country_code": "CN",
    "fips_code": null,
    "iso2": "NX",
    "type": "autonomous region",
    "latitude": "37.00000010",
    "longitude": "105.99999990",
    "native": "Ningxia Huizu",
    "timezone": "Asia/Shanghai",
    "translations": {}
  },
  {
    "id": 2270,
    "name": "Qinghai",
    "country_id": 45,
    "country_code": "CN",
    "fips_code": null,
    "iso2": "QH",
    "type": "province",
    "latitude": "36.00000000",
    "longitude": "96.00000000",
    "native": "Qinghai",
    "timezone": "Asia/Shanghai",
    "translations": {}
  },
  {
    "id": 2272,
    "name": "Shaanxi",
    "country_id": 45,
    "country_code": "CN",
    "fips_code": null,
    "iso2": "SN",
    "type": "province",
    "latitude": "35.58959590",
    "longitude": "109.30131070",
    "native": "Shaanxi",
    "timezone": "Asia/Shanghai",
    "translations": {}
  },
  {
    "id": 2252,
    "name": "Shandong",
    "country_id": 45,
    "country_code": "CN",
    "fips_code": null,
    "iso2": "SD",
    "type": "province",
    "latitude": "36.39898700",
    "longitude": "118.50556910",
    "native": "Shandong",
    "timezone": "Asia/Shanghai",
    "translations": {}
  },
  {
    "id": 2249,
    "name": "Shanghai",
    "country_id": 45,
    "country_code": "CN",
    "fips_code": null,
    "iso2": "SH",
    "type": "municipality",
    "latitude": "31.23041600",
    "longitude": "121.47370100",
    "native": "Shanghai",
    "timezone": "Asia/Shanghai",
    "translations": {}
  },
  {
    "id": 2254,
    "name": "Shanxi",
    "country_id": 45,
    "country_code": "CN",
    "fips_code": null,
    "iso2": "SX",
    "type": "province",
    "latitude": "37.00000000",
    "longitude": "112.00000000",
    "native": "Shanxi",
    "timezone": "Asia/Shanghai",
    "translations": {}
  },
  {
    "id": 2277,
    "name": "Sichuan",
    "country_id": 45,
    "country_code": "CN",
    "fips_code": null,
    "iso2": "SC",
    "type": "province",
    "latitude": "30.50000010",
    "longitude": "102.49999990",
    "native": "Sichuan",
    "timezone": "Asia/Shanghai",
    "translations": {}
  },
  {
    "id": 2255,
    "name": "Taiwan",
    "country_id": 45,
    "country_code": "CN",
    "fips_code": null,
    "iso2": "TW",
    "type": "province",
    "latitude": "23.97393740",
    "longitude": "120.98201790",
    "native": "Taiwan",
    "timezone": "Asia/Taipei",
    "translations": {}
  },
  {
    "id": 2276,
    "name": "Tianjin",
    "country_id": 45,
    "country_code": "CN",
    "fips_code": null,
    "iso2": "TJ",
    "type": "municipality",
    "latitude": "39.08448970",
    "longitude": "117.19567240",
    "native": "Tianjin",
    "timezone": "Asia/Shanghai",
    "translations": {}
  },
  {
    "id": 2263,
    "name": "Xinjiang",
    "country_id": 45,
    "country_code": "CN",
    "fips_code": null,
    "iso2": "XJ",
    "type": "autonomous region",
    "latitude": "42.48049530",
    "longitude": "85.46334640",
    "native": "Xinjiang",
    "timezone": "Asia/Shanghai",
    "translations": {}
  },
  {
    "id": 2264,
    "name": "Xizang",
    "country_id": 45,
    "country_code": "CN",
    "fips_code": null,
    "iso2": "XZ",
    "type": "autonomous region",
    "latitude": "29.85564430",
    "longitude": "90.87498070",
    "native": "Xizang",
    "timezone": "Asia/Shanghai",
    "translations": {}
  },
  {
    "id": 2260,
    "name": "Yunnan",
    "country_id": 45,
    "country_code": "CN",
    "fips_code": null,
    "iso2": "YN",
    "type": "province",
    "latitude": "25.00000000",
    "longitude": "102.00000000",
    "native": "Yunnan",
    "timezone": "Asia/Shanghai",
    "translations": {}
  },
  {
    "id": 2247,
    "name": "Zhejiang",
    "country_id": 45,
    "country_code": "CN",
    "fips_code": null,
    "iso2": "ZJ",
    "type": "province",
    "latitude": "29.00000010",
    "longitude": "119.99999990",
    "native": "Zhejiang",
    "timezone": "Asia/Shanghai",
    "translations": {}
  }
]