[
  {
    "id": 153454,
    "name": "Beau Bassin",
    "state_id": 3263,
    "state_code": "PW",
    "country_id": 140,
    "country_code": "MU",
    "latitude": "-20.22538700",
    "longitude": "57.47145500",
    "native": null,
    "timezone": null,
    "translations": {}
  },
  {
    "id": 67832,
    "name": "Beau Bassin-Rose Hill",
    "state_id": 3263,
    "state_code": "PW",
    "country_id": 140,
    "country_code": "MU",
    "latitude": "-20.23325000",
    "longitude": "57.46609000",
    "native": null,
    "timezone": null,
    "translations": {}
  },
  {
    "id": 153916,
    "name": "Belle Terre",
    "state_id": 3263,
    "state_code": "PW",
    "country_id": 140,
    "country_code": "MU",
    "latitude": "-20.26948370",
    "longitude": "57.51655530",
    "native": null,
    "timezone": null,
    "translations": {}
  },
  {
    "id": 153911,
    "name": "Camp Fouqueraux",
    "state_id": 3263,
    "state_code": "PW",
    "country_id": 140,
    "country_code": "MU",
    "latitude": "-20.28568630",
    "longitude": "57.51718270",
    "native": null,
    "timezone": null,
    "translations": {}
  },
  {
    "id": 153914,
    "name": "Chebel",
    "state_id": 3263,
    "state_code": "PW",
    "country_id": 140,
    "country_code": "MU",
    "latitude": "-20.21373190",
    "longitude": "57.46075450",
    "native": null,
    "timezone": null,
    "translations": {}
  },
  {
    "id": 153913,
    "name": "Coromandel",
    "state_id": 3263,
    "state_code": "PW",
    "country_id": 140,
    "country_code": "MU",
    "latitude": "-20.19522920",
    "longitude": "57.44565340",
    "native": null,
    "timezone": null,
    "translations": {}
  },
  {
    "id": 67854,
    "name": "Curepipe",
    "state_id": 3263,
    "state_code": "PW",
    "country_id": 140,
    "country_code": "MU",
    "latitude": "-20.31628000",
    "longitude": "57.52594000",
    "native": null,
    "timezone": null,
    "translations": {}
  },
  {
    "id": 153456,
    "name": "Eau Coulee",
    "state_id": 3263,
    "state_code": "PW",
    "country_id": 140,
    "country_code": "MU",
    "latitude": "-20.30336600",
    "longitude": "57.52778800",
    "native": null,
    "timezone": null,
    "translations": {}
  },
  {
    "id": 67857,
    "name": "Ebene",
    "state_id": 3263,
    "state_code": "PW",
    "country_id": 140,
    "country_code": "MU",
    "latitude": "-20.24494000",
    "longitude": "57.49163000",
    "native": null,
    "timezone": null,
    "translations": {}
  },
  {
    "id": 153455,
    "name": "Floreal",
    "state_id": 3263,
    "state_code": "PW",
    "country_id": 140,
    "country_code": "MU",
    "latitude": "-20.31121400",
    "longitude": "57.50726300",
    "native": null,
    "timezone": null,
    "translations": {}
  },
  {
    "id": 153457,
    "name": "Forest Side",
    "state_id": 3263,
    "state_code": "PW",
    "country_id": 140,
    "country_code": "MU",
    "latitude": "-20.32952100",
    "longitude": "57.53898100",
    "native": null,
    "timezone": null,
    "translations": {}
  },
  {
    "id": 153912,
    "name": "Glen Park",
    "state_id": 3263,
    "state_code": "PW",
    "country_id": 140,
    "country_code": "MU",
    "latitude": "-20.32440680",
    "longitude": "57.47531880",
    "native": null,
    "timezone": null,
    "translations": {}
  },
  {
    "id": 153915,
    "name": "Henrietta",
    "state_id": 3263,
    "state_code": "PW",
    "country_id": 140,
    "country_code": "MU",
    "latitude": "-20.27200480",
    "longitude": "57.52898870",
    "native": null,
    "timezone": null,
    "translations": {}
  },
  {
    "id": 153918,
    "name": "Hermitage",
    "state_id": 3263,
    "state_code": "PW",
    "country_id": 140,
    "country_code": "MU",
    "latitude": "-20.27685080",
    "longitude": "57.53471370",
    "native": null,
    "timezone": null,
    "translations": {}
  },
  {
    "id": 153917,
    "name": "Highlands",
    "state_id": 3263,
    "state_code": "PW",
    "country_id": 140,
    "country_code": "MU",
    "latitude": "-20.27827480",
    "longitude": "57.51350410",
    "native": null,
    "timezone": null,
    "translations": {}
  },
  {
    "id": 67878,
    "name": "Midlands",
    "state_id": 3263,
    "state_code": "PW",
    "country_id": 140,
    "country_code": "MU",
    "latitude": "-20.31907000",
    "longitude": "57.57016000",
    "native": null,
    "timezone": null,
    "translations": {}
  },
  {
    "id": 153910,
    "name": "Phoenix",
    "state_id": 3263,
    "state_code": "PW",
    "country_id": 140,
    "country_code": "MU",
    "latitude": "-20.28584460",
    "longitude": "57.50291860",
    "native": null,
    "timezone": null,
    "translations": {}
  },
  {
    "id": 67900,
    "name": "Quatre Bornes",
    "state_id": 3263,
    "state_code": "PW",
    "country_id": 140,
    "country_code": "MU",
    "latitude": "-20.26381000",
    "longitude": "57.47910000",
    "native": null,
    "timezone": null,
    "translations": {}
  },
  {
    "id": 153453,
    "name": "Rose Hill",
    "state_id": 3263,
    "state_code": "PW",
    "country_id": 140,
    "country_code": "MU",
    "latitude": "-20.24347800",
    "longitude": "57.46985500",
    "native": null,
    "timezone": null,
    "translations": {}
  },
  {
    "id": 67920,
    "name": "Vacoas",
    "state_id": 3263,
    "state_code": "PW",
    "country_id": 140,
    "country_code": "MU",
    "latitude": "-20.29806000",
    "longitude": "57.47833000",
    "native": null,
    "timezone": null,
    "translations": {}
  }
]