[
  {
    "id": 5254,
    "name": "Agana Heights",
    "country_id": 89,
    "country_code": "GU",
    "fips_code": null,
    "iso2": "01",
    "type": "village",
    "latitude": "13.46554410",
    "longitude": "144.74657140",
    "native": "Agana Heights",
    "timezone": "Pacific/Guam",
    "translations": {}
  },
  {
    "id": 5255,
    "name": "Asan-Maina",
    "country_id": 89,
    "country_code": "GU",
    "fips_code": null,
    "iso2": "02",
    "type": "village",
    "latitude": "13.47764720",
    "longitude": "144.73085880",
    "native": "Asan-Maina",
    "timezone": "Pacific/Guam",
    "translations": {}
  },
  {
    "id": 5256,
    "name": "Barrigada",
    "country_id": 89,
    "country_code": "GU",
    "fips_code": null,
    "iso2": "03",
    "type": "village",
    "latitude": "13.46940920",
    "longitude": "144.80106000",
    "native": "Barrigada",
    "timezone": "Pacific/Guam",
    "translations": {}
  },
  {
    "id": 5257,
    "name": "Chalan Pago-Ordot",
    "country_id": 89,
    "country_code": "GU",
    "fips_code": null,
    "iso2": "04",
    "type": "village",
    "latitude": "13.44137200",
    "longitude": "144.76702410",
    "native": "Boy Pago-Cordot",
    "timezone": "Pacific/Guam",
    "translations": {}
  },
  {
    "id": 5258,
    "name": "Dededo",
    "country_id": 89,
    "country_code": "GU",
    "fips_code": null,
    "iso2": "05",
    "type": "village",
    "latitude": "13.51905400",
    "longitude": "144.83783880",
    "native": "Dededo",
    "timezone": "Pacific/Guam",
    "translations": {}
  },
  {
    "id": 5259,
    "name": "Hågat",
    "country_id": 89,
    "country_code": "GU",
    "fips_code": null,
    "iso2": "06",
    "type": "village",
    "latitude": "13.38476100",
    "longitude": "144.65807140",
    "native": "Hågat",
    "timezone": "Pacific/Guam",
    "translations": {}
  },
  {
    "id": 5265,
    "name": "Hagåtña",
    "country_id": 89,
    "country_code": "GU",
    "fips_code": null,
    "iso2": "12",
    "type": "village",
    "latitude": "13.47481480",
    "longitude": "144.75161910",
    "native": "snail",
    "timezone": "Pacific/Guam",
    "translations": {}
  },
  {
    "id": 5261,
    "name": "Inarajan (Inalåhan)",
    "country_id": 89,
    "country_code": "GU",
    "fips_code": null,
    "iso2": "08",
    "type": "village",
    "latitude": "13.27976640",
    "longitude": "144.74322660",
    "native": "Inrajan (Inalåhan)",
    "timezone": "Pacific/Guam",
    "translations": {}
  },
  {
    "id": 5263,
    "name": "Mangilao",
    "country_id": 89,
    "country_code": "GU",
    "fips_code": null,
    "iso2": "10",
    "type": "village",
    "latitude": "13.44399150",
    "longitude": "144.80505280",
    "native": "Mangilao",
    "timezone": "Pacific/Guam",
    "translations": {}
  },
  {
    "id": 5262,
    "name": "Merizo (Malesso)",
    "country_id": 89,
    "country_code": "GU",
    "fips_code": null,
    "iso2": "09",
    "type": "village",
    "latitude": "13.26829750",
    "longitude": "144.67261060",
    "native": "Merizo (Malesso)",
    "timezone": "Pacific/Guam",
    "translations": {}
  },
  {
    "id": 5264,
    "name": "Mongmong-Toto-Maite",
    "country_id": 89,
    "country_code": "GU",
    "fips_code": null,
    "iso2": "11",
    "type": "village",
    "latitude": "13.46743180",
    "longitude": "144.76802820",
    "native": "Mongmong-Toto-Maite",
    "timezone": "Pacific/Guam",
    "translations": {}
  },
  {
    "id": 5266,
    "name": "Piti",
    "country_id": 89,
    "country_code": "GU",
    "fips_code": null,
    "iso2": "13",
    "type": "village",
    "latitude": "13.46474460",
    "longitude": "144.68769820",
    "native": "Kept",
    "timezone": "Pacific/Guam",
    "translations": {}
  },
  {
    "id": 5267,
    "name": "Santa Rita (Sånta Rita-Sumai)",
    "country_id": 89,
    "country_code": "GU",
    "fips_code": null,
    "iso2": "14",
    "type": "village",
    "latitude": "13.38678740",
    "longitude": "144.66642270",
    "native": "Santa Rita (Sånta Rita-Sumai)",
    "timezone": "Pacific/Guam",
    "translations": {}
  },
  {
    "id": 5268,
    "name": "Sinajana",
    "country_id": 89,
    "country_code": "GU",
    "fips_code": null,
    "iso2": "15",
    "type": "village",
    "latitude": "13.46094860",
    "longitude": "144.74612080",
    "native": "Sinajana",
    "timezone": "Pacific/Guam",
    "translations": {}
  },
  {
    "id": 5269,
    "name": "Talofofo (Talo'fo'fo)",
    "country_id": 89,
    "country_code": "GU",
    "fips_code": null,
    "iso2": "16",
    "type": "village",
    "latitude": "13.35390400",
    "longitude": "144.75329320",
    "native": "Tapeable (Shots'fos)",
    "timezone": "Pacific/Guam",
    "translations": {}
  },
  {
    "id": 5270,
    "name": "Tamuning",
    "country_id": 89,
    "country_code": "GU",
    "fips_code": null,
    "iso2": "17",
    "type": "village",
    "latitude": "13.49447620",
    "longitude": "144.78045820",
    "native": "Tamuning",
    "timezone": "Pacific/Guam",
    "translations": {}
  },
  {
    "id": 5260,
    "name": "Umatac (Humåtak)",
    "country_id": 89,
    "country_code": "GU",
    "fips_code": null,
    "iso2": "07",
    "type": "village",
    "latitude": "13.29457770",
    "longitude": "144.65382830",
    "native": "Umatac (Humåtak)",
    "timezone": "Pacific/Guam",
    "translations": {}
  },
  {
    "id": 5271,
    "name": "Yigo",
    "country_id": 89,
    "country_code": "GU",
    "fips_code": null,
    "iso2": "18",
    "type": "village",
    "latitude": "13.53794240",
    "longitude": "144.89849550",
    "native": "Yigo",
    "timezone": "Pacific/Guam",
    "translations": {}
  },
  {
    "id": 5272,
    "name": "Yona",
    "country_id": 89,
    "country_code": "GU",
    "fips_code": null,
    "iso2": "19",
    "type": "village",
    "latitude": "13.41376000",
    "longitude": "144.77441300",
    "native": "Yona",
    "timezone": "Pacific/Guam",
    "translations": {}
  }
]