[
  {
    "id": 57643,
    "name": "Almora",
    "state_id": 4016,
    "state_code": "UK",
    "country_id": 101,
    "country_code": "IN",
    "latitude": "29.69223000",
    "longitude": "79.49789000",
    "native": null,
    "timezone": null,
    "translations": {}
  },
  {
    "id": 57800,
    "name": "Bageshwar",
    "state_id": 4016,
    "state_code": "UK",
    "country_id": 101,
    "country_code": "IN",
    "latitude": "29.97315000",
    "longitude": "79.83224000",
    "native": null,
    "timezone": null,
    "translations": {}
  },
  {
    "id": 57841,
    "name": "Banbasa",
    "state_id": 4016,
    "state_code": "UK",
    "country_id": 101,
    "country_code": "IN",
    "latitude": "28.99132000",
    "longitude": "80.07608000",
    "native": null,
    "timezone": null,
    "translations": {}
  },
  {
    "id": 57879,
    "name": "Barkot",
    "state_id": 4016,
    "state_code": "UK",
    "country_id": 101,
    "country_code": "IN",
    "latitude": "30.80861000",
    "longitude": "78.20596000",
    "native": null,
    "timezone": null,
    "translations": {}
  },
  {
    "id": 58153,
    "name": "Bazpur",
    "state_id": 4016,
    "state_code": "UK",
    "country_id": 101,
    "country_code": "IN",
    "latitude": "29.15299000",
    "longitude": "79.10814000",
    "native": null,
    "timezone": null,
    "translations": {}
  },
  {
    "id": 58020,
    "name": "Bhim Tal",
    "state_id": 4016,
    "state_code": "UK",
    "country_id": 101,
    "country_code": "IN",
    "latitude": "29.34447000",
    "longitude": "79.56336000",
    "native": null,
    "timezone": null,
    "translations": {}
  },
  {
    "id": 57998,
    "name": "Bhowali",
    "state_id": 4016,
    "state_code": "UK",
    "country_id": 101,
    "country_code": "IN",
    "latitude": "29.38985000",
    "longitude": "79.50481000",
    "native": null,
    "timezone": null,
    "translations": {}
  },
  {
    "id": 58059,
    "name": "Birbhaddar",
    "state_id": 4016,
    "state_code": "UK",
    "country_id": 101,
    "country_code": "IN",
    "latitude": "30.07120000",
    "longitude": "78.28189000",
    "native": null,
    "timezone": null,
    "translations": {}
  },
  {
    "id": 58176,
    "name": "Chakrata",
    "state_id": 4016,
    "state_code": "UK",
    "country_id": 101,
    "country_code": "IN",
    "latitude": "30.70369000",
    "longitude": "77.86386000",
    "native": null,
    "timezone": null,
    "translations": {}
  },
  {
    "id": 58182,
    "name": "Chamoli",
    "state_id": 4016,
    "state_code": "UK",
    "country_id": 101,
    "country_code": "IN",
    "latitude": "30.50000000",
    "longitude": "79.50000000",
    "native": null,
    "timezone": null,
    "translations": {}
  },
  {
    "id": 58183,
    "name": "Champawat",
    "state_id": 4016,
    "state_code": "UK",
    "country_id": 101,
    "country_code": "IN",
    "latitude": "29.28756000",
    "longitude": "80.03737000",
    "native": null,
    "timezone": null,
    "translations": {}
  },
  {
    "id": 131615,
    "name": "Clement Town",
    "state_id": 4016,
    "state_code": "UK",
    "country_id": 101,
    "country_code": "IN",
    "latitude": "30.26361000",
    "longitude": "78.00862000",
    "native": null,
    "timezone": null,
    "translations": {}
  },
  {
    "id": 131676,
    "name": "Dehradun",
    "state_id": 4016,
    "state_code": "UK",
    "country_id": 101,
    "country_code": "IN",
    "latitude": "30.33000000",
    "longitude": "78.06000000",
    "native": null,
    "timezone": null,
    "translations": {}
  },
  {
    "id": 131702,
    "name": "Devaprayag",
    "state_id": 4016,
    "state_code": "UK",
    "country_id": 101,
    "country_code": "IN",
    "latitude": "30.14603000",
    "longitude": "78.60272000",
    "native": null,
    "timezone": null,
    "translations": {}
  },
  {
    "id": 131754,
    "name": "Dharchula",
    "state_id": 4016,
    "state_code": "UK",
    "country_id": 101,
    "country_code": "IN",
    "latitude": "29.84707000",
    "longitude": "80.51951000",
    "native": null,
    "timezone": null,
    "translations": {}
  },
  {
    "id": 131784,
    "name": "Doiwala",
    "state_id": 4016,
    "state_code": "UK",
    "country_id": 101,
    "country_code": "IN",
    "latitude": "30.17667000",
    "longitude": "78.11659000",
    "native": null,
    "timezone": null,
    "translations": {}
  },
  {
    "id": 131793,
    "name": "Dugadda",
    "state_id": 4016,
    "state_code": "UK",
    "country_id": 101,
    "country_code": "IN",
    "latitude": "29.80673000",
    "longitude": "78.61109000",
    "native": null,
    "timezone": null,
    "translations": {}
  },
  {
    "id": 131804,
    "name": "Dwarahat",
    "state_id": 4016,
    "state_code": "UK",
    "country_id": 101,
    "country_code": "IN",
    "latitude": "29.77785000",
    "longitude": "79.42731000",
    "native": null,
    "timezone": null,
    "translations": {}
  },
  {
    "id": 131923,
    "name": "Garhwal",
    "state_id": 4016,
    "state_code": "UK",
    "country_id": 101,
    "country_code": "IN",
    "latitude": "29.96366000",
    "longitude": "78.92853000",
    "native": null,
    "timezone": null,
    "translations": {}
  },
  {
    "id": 132058,
    "name": "Haldwani",
    "state_id": 4016,
    "state_code": "UK",
    "country_id": 101,
    "country_code": "IN",
    "latitude": "29.22254000",
    "longitude": "79.52860000",
    "native": null,
    "timezone": null,
    "translations": {}
  },
  {
    "id": 132069,
    "name": "Harbatpur",
    "state_id": 4016,
    "state_code": "UK",
    "country_id": 101,
    "country_code": "IN",
    "latitude": "30.43863000",
    "longitude": "77.74058000",
    "native": null,
    "timezone": null,
    "translations": {}
  },
  {
    "id": 132075,
    "name": "Haridwar",
    "state_id": 4016,
    "state_code": "UK",
    "country_id": 101,
    "country_code": "IN",
    "latitude": "29.94791000",
    "longitude": "78.16025000",
    "native": null,
    "timezone": null,
    "translations": {}
  },
  {
    "id": 132247,
    "name": "Jaspur",
    "state_id": 4016,
    "state_code": "UK",
    "country_id": 101,
    "country_code": "IN",
    "latitude": "29.27919000",
    "longitude": "78.82798000",
    "native": null,
    "timezone": null,
    "translations": {}
  },
  {
    "id": 132296,
    "name": "Joshimath",
    "state_id": 4016,
    "state_code": "UK",
    "country_id": 101,
    "country_code": "IN",
    "latitude": "30.55543000",
    "longitude": "79.56436000",
    "native": null,
    "timezone": null,
    "translations": {}
  },
  {
    "id": 132685,
    "name": "Kaladhungi",
    "state_id": 4016,
    "state_code": "UK",
    "country_id": 101,
    "country_code": "IN",
    "latitude": "29.28351000",
    "longitude": "79.35100000",
    "native": null,
    "timezone": null,
    "translations": {}
  },
  {
    "id": 132686,
    "name": "Kalagarh Project Colony",
    "state_id": 4016,
    "state_code": "UK",
    "country_id": 101,
    "country_code": "IN",
    "latitude": "29.47780000",
    "longitude": "78.78449000",
    "native": null,
    "timezone": null,
    "translations": {}
  },
  {
    "id": 132418,
    "name": "Kashipur",
    "state_id": 4016,
    "state_code": "UK",
    "country_id": 101,
    "country_code": "IN",
    "latitude": "29.21399000",
    "longitude": "78.95693000",
    "native": null,
    "timezone": null,
    "translations": {}
  },
  {
    "id": 132484,
    "name": "Khatima",
    "state_id": 4016,
    "state_code": "UK",
    "country_id": 101,
    "country_code": "IN",
    "latitude": "28.92134000",
    "longitude": "79.97075000",
    "native": null,
    "timezone": null,
    "translations": {}
  },
  {
    "id": 132521,
    "name": "Kichha",
    "state_id": 4016,
    "state_code": "UK",
    "country_id": 101,
    "country_code": "IN",
    "latitude": "28.91154000",
    "longitude": "79.52009000",
    "native": null,
    "timezone": null,
    "translations": {}
  },
  {
    "id": 132597,
    "name": "Kotdwara",
    "state_id": 4016,
    "state_code": "UK",
    "country_id": 101,
    "country_code": "IN",
    "latitude": "29.74612000",
    "longitude": "78.52219000",
    "native": null,
    "timezone": null,
    "translations": {}
  },
  {
    "id": 132749,
    "name": "Laksar",
    "state_id": 4016,
    "state_code": "UK",
    "country_id": 101,
    "country_code": "IN",
    "latitude": "29.75870000",
    "longitude": "78.04148000",
    "native": null,
    "timezone": null,
    "translations": {}
  },
  {
    "id": 132756,
    "name": "Lansdowne",
    "state_id": 4016,
    "state_code": "UK",
    "country_id": 101,
    "country_code": "IN",
    "latitude": "29.84183000",
    "longitude": "78.68014000",
    "native": null,
    "timezone": null,
    "translations": {}
  },
  {
    "id": 132767,
    "name": "Lohaghat",
    "state_id": 4016,
    "state_code": "UK",
    "country_id": 101,
    "country_code": "IN",
    "latitude": "29.40356000",
    "longitude": "80.08965000",
    "native": null,
    "timezone": null,
    "translations": {}
  },
  {
    "id": 132908,
    "name": "Manglaur",
    "state_id": 4016,
    "state_code": "UK",
    "country_id": 101,
    "country_code": "IN",
    "latitude": "29.79094000",
    "longitude": "77.87836000",
    "native": null,
    "timezone": null,
    "translations": {}
  },
  {
    "id": 133046,
    "name": "Mussoorie",
    "state_id": 4016,
    "state_code": "UK",
    "country_id": 101,
    "country_code": "IN",
    "latitude": "30.45498000",
    "longitude": "78.07068000",
    "native": null,
    "timezone": null,
    "translations": {}
  },
  {
    "id": 133123,
    "name": "Naini Tal",
    "state_id": 4016,
    "state_code": "UK",
    "country_id": 101,
    "country_code": "IN",
    "latitude": "29.39743000",
    "longitude": "79.44686000",
    "native": null,
    "timezone": null,
    "translations": {}
  },
  {
    "id": 133166,
    "name": "Narendranagar",
    "state_id": 4016,
    "state_code": "UK",
    "country_id": 101,
    "country_code": "IN",
    "latitude": "30.16173000",
    "longitude": "78.28712000",
    "native": null,
    "timezone": null,
    "translations": {}
  },
  {
    "id": 133394,
    "name": "Pauri",
    "state_id": 4016,
    "state_code": "UK",
    "country_id": 101,
    "country_code": "IN",
    "latitude": "30.15286000",
    "longitude": "78.77710000",
    "native": null,
    "timezone": null,
    "translations": {}
  },
  {
    "id": 133563,
    "name": "Pipalkoti",
    "state_id": 4016,
    "state_code": "UK",
    "country_id": 101,
    "country_code": "IN",
    "latitude": "30.42553000",
    "longitude": "79.43066000",
    "native": null,
    "timezone": null,
    "translations": {}
  },
  {
    "id": 133464,
    "name": "Pithoragarh",
    "state_id": 4016,
    "state_code": "UK",
    "country_id": 101,
    "country_code": "IN",
    "latitude": "30.00000000",
    "longitude": "80.25000000",
    "native": null,
    "timezone": null,
    "translations": {}
  },
  {
    "id": 133666,
    "name": "Raipur",
    "state_id": 4016,
    "state_code": "UK",
    "country_id": 101,
    "country_code": "IN",
    "latitude": "30.31097000",
    "longitude": "78.08979000",
    "native": null,
    "timezone": null,
    "translations": {}
  },
  {
    "id": 133735,
    "name": "Raiwala Bara",
    "state_id": 4016,
    "state_code": "UK",
    "country_id": 101,
    "country_code": "IN",
    "latitude": "30.01864000",
    "longitude": "78.22930000",
    "native": null,
    "timezone": null,
    "translations": {}
  },
  {
    "id": 133703,
    "name": "Ramnagar",
    "state_id": 4016,
    "state_code": "UK",
    "country_id": 101,
    "country_code": "IN",
    "latitude": "29.39250000",
    "longitude": "79.12830000",
    "native": null,
    "timezone": null,
    "translations": {}
  },
  {
    "id": 133716,
    "name": "Ranikhet",
    "state_id": 4016,
    "state_code": "UK",
    "country_id": 101,
    "country_code": "IN",
    "latitude": "29.64082000",
    "longitude": "79.43229000",
    "native": null,
    "timezone": null,
    "translations": {}
  },
  {
    "id": 133638,
    "name": "Rishikesh",
    "state_id": 4016,
    "state_code": "UK",
    "country_id": 101,
    "country_code": "IN",
    "latitude": "30.10778000",
    "longitude": "78.29255000",
    "native": null,
    "timezone": null,
    "translations": {}
  },
  {
    "id": 133650,
    "name": "Roorkee",
    "state_id": 4016,
    "state_code": "UK",
    "country_id": 101,
    "country_code": "IN",
    "latitude": "29.86632000",
    "longitude": "77.89118000",
    "native": null,
    "timezone": null,
    "translations": {}
  },
  {
    "id": 133652,
    "name": "Rudraprayag",
    "state_id": 4016,
    "state_code": "UK",
    "country_id": 101,
    "country_code": "IN",
    "latitude": "30.60872000",
    "longitude": "79.06517000",
    "native": null,
    "timezone": null,
    "translations": {}
  },
  {
    "id": 133973,
    "name": "Sitarganj",
    "state_id": 4016,
    "state_code": "UK",
    "country_id": 101,
    "country_code": "IN",
    "latitude": "28.92930000",
    "longitude": "79.70436000",
    "native": null,
    "timezone": null,
    "translations": {}
  },
  {
    "id": 134027,
    "name": "Srinagar",
    "state_id": 4016,
    "state_code": "UK",
    "country_id": 101,
    "country_code": "IN",
    "latitude": "30.22243000",
    "longitude": "78.78341000",
    "native": null,
    "timezone": null,
    "translations": {}
  },
  {
    "id": 134038,
    "name": "Sultanpur",
    "state_id": 4016,
    "state_code": "UK",
    "country_id": 101,
    "country_code": "IN",
    "latitude": "29.75534000",
    "longitude": "78.11034000",
    "native": null,
    "timezone": null,
    "translations": {}
  },
  {
    "id": 134110,
    "name": "Tanakpur",
    "state_id": 4016,
    "state_code": "UK",
    "country_id": 101,
    "country_code": "IN",
    "latitude": "29.07400000",
    "longitude": "80.11139000",
    "native": null,
    "timezone": null,
    "translations": {}
  },
  {
    "id": 134122,
    "name": "Tehri",
    "state_id": 4016,
    "state_code": "UK",
    "country_id": 101,
    "country_code": "IN",
    "latitude": "30.39086000",
    "longitude": "78.48030000",
    "native": null,
    "timezone": null,
    "translations": {}
  },
  {
    "id": 134123,
    "name": "Tehri-Garhwal",
    "state_id": 4016,
    "state_code": "UK",
    "country_id": 101,
    "country_code": "IN",
    "latitude": "30.50000000",
    "longitude": "78.66667000",
    "native": null,
    "timezone": null,
    "translations": {}
  },
  {
    "id": 134256,
    "name": "Udham Singh Nagar",
    "state_id": 4016,
    "state_code": "UK",
    "country_id": 101,
    "country_code": "IN",
    "latitude": "29.02746000",
    "longitude": "79.52347000",
    "native": null,
    "timezone": null,
    "translations": {}
  },
  {
    "id": 134301,
    "name": "Uttarkashi",
    "state_id": 4016,
    "state_code": "UK",
    "country_id": 101,
    "country_code": "IN",
    "latitude": "30.72986000",
    "longitude": "78.44342000",
    "native": null,
    "timezone": null,
    "translations": {}
  },
  {
    "id": 134360,
    "name": "Vikasnagar",
    "state_id": 4016,
    "state_code": "UK",
    "country_id": 101,
    "country_code": "IN",
    "latitude": "30.46944000",
    "longitude": "77.77275000",
    "native": null,
    "timezone": null,
    "translations": {}
  }
]