[
  {
    "id": 154790,
    "name": "Alcantara",
    "state_id": 1269,
    "state_code": "ROM",
    "country_id": 174,
    "country_code": "PH",
    "latitude": "12.28437610",
    "longitude": "121.97911810",
    "native": null,
    "timezone": null,
    "translations": {}
  },
  {
    "id": 154791,
    "name": "Banton",
    "state_id": 1269,
    "state_code": "ROM",
    "country_id": 174,
    "country_code": "PH",
    "latitude": "12.95464490",
    "longitude": "121.82514510",
    "native": null,
    "timezone": null,
    "translations": {}
  },
  {
    "id": 82004,
    "name": "Cajidiocan",
    "state_id": 1269,
    "state_code": "ROM",
    "country_id": 174,
    "country_code": "PH",
    "latitude": "12.40582770",
    "longitude": "122.63342860",
    "native": null,
    "timezone": null,
    "translations": {}
  },
  {
    "id": 154792,
    "name": "Calatrava",
    "state_id": 1269,
    "state_code": "ROM",
    "country_id": 174,
    "country_code": "PH",
    "latitude": "12.63340510",
    "longitude": "121.98544590",
    "native": null,
    "timezone": null,
    "translations": {}
  },
  {
    "id": 154793,
    "name": "Concepcion",
    "state_id": 1269,
    "state_code": "ROM",
    "country_id": 174,
    "country_code": "PH",
    "latitude": "12.92496680",
    "longitude": "121.66804690",
    "native": null,
    "timezone": null,
    "translations": {}
  },
  {
    "id": 82289,
    "name": "Corcuera",
    "state_id": 1269,
    "state_code": "ROM",
    "country_id": 174,
    "country_code": "PH",
    "latitude": "12.80927000",
    "longitude": "122.01285030",
    "native": null,
    "timezone": null,
    "translations": {}
  },
  {
    "id": 82538,
    "name": "Ferrol",
    "state_id": 1269,
    "state_code": "ROM",
    "country_id": 174,
    "country_code": "PH",
    "latitude": "12.34162780",
    "longitude": "121.90707460",
    "native": null,
    "timezone": null,
    "translations": {}
  },
  {
    "id": 83171,
    "name": "Looc",
    "state_id": 1269,
    "state_code": "ROM",
    "country_id": 174,
    "country_code": "PH",
    "latitude": "12.26346170",
    "longitude": "121.91256550",
    "native": null,
    "timezone": null,
    "translations": {}
  },
  {
    "id": 83334,
    "name": "Magdiwang",
    "state_id": 1269,
    "state_code": "ROM",
    "country_id": 174,
    "country_code": "PH",
    "latitude": "12.46606190",
    "longitude": "122.42987720",
    "native": null,
    "timezone": null,
    "translations": {}
  },
  {
    "id": 83845,
    "name": "Odiongan",
    "state_id": 1269,
    "state_code": "ROM",
    "country_id": 174,
    "country_code": "PH",
    "latitude": "12.39759900",
    "longitude": "121.92472470",
    "native": null,
    "timezone": null,
    "translations": {}
  },
  {
    "id": 84352,
    "name": "Romblon",
    "state_id": 1269,
    "state_code": "ROM",
    "country_id": 174,
    "country_code": "PH",
    "latitude": "12.57434520",
    "longitude": "122.19706140",
    "native": null,
    "timezone": null,
    "translations": {}
  },
  {
    "id": 154794,
    "name": "San Agustin",
    "state_id": 1269,
    "state_code": "ROM",
    "country_id": 174,
    "country_code": "PH",
    "latitude": "12.55756780",
    "longitude": "122.03517860",
    "native": null,
    "timezone": null,
    "translations": {}
  },
  {
    "id": 154795,
    "name": "San Andres",
    "state_id": 1269,
    "state_code": "ROM",
    "country_id": 174,
    "country_code": "PH",
    "latitude": "12.54035430",
    "longitude": "121.96214290",
    "native": null,
    "timezone": null,
    "translations": {}
  },
  {
    "id": 154796,
    "name": "San Fernando",
    "state_id": 1269,
    "state_code": "ROM",
    "country_id": 174,
    "country_code": "PH",
    "latitude": "12.35757380",
    "longitude": "122.38115360",
    "native": null,
    "timezone": null,
    "translations": {}
  },
  {
    "id": 154797,
    "name": "San Jose",
    "state_id": 1269,
    "state_code": "ROM",
    "country_id": 174,
    "country_code": "PH",
    "latitude": "12.06445510",
    "longitude": "121.89554110",
    "native": null,
    "timezone": null,
    "translations": {}
  },
  {
    "id": 154798,
    "name": "Santa Fe",
    "state_id": 1269,
    "state_code": "ROM",
    "country_id": 174,
    "country_code": "PH",
    "latitude": "12.15366320",
    "longitude": "121.93132960",
    "native": null,
    "timezone": null,
    "translations": {}
  },
  {
    "id": 154799,
    "name": "Santa Maria",
    "state_id": 1269,
    "state_code": "ROM",
    "country_id": 174,
    "country_code": "PH",
    "latitude": "12.40456960",
    "longitude": "122.04353480",
    "native": null,
    "timezone": null,
    "translations": {}
  }
]