[
  {
    "id": 31769,
    "name": "Al Fayyūm",
    "state_id": 3238,
    "state_code": "FYM",
    "country_id": 65,
    "country_code": "EG",
    "latitude": "29.30995000",
    "longitude": "30.84180000",
    "native": null,
    "timezone": null,
    "translations": {}
  },
  {
    "id": 31782,
    "name": "Al Wāsiţah",
    "state_id": 3238,
    "state_code": "FYM",
    "country_id": 65,
    "country_code": "EG",
    "latitude": "29.33778000",
    "longitude": "31.20556000",
    "native": null,
    "timezone": null,
    "translations": {}
  },
  {
    "id": 31818,
    "name": "Ibshawāy",
    "state_id": 3238,
    "state_code": "FYM",
    "country_id": 65,
    "country_code": "EG",
    "latitude": "29.35896000",
    "longitude": "30.68061000",
    "native": null,
    "timezone": null,
    "translations": {}
  },
  {
    "id": 31823,
    "name": "Iţsā",
    "state_id": 3238,
    "state_code": "FYM",
    "country_id": 65,
    "country_code": "EG",
    "latitude": "29.23760000",
    "longitude": "30.78944000",
    "native": null,
    "timezone": null,
    "translations": {}
  },
  {
    "id": 31877,
    "name": "Ţāmiyah",
    "state_id": 3238,
    "state_code": "FYM",
    "country_id": 65,
    "country_code": "EG",
    "latitude": "29.47639000",
    "longitude": "30.96119000",
    "native": null,
    "timezone": null,
    "translations": {}
  }
]