[
  {
    "id": 67282,
    "name": "Camenca",
    "state_id": 4395,
    "state_code": "SN",
    "country_id": 144,
    "country_code": "MD",
    "latitude": "48.03233000",
    "longitude": "28.69899000",
    "native": null,
    "timezone": null,
    "translations": {}
  },
  {
    "id": 67291,
    "name": "Crasnoe",
    "state_id": 4395,
    "state_code": "SN",
    "country_id": 144,
    "country_code": "MD",
    "latitude": "46.64844000",
    "longitude": "29.80403000",
    "native": null,
    "timezone": null,
    "translations": {}
  },
  {
    "id": 67297,
    "name": "Dnestrovsc",
    "state_id": 4395,
    "state_code": "SN",
    "country_id": 144,
    "country_code": "MD",
    "latitude": "46.61640000",
    "longitude": "29.91926000",
    "native": null,
    "timezone": null,
    "translations": {}
  },
  {
    "id": 67300,
    "name": "Dubăsari",
    "state_id": 4395,
    "state_code": "SN",
    "country_id": 144,
    "country_code": "MD",
    "latitude": "47.26562000",
    "longitude": "29.16667000",
    "native": null,
    "timezone": null,
    "translations": {}
  },
  {
    "id": 67307,
    "name": "Hryhoriopol",
    "state_id": 4395,
    "state_code": "SN",
    "country_id": 144,
    "country_code": "MD",
    "latitude": "47.15413000",
    "longitude": "29.30008000",
    "native": null,
    "timezone": null,
    "translations": {}
  },
  {
    "id": 67311,
    "name": "Maiac",
    "state_id": 4395,
    "state_code": "SN",
    "country_id": 144,
    "country_code": "MD",
    "latitude": "47.23727000",
    "longitude": "29.38498000",
    "native": null,
    "timezone": null,
    "translations": {}
  },
  {
    "id": 67318,
    "name": "Pervomaisc",
    "state_id": 4395,
    "state_code": "SN",
    "country_id": 144,
    "country_code": "MD",
    "latitude": "46.73253000",
    "longitude": "29.96170000",
    "native": null,
    "timezone": null,
    "translations": {}
  },
  {
    "id": 67320,
    "name": "Rîbniţa",
    "state_id": 4395,
    "state_code": "SN",
    "country_id": 144,
    "country_code": "MD",
    "latitude": "47.76817000",
    "longitude": "29.01000000",
    "native": null,
    "timezone": null,
    "translations": {}
  },
  {
    "id": 67323,
    "name": "Slobozia",
    "state_id": 4395,
    "state_code": "SN",
    "country_id": 144,
    "country_code": "MD",
    "latitude": "46.72927000",
    "longitude": "29.70446000",
    "native": null,
    "timezone": null,
    "translations": {}
  },
  {
    "id": 67331,
    "name": "Tiraspol",
    "state_id": 4395,
    "state_code": "SN",
    "country_id": 144,
    "country_code": "MD",
    "latitude": "46.84274000",
    "longitude": "29.62909000",
    "native": null,
    "timezone": null,
    "translations": {}
  },
  {
    "id": 67332,
    "name": "Tiraspolul Nou",
    "state_id": 4395,
    "state_code": "SN",
    "country_id": 144,
    "country_code": "MD",
    "latitude": "46.82874000",
    "longitude": "29.52174000",
    "native": null,
    "timezone": null,
    "translations": {}
  }
]