[
  {
    "id": 5415,
    "name": "Acoua",
    "country_id": 141,
    "country_code": "YT",
    "fips_code": null,
    "iso2": "14",
    "type": "commune",
    "latitude": "-12.72432450",
    "longitude": "45.05893720",
    "native": "Acoua",
    "timezone": "Indian/Mayotte",
    "translations": {}
  },
  {
    "id": 5417,
    "name": "Bandraboua",
    "country_id": 141,
    "country_code": "YT",
    "fips_code": null,
    "iso2": "16",
    "type": "commune",
    "latitude": "-12.70454820",
    "longitude": "45.12219260",
    "native": "Bandraboua",
    "timezone": "Indian/Mayotte",
    "translations": {}
  },
  {
    "id": 5406,
    "name": "Bandrélé",
    "country_id": 141,
    "country_code": "YT",
    "fips_code": null,
    "iso2": "05",
    "type": "commune",
    "latitude": "-12.91335860",
    "longitude": "45.19286770",
    "native": "Bandrelé",
    "timezone": "Indian/Mayotte",
    "translations": {}
  },
  {
    "id": 5408,
    "name": "Boueni",
    "country_id": 141,
    "country_code": "YT",
    "fips_code": null,
    "iso2": "07",
    "type": "commune",
    "latitude": "-12.91070860",
    "longitude": "45.08012560",
    "native": "Bouen",
    "timezone": "Indian/Mayotte",
    "translations": {}
  },
  {
    "id": 5412,
    "name": "Chiconi",
    "country_id": 141,
    "country_code": "YT",
    "fips_code": null,
    "iso2": "11",
    "type": "commune",
    "latitude": "-12.83234970",
    "longitude": "45.11497660",
    "native": "Chiconi",
    "timezone": "Indian/Mayotte",
    "translations": {}
  },
  {
    "id": 5409,
    "name": "Chirongui",
    "country_id": 141,
    "country_code": "YT",
    "fips_code": null,
    "iso2": "08",
    "type": "commune",
    "latitude": "-12.93544000",
    "longitude": "45.14921570",
    "native": "Chirongui",
    "timezone": "Indian/Mayotte",
    "translations": {}
  },
  {
    "id": 5405,
    "name": "Dembeni",
    "country_id": 141,
    "country_code": "YT",
    "fips_code": null,
    "iso2": "04",
    "type": "commune",
    "latitude": "-12.84330810",
    "longitude": "45.18399540",
    "native": "Débat",
    "timezone": "Indian/Mayotte",
    "translations": {}
  },
  {
    "id": 5402,
    "name": "Dzaoudzi",
    "country_id": 141,
    "country_code": "YT",
    "fips_code": null,
    "iso2": "01",
    "type": "commune",
    "latitude": "-12.77606510",
    "longitude": "45.25632460",
    "native": "Leur",
    "timezone": "Indian/Mayotte",
    "translations": {}
  },
  {
    "id": 5407,
    "name": "Kani Keli",
    "country_id": 141,
    "country_code": "YT",
    "fips_code": null,
    "iso2": "06",
    "type": "commune",
    "latitude": "-12.95652220",
    "longitude": "45.10526060",
    "native": "Ce seul",
    "timezone": "Indian/Mayotte",
    "translations": {}
  },
  {
    "id": 5418,
    "name": "Koungou",
    "country_id": 141,
    "country_code": "YT",
    "fips_code": null,
    "iso2": "17",
    "type": "commune",
    "latitude": "-12.73575300",
    "longitude": "45.20674590",
    "native": "Maintenant",
    "timezone": "Indian/Mayotte",
    "translations": {}
  },
  {
    "id": 5414,
    "name": "M'Tsangamouji",
    "country_id": 141,
    "country_code": "YT",
    "fips_code": null,
    "iso2": "13",
    "type": "commune",
    "latitude": "-12.76019410",
    "longitude": "45.08768920",
    "native": "Entrée",
    "timezone": "Indian/Mayotte",
    "translations": {}
  },
  {
    "id": 5404,
    "name": "Mamoudzou",
    "country_id": 141,
    "country_code": "YT",
    "fips_code": null,
    "iso2": "03",
    "type": "commune",
    "latitude": "-12.78041360",
    "longitude": "45.22797610",
    "native": "Mamoudzou",
    "timezone": "Indian/Mayotte",
    "translations": {}
  },
  {
    "id": 5416,
    "name": "Mtsamboro",
    "country_id": 141,
    "country_code": "YT",
    "fips_code": null,
    "iso2": "15",
    "type": "commune",
    "latitude": "-12.69969690",
    "longitude": "45.06799040",
    "native": "Mtsamboro",
    "timezone": "Indian/Mayotte",
    "translations": {}
  },
  {
    "id": 5411,
    "name": "Ouangani",
    "country_id": 141,
    "country_code": "YT",
    "fips_code": null,
    "iso2": "10",
    "type": "commune",
    "latitude": "-12.84982350",
    "longitude": "45.13986640",
    "native": "Ambitieux",
    "timezone": "Indian/Mayotte",
    "translations": {}
  },
  {
    "id": 5403,
    "name": "Pamandzi",
    "country_id": 141,
    "country_code": "YT",
    "fips_code": null,
    "iso2": "02",
    "type": "commune",
    "latitude": "-12.79834460",
    "longitude": "45.27465150",
    "native": "En ville",
    "timezone": "Indian/Mayotte",
    "translations": {}
  },
  {
    "id": 5410,
    "name": "Sada",
    "country_id": 141,
    "country_code": "YT",
    "fips_code": null,
    "iso2": "09",
    "type": "commune",
    "latitude": "-12.85182890",
    "longitude": "45.09931690",
    "native": "Maintenant",
    "timezone": "Indian/Mayotte",
    "translations": {}
  },
  {
    "id": 5413,
    "name": "Tsingoni",
    "country_id": 141,
    "country_code": "YT",
    "fips_code": null,
    "iso2": "12",
    "type": "commune",
    "latitude": "-12.78972520",
    "longitude": "45.10380550",
    "native": "Tsingoni",
    "timezone": "Indian/Mayotte",
    "translations": {}
  }
]