[
  {
    "id": 629,
    "name": "Berat",
    "country_id": 3,
    "country_code": "AL",
    "fips_code": null,
    "iso2": "BR",
    "type": "district",
    "latitude": "40.70186360",
    "longitude": "19.95807580",
    "native": "I rëndë",
    "timezone": "Europe/Tirane",
    "translations": {}
  },
  {
    "id": 603,
    "name": "Berat",
    "country_id": 3,
    "country_code": "AL",
    "fips_code": null,
    "iso2": "01",
    "type": "county",
    "latitude": "40.70186360",
    "longitude": "19.95807580",
    "native": "I rëndë",
    "timezone": "Europe/Tirane",
    "translations": {}
  },
  {
    "id": 607,
    "name": "Bulqizë",
    "country_id": 3,
    "country_code": "AL",
    "fips_code": null,
    "iso2": "BU",
    "type": "district",
    "latitude": "41.49425870",
    "longitude": "20.21471570",
    "native": "Bulqizë",
    "timezone": "Europe/Tirane",
    "translations": {}
  },
  {
    "id": 618,
    "name": "Delvinë",
    "country_id": 3,
    "country_code": "AL",
    "fips_code": null,
    "iso2": "DL",
    "type": "district",
    "latitude": "39.94813640",
    "longitude": "20.09558910",
    "native": "Delvinë",
    "timezone": "Europe/Tirane",
    "translations": {}
  },
  {
    "id": 608,
    "name": "Devoll",
    "country_id": 3,
    "country_code": "AL",
    "fips_code": null,
    "iso2": "DV",
    "type": "district",
    "latitude": "40.69055940",
    "longitude": "20.47860860",
    "native": "Devoll",
    "timezone": "Europe/Tirane",
    "translations": {}
  },
  {
    "id": 610,
    "name": "Dibër",
    "country_id": 3,
    "country_code": "AL",
    "fips_code": null,
    "iso2": "09",
    "type": "county",
    "latitude": "41.62219200",
    "longitude": "20.18081600",
    "native": "Dibër",
    "timezone": "Europe/Tirane",
    "translations": {}
  },
  {
    "id": 605,
    "name": "Dibër",
    "country_id": 3,
    "country_code": "AL",
    "fips_code": null,
    "iso2": "DI",
    "type": "district",
    "latitude": "41.62219200",
    "longitude": "20.18081600",
    "native": "Dibër",
    "timezone": "Europe/Tirane",
    "translations": {}
  },
  {
    "id": 639,
    "name": "Durrës",
    "country_id": 3,
    "country_code": "AL",
    "fips_code": null,
    "iso2": "DR",
    "type": "district",
    "latitude": "41.42798630",
    "longitude": "19.53733720",
    "native": "Durrës",
    "timezone": "Europe/Tirane",
    "translations": {}
  },
  {
    "id": 632,
    "name": "Durrës",
    "country_id": 3,
    "country_code": "AL",
    "fips_code": null,
    "iso2": "02",
    "type": "county",
    "latitude": "41.42798630",
    "longitude": "19.53733720",
    "native": "Durrës",
    "timezone": "Europe/Tirane",
    "translations": {}
  },
  {
    "id": 598,
    "name": "Elbasan",
    "country_id": 3,
    "country_code": "AL",
    "fips_code": null,
    "iso2": "03",
    "type": "county",
    "latitude": "41.05108290",
    "longitude": "20.13985260",
    "native": "Elbasan",
    "timezone": "Europe/Tirane",
    "translations": {}
  },
  {
    "id": 627,
    "name": "Fier",
    "country_id": 3,
    "country_code": "AL",
    "fips_code": null,
    "iso2": "FR",
    "type": "district",
    "latitude": "40.72750400",
    "longitude": "19.56275960",
    "native": "Hekuros",
    "timezone": "Europe/Tirane",
    "translations": {}
  },
  {
    "id": 631,
    "name": "Fier",
    "country_id": 3,
    "country_code": "AL",
    "fips_code": null,
    "iso2": "04",
    "type": "county",
    "latitude": "40.91913920",
    "longitude": "19.66393090",
    "native": "Hekuros",
    "timezone": "Europe/Tirane",
    "translations": {}
  },
  {
    "id": 621,
    "name": "Gjirokastër",
    "country_id": 3,
    "country_code": "AL",
    "fips_code": null,
    "iso2": "GJ",
    "type": "district",
    "latitude": "40.07708710",
    "longitude": "20.13933590",
    "native": "Gjirokastër",
    "timezone": "Europe/Tirane",
    "translations": {}
  },
  {
    "id": 604,
    "name": "Gjirokastër",
    "country_id": 3,
    "country_code": "AL",
    "fips_code": null,
    "iso2": "05",
    "type": "county",
    "latitude": "40.07708710",
    "longitude": "20.13933590",
    "native": "Gjirokastër",
    "timezone": "Europe/Tirane",
    "translations": {}
  },
  {
    "id": 617,
    "name": "Gramsh",
    "country_id": 3,
    "country_code": "AL",
    "fips_code": null,
    "iso2": "GR",
    "type": "district",
    "latitude": "40.86698730",
    "longitude": "20.18493230",
    "native": "Gramsh",
    "timezone": "Europe/Tirane",
    "translations": {}
  },
  {
    "id": 600,
    "name": "Has",
    "country_id": 3,
    "country_code": "AL",
    "fips_code": null,
    "iso2": "HA",
    "type": "district",
    "latitude": "42.19583610",
    "longitude": "20.41624760",
    "native": "Ka",
    "timezone": "Europe/Tirane",
    "translations": {}
  },
  {
    "id": 594,
    "name": "Kavajë",
    "country_id": 3,
    "country_code": "AL",
    "fips_code": null,
    "iso2": "KA",
    "type": "district",
    "latitude": "41.18445290",
    "longitude": "19.56275960",
    "native": "Kavajë",
    "timezone": "Europe/Tirane",
    "translations": {}
  },
  {
    "id": 628,
    "name": "Kolonjë",
    "country_id": 3,
    "country_code": "AL",
    "fips_code": null,
    "iso2": "ER",
    "type": "district",
    "latitude": "40.28455590",
    "longitude": "20.59919710",
    "native": "Kolonjë",
    "timezone": "Europe/Tirane",
    "translations": {}
  },
  {
    "id": 630,
    "name": "Korçë",
    "country_id": 3,
    "country_code": "AL",
    "fips_code": null,
    "iso2": "06",
    "type": "county",
    "latitude": "40.58587530",
    "longitude": "20.73613150",
    "native": "Korçë",
    "timezone": "Europe/Tirane",
    "translations": {}
  },
  {
    "id": 597,
    "name": "Korçë",
    "country_id": 3,
    "country_code": "AL",
    "fips_code": null,
    "iso2": "KO",
    "type": "district",
    "latitude": "40.58587530",
    "longitude": "20.73613150",
    "native": "Korçë",
    "timezone": "Europe/Tirane",
    "translations": {}
  },
  {
    "id": 614,
    "name": "Krujë",
    "country_id": 3,
    "country_code": "AL",
    "fips_code": null,
    "iso2": "KR",
    "type": "district",
    "latitude": "41.50947650",
    "longitude": "19.77107320",
    "native": "Krujë",
    "timezone": "Europe/Tirane",
    "translations": {}
  },
  {
    "id": 612,
    "name": "Kuçovë",
    "country_id": 3,
    "country_code": "AL",
    "fips_code": null,
    "iso2": "KC",
    "type": "district",
    "latitude": "40.80441500",
    "longitude": "19.91344480",
    "native": "Kuçovë",
    "timezone": "Europe/Tirane",
    "translations": {}
  },
  {
    "id": 623,
    "name": "Kukës",
    "country_id": 3,
    "country_code": "AL",
    "fips_code": null,
    "iso2": "KU",
    "type": "district",
    "latitude": "42.18856640",
    "longitude": "20.37696330",
    "native": "Kukës",
    "timezone": "Europe/Tirane",
    "translations": {}
  },
  {
    "id": 601,
    "name": "Kukës",
    "country_id": 3,
    "country_code": "AL",
    "fips_code": null,
    "iso2": "07",
    "type": "county",
    "latitude": "42.18856640",
    "longitude": "20.37696330",
    "native": "Kukës",
    "timezone": "Europe/Tirane",
    "translations": {}
  },
  {
    "id": 622,
    "name": "Kurbin",
    "country_id": 3,
    "country_code": "AL",
    "fips_code": null,
    "iso2": "KB",
    "type": "district",
    "latitude": "41.64126440",
    "longitude": "19.70559500",
    "native": "Kurbin",
    "timezone": "Europe/Tirane",
    "translations": {}
  },
  {
    "id": 609,
    "name": "Lezhë",
    "country_id": 3,
    "country_code": "AL",
    "fips_code": null,
    "iso2": "08",
    "type": "county",
    "latitude": "41.78137590",
    "longitude": "19.80679160",
    "native": "Lezhë",
    "timezone": "Europe/Tirane",
    "translations": {}
  },
  {
    "id": 595,
    "name": "Lezhë",
    "country_id": 3,
    "country_code": "AL",
    "fips_code": null,
    "iso2": "LE",
    "type": "district",
    "latitude": "41.78607300",
    "longitude": "19.64607580",
    "native": "Lezhë",
    "timezone": "Europe/Tirane",
    "translations": {}
  },
  {
    "id": 596,
    "name": "Librazhd",
    "country_id": 3,
    "country_code": "AL",
    "fips_code": null,
    "iso2": "LB",
    "type": "district",
    "latitude": "41.18292320",
    "longitude": "20.31747690",
    "native": "Librazhd",
    "timezone": "Europe/Tirane",
    "translations": {}
  },
  {
    "id": 599,
    "name": "Lushnjë",
    "country_id": 3,
    "country_code": "AL",
    "fips_code": null,
    "iso2": "LU",
    "type": "district",
    "latitude": "40.94198300",
    "longitude": "19.69964280",
    "native": "Lushnjë",
    "timezone": "Europe/Tirane",
    "translations": {}
  },
  {
    "id": 602,
    "name": "Malësi e Madhe",
    "country_id": 3,
    "country_code": "AL",
    "fips_code": null,
    "iso2": "MM",
    "type": "district",
    "latitude": "42.38241390",
    "longitude": "19.57506290",
    "native": "Malësi e Madhe",
    "timezone": "Europe/Tirane",
    "translations": {}
  },
  {
    "id": 637,
    "name": "Mallakastër",
    "country_id": 3,
    "country_code": "AL",
    "fips_code": null,
    "iso2": "MK",
    "type": "district",
    "latitude": "40.54145910",
    "longitude": "19.76558240",
    "native": "Mallakastër",
    "timezone": "Europe/Tirane",
    "translations": {}
  },
  {
    "id": 635,
    "name": "Mat",
    "country_id": 3,
    "country_code": "AL",
    "fips_code": null,
    "iso2": "MT",
    "type": "district",
    "latitude": "41.66252520",
    "longitude": "19.94694680",
    "native": "Shirit",
    "timezone": "Europe/Tirane",
    "translations": {}
  },
  {
    "id": 638,
    "name": "Mirditë",
    "country_id": 3,
    "country_code": "AL",
    "fips_code": null,
    "iso2": "MR",
    "type": "district",
    "latitude": "41.85941070",
    "longitude": "20.01813370",
    "native": "Mirditë",
    "timezone": "Europe/Tirane",
    "translations": {}
  },
  {
    "id": 619,
    "name": "Peqin",
    "country_id": 3,
    "country_code": "AL",
    "fips_code": null,
    "iso2": "PQ",
    "type": "district",
    "latitude": "41.04709020",
    "longitude": "19.75023840",
    "native": "Peqin",
    "timezone": "Europe/Tirane",
    "translations": {}
  },
  {
    "id": 625,
    "name": "Përmet",
    "country_id": 3,
    "country_code": "AL",
    "fips_code": null,
    "iso2": "PR",
    "type": "district",
    "latitude": "40.23618370",
    "longitude": "20.35173340",
    "native": "Përmet",
    "timezone": "Europe/Tirane",
    "translations": {}
  },
  {
    "id": 606,
    "name": "Pogradec",
    "country_id": 3,
    "country_code": "AL",
    "fips_code": null,
    "iso2": "PG",
    "type": "district",
    "latitude": "40.90153140",
    "longitude": "20.65562890",
    "native": "Pogradec",
    "timezone": "Europe/Tirane",
    "translations": {}
  },
  {
    "id": 620,
    "name": "Pukë",
    "country_id": 3,
    "country_code": "AL",
    "fips_code": null,
    "iso2": "PU",
    "type": "district",
    "latitude": "42.04697720",
    "longitude": "19.89609680",
    "native": "Pukë",
    "timezone": "Europe/Tirane",
    "translations": {}
  },
  {
    "id": 624,
    "name": "Sarandë",
    "country_id": 3,
    "country_code": "AL",
    "fips_code": null,
    "iso2": "SR",
    "type": "district",
    "latitude": "39.87521980",
    "longitude": "20.00652580",
    "native": "Sarandë",
    "timezone": "Europe/Tirane",
    "translations": {}
  },
  {
    "id": 611,
    "name": "Shkodër",
    "country_id": 3,
    "country_code": "AL",
    "fips_code": null,
    "iso2": "10",
    "type": "county",
    "latitude": "42.25076770",
    "longitude": "19.59597230",
    "native": "Shkodër",
    "timezone": "Europe/Tirane",
    "translations": {}
  },
  {
    "id": 626,
    "name": "Shkodër",
    "country_id": 3,
    "country_code": "AL",
    "fips_code": null,
    "iso2": "SH",
    "type": "district",
    "latitude": "42.25076770",
    "longitude": "19.59597230",
    "native": "Shkodër",
    "timezone": "Europe/Tirane",
    "translations": {}
  },
  {
    "id": 593,
    "name": "Skrapar",
    "country_id": 3,
    "country_code": "AL",
    "fips_code": null,
    "iso2": "SK",
    "type": "district",
    "latitude": "40.53931280",
    "longitude": "20.25088680",
    "native": "Gërvishtje",
    "timezone": "Europe/Tirane",
    "translations": {}
  },
  {
    "id": 616,
    "name": "Tepelenë",
    "country_id": 3,
    "country_code": "AL",
    "fips_code": null,
    "iso2": "TE",
    "type": "district",
    "latitude": "40.29666320",
    "longitude": "20.01816730",
    "native": "Tepelenë",
    "timezone": "Europe/Tirane",
    "translations": {}
  },
  {
    "id": 633,
    "name": "Tirana",
    "country_id": 3,
    "country_code": "AL",
    "fips_code": null,
    "iso2": "TR",
    "type": "district",
    "latitude": "41.25844780",
    "longitude": "19.83026560",
    "native": "Tiranë",
    "timezone": "Europe/Tirane",
    "translations": {}
  },
  {
    "id": 615,
    "name": "Tirana",
    "country_id": 3,
    "country_code": "AL",
    "fips_code": null,
    "iso2": "11",
    "type": "county",
    "latitude": "41.25844780",
    "longitude": "19.83026560",
    "native": "Tiranë",
    "timezone": "Europe/Tirane",
    "translations": {}
  },
  {
    "id": 636,
    "name": "Tropojë",
    "country_id": 3,
    "country_code": "AL",
    "fips_code": null,
    "iso2": "TP",
    "type": "district",
    "latitude": "42.39821510",
    "longitude": "20.16259550",
    "native": "Tropojë",
    "timezone": "Europe/Tirane",
    "translations": {}
  },
  {
    "id": 634,
    "name": "Vlorë",
    "country_id": 3,
    "country_code": "AL",
    "fips_code": null,
    "iso2": "12",
    "type": "county",
    "latitude": "40.15009600",
    "longitude": "19.80679160",
    "native": "Vlorë",
    "timezone": "Europe/Tirane",
    "translations": {}
  },
  {
    "id": 613,
    "name": "Vlorë",
    "country_id": 3,
    "country_code": "AL",
    "fips_code": null,
    "iso2": "VL",
    "type": "district",
    "latitude": "40.46606680",
    "longitude": "19.49135600",
    "native": "Vlorë",
    "timezone": "Europe/Tirane",
    "translations": {}
  }
]