[
  {
    "id": 85781,
    "name": "Aleksandrów Kujawski",
    "state_id": 1625,
    "state_code": "04",
    "country_id": 176,
    "country_code": "PL",
    "latitude": "52.87659000",
    "longitude": "18.69345000",
    "native": null,
    "timezone": null,
    "translations": {}
  },
  {
    "id": 85808,
    "name": "Barcin",
    "state_id": 1625,
    "state_code": "04",
    "country_id": 176,
    "country_code": "PL",
    "latitude": "52.86607000",
    "longitude": "17.94625000",
    "native": null,
    "timezone": null,
    "translations": {}
  },
  {
    "id": 85812,
    "name": "Bartniczka",
    "state_id": 1625,
    "state_code": "04",
    "country_id": 176,
    "country_code": "PL",
    "latitude": "53.24776000",
    "longitude": "19.60433000",
    "native": null,
    "timezone": null,
    "translations": {}
  },
  {
    "id": 85814,
    "name": "Baruchowo",
    "state_id": 1625,
    "state_code": "04",
    "country_id": 176,
    "country_code": "PL",
    "latitude": "52.49412000",
    "longitude": "19.26496000",
    "native": null,
    "timezone": null,
    "translations": {}
  },
  {
    "id": 85839,
    "name": "Białe Błota",
    "state_id": 1625,
    "state_code": "04",
    "country_id": 176,
    "country_code": "PL",
    "latitude": "53.09516000",
    "longitude": "17.91621000",
    "native": null,
    "timezone": null,
    "translations": {}
  },
  {
    "id": 85889,
    "name": "Bobrowniki",
    "state_id": 1625,
    "state_code": "04",
    "country_id": 176,
    "country_code": "PL",
    "latitude": "52.78086000",
    "longitude": "18.96026000",
    "native": null,
    "timezone": null,
    "translations": {}
  },
  {
    "id": 85891,
    "name": "Bobrowo",
    "state_id": 1625,
    "state_code": "04",
    "country_id": 176,
    "country_code": "PL",
    "latitude": "53.28549000",
    "longitude": "19.27053000",
    "native": null,
    "timezone": null,
    "translations": {}
  },
  {
    "id": 85917,
    "name": "Boniewo",
    "state_id": 1625,
    "state_code": "04",
    "country_id": 176,
    "country_code": "PL",
    "latitude": "52.46532000",
    "longitude": "18.89116000",
    "native": null,
    "timezone": null,
    "translations": {}
  },
  {
    "id": 85943,
    "name": "Brodnica",
    "state_id": 1625,
    "state_code": "04",
    "country_id": 176,
    "country_code": "PL",
    "latitude": "53.25967000",
    "longitude": "19.39653000",
    "native": null,
    "timezone": null,
    "translations": {}
  },
  {
    "id": 85966,
    "name": "Brześć Kujawski",
    "state_id": 1625,
    "state_code": "04",
    "country_id": 176,
    "country_code": "PL",
    "latitude": "52.60532000",
    "longitude": "18.90173000",
    "native": null,
    "timezone": null,
    "translations": {}
  },
  {
    "id": 85971,
    "name": "Brzozie",
    "state_id": 1625,
    "state_code": "04",
    "country_id": 176,
    "country_code": "PL",
    "latitude": "53.32554000",
    "longitude": "19.60485000",
    "native": null,
    "timezone": null,
    "translations": {}
  },
  {
    "id": 85973,
    "name": "Brzuze",
    "state_id": 1625,
    "state_code": "04",
    "country_id": 176,
    "country_code": "PL",
    "latitude": "53.05458000",
    "longitude": "19.26195000",
    "native": null,
    "timezone": null,
    "translations": {}
  },
  {
    "id": 85989,
    "name": "Bukowiec",
    "state_id": 1625,
    "state_code": "04",
    "country_id": 176,
    "country_code": "PL",
    "latitude": "53.43383000",
    "longitude": "18.24048000",
    "native": null,
    "timezone": null,
    "translations": {}
  },
  {
    "id": 85999,
    "name": "Bydgoszcz",
    "state_id": 1625,
    "state_code": "04",
    "country_id": 176,
    "country_code": "PL",
    "latitude": "53.12350000",
    "longitude": "18.00762000",
    "native": null,
    "timezone": null,
    "translations": {}
  },
  {
    "id": 86007,
    "name": "Bytoń",
    "state_id": 1625,
    "state_code": "04",
    "country_id": 176,
    "country_code": "PL",
    "latitude": "52.55757000",
    "longitude": "18.59522000",
    "native": null,
    "timezone": null,
    "translations": {}
  },
  {
    "id": 86021,
    "name": "Cekcyn",
    "state_id": 1625,
    "state_code": "04",
    "country_id": 176,
    "country_code": "PL",
    "latitude": "53.57294000",
    "longitude": "18.01123000",
    "native": null,
    "timezone": null,
    "translations": {}
  },
  {
    "id": 86031,
    "name": "Chełmno",
    "state_id": 1625,
    "state_code": "04",
    "country_id": 176,
    "country_code": "PL",
    "latitude": "53.34855000",
    "longitude": "18.42510000",
    "native": null,
    "timezone": null,
    "translations": {}
  },
  {
    "id": 86032,
    "name": "Chełmża",
    "state_id": 1625,
    "state_code": "04",
    "country_id": 176,
    "country_code": "PL",
    "latitude": "53.18463000",
    "longitude": "18.60466000",
    "native": null,
    "timezone": null,
    "translations": {}
  },
  {
    "id": 86038,
    "name": "Choceń",
    "state_id": 1625,
    "state_code": "04",
    "country_id": 176,
    "country_code": "PL",
    "latitude": "52.48618000",
    "longitude": "19.01339000",
    "native": null,
    "timezone": null,
    "translations": {}
  },
  {
    "id": 86044,
    "name": "Chodecz",
    "state_id": 1625,
    "state_code": "04",
    "country_id": 176,
    "country_code": "PL",
    "latitude": "52.40513000",
    "longitude": "19.02759000",
    "native": null,
    "timezone": null,
    "translations": {}
  },
  {
    "id": 86058,
    "name": "Chrostkowo",
    "state_id": 1625,
    "state_code": "04",
    "country_id": 176,
    "country_code": "PL",
    "latitude": "52.94378000",
    "longitude": "19.25328000",
    "native": null,
    "timezone": null,
    "translations": {}
  },
  {
    "id": 86078,
    "name": "Ciechocin",
    "state_id": 1625,
    "state_code": "04",
    "country_id": 176,
    "country_code": "PL",
    "latitude": "53.05581000",
    "longitude": "18.92635000",
    "native": null,
    "timezone": null,
    "translations": {}
  },
  {
    "id": 86079,
    "name": "Ciechocinek",
    "state_id": 1625,
    "state_code": "04",
    "country_id": 176,
    "country_code": "PL",
    "latitude": "52.87908000",
    "longitude": "18.79505000",
    "native": null,
    "timezone": null,
    "translations": {}
  },
  {
    "id": 86136,
    "name": "Czerniewice",
    "state_id": 1625,
    "state_code": "04",
    "country_id": 176,
    "country_code": "PL",
    "latitude": "52.51157000",
    "longitude": "19.08694000",
    "native": null,
    "timezone": null,
    "translations": {}
  },
  {
    "id": 86137,
    "name": "Czernikowo",
    "state_id": 1625,
    "state_code": "04",
    "country_id": 176,
    "country_code": "PL",
    "latitude": "52.94688000",
    "longitude": "18.93803000",
    "native": null,
    "timezone": null,
    "translations": {}
  },
  {
    "id": 86237,
    "name": "Dąbrowa",
    "state_id": 1625,
    "state_code": "04",
    "country_id": 176,
    "country_code": "PL",
    "latitude": "52.74668000",
    "longitude": "17.94342000",
    "native": null,
    "timezone": null,
    "translations": {}
  },
  {
    "id": 86239,
    "name": "Dąbrowa Chełmińska",
    "state_id": 1625,
    "state_code": "04",
    "country_id": 176,
    "country_code": "PL",
    "latitude": "53.17518000",
    "longitude": "18.30537000",
    "native": null,
    "timezone": null,
    "translations": {}
  },
  {
    "id": 86254,
    "name": "Dębowa Łąka",
    "state_id": 1625,
    "state_code": "04",
    "country_id": 176,
    "country_code": "PL",
    "latitude": "53.25541000",
    "longitude": "19.09595000",
    "native": null,
    "timezone": null,
    "translations": {}
  },
  {
    "id": 86171,
    "name": "Dobre",
    "state_id": 1625,
    "state_code": "04",
    "country_id": 176,
    "country_code": "PL",
    "latitude": "52.68398000",
    "longitude": "18.57762000",
    "native": null,
    "timezone": null,
    "translations": {}
  },
  {
    "id": 86180,
    "name": "Dobrzyń nad Wisłą",
    "state_id": 1625,
    "state_code": "04",
    "country_id": 176,
    "country_code": "PL",
    "latitude": "52.63814000",
    "longitude": "19.31875000",
    "native": null,
    "timezone": null,
    "translations": {}
  },
  {
    "id": 86203,
    "name": "Drzycim",
    "state_id": 1625,
    "state_code": "04",
    "country_id": 176,
    "country_code": "PL",
    "latitude": "53.50520000",
    "longitude": "18.30940000",
    "native": null,
    "timezone": null,
    "translations": {}
  },
  {
    "id": 86266,
    "name": "Fabianki",
    "state_id": 1625,
    "state_code": "04",
    "country_id": 176,
    "country_code": "PL",
    "latitude": "52.71929000",
    "longitude": "19.10943000",
    "native": null,
    "timezone": null,
    "translations": {}
  },
  {
    "id": 86272,
    "name": "Fordon",
    "state_id": 1625,
    "state_code": "04",
    "country_id": 176,
    "country_code": "PL",
    "latitude": "53.14821000",
    "longitude": "18.17036000",
    "native": null,
    "timezone": null,
    "translations": {}
  },
  {
    "id": 86424,
    "name": "Gąsawa",
    "state_id": 1625,
    "state_code": "04",
    "country_id": 176,
    "country_code": "PL",
    "latitude": "52.76757000",
    "longitude": "17.75579000",
    "native": null,
    "timezone": null,
    "translations": {}
  },
  {
    "id": 86312,
    "name": "Gniewkowo",
    "state_id": 1625,
    "state_code": "04",
    "country_id": 176,
    "country_code": "PL",
    "latitude": "52.89461000",
    "longitude": "18.40785000",
    "native": null,
    "timezone": null,
    "translations": {}
  },
  {
    "id": 86329,
    "name": "Golub-Dobrzyń",
    "state_id": 1625,
    "state_code": "04",
    "country_id": 176,
    "country_code": "PL",
    "latitude": "53.11087000",
    "longitude": "19.05381000",
    "native": null,
    "timezone": null,
    "translations": {}
  },
  {
    "id": 86419,
    "name": "Górzno",
    "state_id": 1625,
    "state_code": "04",
    "country_id": 176,
    "country_code": "PL",
    "latitude": "53.19779000",
    "longitude": "19.64317000",
    "native": null,
    "timezone": null,
    "translations": {}
  },
  {
    "id": 86344,
    "name": "Gostycyn",
    "state_id": 1625,
    "state_code": "04",
    "country_id": 176,
    "country_code": "PL",
    "latitude": "53.49014000",
    "longitude": "17.80978000",
    "native": null,
    "timezone": null,
    "translations": {}
  },
  {
    "id": 86386,
    "name": "Grudziądz",
    "state_id": 1625,
    "state_code": "04",
    "country_id": 176,
    "country_code": "PL",
    "latitude": "53.48411000",
    "longitude": "18.75366000",
    "native": null,
    "timezone": null,
    "translations": {}
  },
  {
    "id": 86388,
    "name": "Gruta",
    "state_id": 1625,
    "state_code": "04",
    "country_id": 176,
    "country_code": "PL",
    "latitude": "53.45315000",
    "longitude": "18.95700000",
    "native": null,
    "timezone": null,
    "translations": {}
  },
  {
    "id": 86459,
    "name": "Inowrocław",
    "state_id": 1625,
    "state_code": "04",
    "country_id": 176,
    "country_code": "PL",
    "latitude": "52.79886000",
    "longitude": "18.26387000",
    "native": null,
    "timezone": null,
    "translations": {}
  },
  {
    "id": 86469,
    "name": "Izbica Kujawska",
    "state_id": 1625,
    "state_code": "04",
    "country_id": 176,
    "country_code": "PL",
    "latitude": "52.42073000",
    "longitude": "18.76270000",
    "native": null,
    "timezone": null,
    "translations": {}
  },
  {
    "id": 86485,
    "name": "Jabłonowo Pomorskie",
    "state_id": 1625,
    "state_code": "04",
    "country_id": 176,
    "country_code": "PL",
    "latitude": "53.39137000",
    "longitude": "19.15509000",
    "native": null,
    "timezone": null,
    "translations": {}
  },
  {
    "id": 86493,
    "name": "Janikowo",
    "state_id": 1625,
    "state_code": "04",
    "country_id": 176,
    "country_code": "PL",
    "latitude": "52.75328000",
    "longitude": "18.11328000",
    "native": null,
    "timezone": null,
    "translations": {}
  },
  {
    "id": 86501,
    "name": "Janowiec Wielkopolski",
    "state_id": 1625,
    "state_code": "04",
    "country_id": 176,
    "country_code": "PL",
    "latitude": "52.75583000",
    "longitude": "17.48981000",
    "native": null,
    "timezone": null,
    "translations": {}
  },
  {
    "id": 86558,
    "name": "Jeżewo",
    "state_id": 1625,
    "state_code": "04",
    "country_id": 176,
    "country_code": "PL",
    "latitude": "53.51061000",
    "longitude": "18.49437000",
    "native": null,
    "timezone": null,
    "translations": {}
  },
  {
    "id": 86555,
    "name": "Jeziora Wielkie",
    "state_id": 1625,
    "state_code": "04",
    "country_id": 176,
    "country_code": "PL",
    "latitude": "52.53043000",
    "longitude": "18.26803000",
    "native": null,
    "timezone": null,
    "translations": {}
  },
  {
    "id": 86600,
    "name": "Kamień Krajeński",
    "state_id": 1625,
    "state_code": "04",
    "country_id": 176,
    "country_code": "PL",
    "latitude": "53.53352000",
    "longitude": "17.52019000",
    "native": null,
    "timezone": null,
    "translations": {}
  },
  {
    "id": 86631,
    "name": "Kcynia",
    "state_id": 1625,
    "state_code": "04",
    "country_id": 176,
    "country_code": "PL",
    "latitude": "52.99192000",
    "longitude": "17.48830000",
    "native": null,
    "timezone": null,
    "translations": {}
  },
  {
    "id": 86857,
    "name": "Kęsowo",
    "state_id": 1625,
    "state_code": "04",
    "country_id": 176,
    "country_code": "PL",
    "latitude": "53.55872000",
    "longitude": "17.71580000",
    "native": null,
    "timezone": null,
    "translations": {}
  },
  {
    "id": 86639,
    "name": "Kikół",
    "state_id": 1625,
    "state_code": "04",
    "country_id": 176,
    "country_code": "PL",
    "latitude": "52.90994000",
    "longitude": "19.12016000",
    "native": null,
    "timezone": null,
    "translations": {}
  },
  {
    "id": 86705,
    "name": "Koronowo",
    "state_id": 1625,
    "state_code": "04",
    "country_id": 176,
    "country_code": "PL",
    "latitude": "53.31370000",
    "longitude": "17.93698000",
    "native": null,
    "timezone": null,
    "translations": {}
  },
  {
    "id": 86725,
    "name": "Kowal",
    "state_id": 1625,
    "state_code": "04",
    "country_id": 176,
    "country_code": "PL",
    "latitude": "52.53019000",
    "longitude": "19.14767000",
    "native": null,
    "timezone": null,
    "translations": {}
  },
  {
    "id": 86730,
    "name": "Kowalewo Pomorskie",
    "state_id": 1625,
    "state_code": "04",
    "country_id": 176,
    "country_code": "PL",
    "latitude": "53.15432000",
    "longitude": "18.89868000",
    "native": null,
    "timezone": null,
    "translations": {}
  },
  {
    "id": 86793,
    "name": "Kruszwica",
    "state_id": 1625,
    "state_code": "04",
    "country_id": 176,
    "country_code": "PL",
    "latitude": "52.67562000",
    "longitude": "18.33131000",
    "native": null,
    "timezone": null,
    "translations": {}
  },
  {
    "id": 86917,
    "name": "Lipno",
    "state_id": 1625,
    "state_code": "04",
    "country_id": 176,
    "country_code": "PL",
    "latitude": "52.84436000",
    "longitude": "19.17852000",
    "native": null,
    "timezone": null,
    "translations": {}
  },
  {
    "id": 86924,
    "name": "Lisewo",
    "state_id": 1625,
    "state_code": "04",
    "country_id": 176,
    "country_code": "PL",
    "latitude": "53.29580000",
    "longitude": "18.68714000",
    "native": null,
    "timezone": null,
    "translations": {}
  },
  {
    "id": 86929,
    "name": "Lniano",
    "state_id": 1625,
    "state_code": "04",
    "country_id": 176,
    "country_code": "PL",
    "latitude": "53.52801000",
    "longitude": "18.21267000",
    "native": null,
    "timezone": null,
    "translations": {}
  },
  {
    "id": 86931,
    "name": "Lubanie",
    "state_id": 1625,
    "state_code": "04",
    "country_id": 176,
    "country_code": "PL",
    "latitude": "52.74689000",
    "longitude": "18.91940000",
    "native": null,
    "timezone": null,
    "translations": {}
  },
  {
    "id": 86939,
    "name": "Lubicz Dolny",
    "state_id": 1625,
    "state_code": "04",
    "country_id": 176,
    "country_code": "PL",
    "latitude": "53.03151000",
    "longitude": "18.74559000",
    "native": null,
    "timezone": null,
    "translations": {}
  },
  {
    "id": 86940,
    "name": "Lubicz Górny",
    "state_id": 1625,
    "state_code": "04",
    "country_id": 176,
    "country_code": "PL",
    "latitude": "53.02686000",
    "longitude": "18.77100000",
    "native": null,
    "timezone": null,
    "translations": {}
  },
  {
    "id": 86943,
    "name": "Lubień Kujawski",
    "state_id": 1625,
    "state_code": "04",
    "country_id": 176,
    "country_code": "PL",
    "latitude": "52.40574000",
    "longitude": "19.16440000",
    "native": null,
    "timezone": null,
    "translations": {}
  },
  {
    "id": 86941,
    "name": "Lubiewo",
    "state_id": 1625,
    "state_code": "04",
    "country_id": 176,
    "country_code": "PL",
    "latitude": "53.46542000",
    "longitude": "18.02994000",
    "native": null,
    "timezone": null,
    "translations": {}
  },
  {
    "id": 86957,
    "name": "Lubraniec",
    "state_id": 1625,
    "state_code": "04",
    "country_id": 176,
    "country_code": "PL",
    "latitude": "52.54178000",
    "longitude": "18.83254000",
    "native": null,
    "timezone": null,
    "translations": {}
  },
  {
    "id": 88755,
    "name": "Łabiszyn",
    "state_id": 1625,
    "state_code": "04",
    "country_id": 176,
    "country_code": "PL",
    "latitude": "52.95210000",
    "longitude": "17.91971000",
    "native": null,
    "timezone": null,
    "translations": {}
  },
  {
    "id": 88769,
    "name": "Łasin",
    "state_id": 1625,
    "state_code": "04",
    "country_id": 176,
    "country_code": "PL",
    "latitude": "53.51794000",
    "longitude": "19.08832000",
    "native": null,
    "timezone": null,
    "translations": {}
  },
  {
    "id": 88796,
    "name": "Łubianka",
    "state_id": 1625,
    "state_code": "04",
    "country_id": 176,
    "country_code": "PL",
    "latitude": "53.13864000",
    "longitude": "18.48115000",
    "native": null,
    "timezone": null,
    "translations": {}
  },
  {
    "id": 88808,
    "name": "Łysomice",
    "state_id": 1625,
    "state_code": "04",
    "country_id": 176,
    "country_code": "PL",
    "latitude": "53.08629000",
    "longitude": "18.62002000",
    "native": null,
    "timezone": null,
    "translations": {}
  },
  {
    "id": 87086,
    "name": "Mogilno",
    "state_id": 1625,
    "state_code": "04",
    "country_id": 176,
    "country_code": "PL",
    "latitude": "52.65806000",
    "longitude": "17.95578000",
    "native": null,
    "timezone": null,
    "translations": {}
  },
  {
    "id": 87101,
    "name": "Mrocza",
    "state_id": 1625,
    "state_code": "04",
    "country_id": 176,
    "country_code": "PL",
    "latitude": "53.24313000",
    "longitude": "17.60405000",
    "native": null,
    "timezone": null,
    "translations": {}
  },
  {
    "id": 87135,
    "name": "Nakło nad Notecią",
    "state_id": 1625,
    "state_code": "04",
    "country_id": 176,
    "country_code": "PL",
    "latitude": "53.14214000",
    "longitude": "17.60181000",
    "native": null,
    "timezone": null,
    "translations": {}
  },
  {
    "id": 87168,
    "name": "Nieszawa",
    "state_id": 1625,
    "state_code": "04",
    "country_id": 176,
    "country_code": "PL",
    "latitude": "52.83452000",
    "longitude": "18.89921000",
    "native": null,
    "timezone": null,
    "translations": {}
  },
  {
    "id": 87179,
    "name": "Nowa Wieś Wielka",
    "state_id": 1625,
    "state_code": "04",
    "country_id": 176,
    "country_code": "PL",
    "latitude": "52.97159000",
    "longitude": "18.09036000",
    "native": null,
    "timezone": null,
    "translations": {}
  },
  {
    "id": 87180,
    "name": "Nowe",
    "state_id": 1625,
    "state_code": "04",
    "country_id": 176,
    "country_code": "PL",
    "latitude": "53.64906000",
    "longitude": "18.72716000",
    "native": null,
    "timezone": null,
    "translations": {}
  },
  {
    "id": 87219,
    "name": "Obrowo",
    "state_id": 1625,
    "state_code": "04",
    "country_id": 176,
    "country_code": "PL",
    "latitude": "52.97149000",
    "longitude": "18.87863000",
    "native": null,
    "timezone": null,
    "translations": {}
  },
  {
    "id": 87276,
    "name": "Osie",
    "state_id": 1625,
    "state_code": "04",
    "country_id": 176,
    "country_code": "PL",
    "latitude": "53.59918000",
    "longitude": "18.34373000",
    "native": null,
    "timezone": null,
    "translations": {}
  },
  {
    "id": 87294,
    "name": "Osięciny",
    "state_id": 1625,
    "state_code": "04",
    "country_id": 176,
    "country_code": "PL",
    "latitude": "52.62926000",
    "longitude": "18.72208000",
    "native": null,
    "timezone": null,
    "translations": {}
  },
  {
    "id": 87285,
    "name": "Osiek",
    "state_id": 1625,
    "state_code": "04",
    "country_id": 176,
    "country_code": "PL",
    "latitude": "52.92629000",
    "longitude": "18.80765000",
    "native": null,
    "timezone": null,
    "translations": {}
  },
  {
    "id": 87292,
    "name": "Osielsko",
    "state_id": 1625,
    "state_code": "04",
    "country_id": 176,
    "country_code": "PL",
    "latitude": "53.18505000",
    "longitude": "18.08418000",
    "native": null,
    "timezone": null,
    "translations": {}
  },
  {
    "id": 87300,
    "name": "Ostrowite",
    "state_id": 1625,
    "state_code": "04",
    "country_id": 176,
    "country_code": "PL",
    "latitude": "53.06917000",
    "longitude": "19.29337000",
    "native": null,
    "timezone": null,
    "translations": {}
  },
  {
    "id": 87338,
    "name": "Pakość",
    "state_id": 1625,
    "state_code": "04",
    "country_id": 176,
    "country_code": "PL",
    "latitude": "52.80178000",
    "longitude": "18.08530000",
    "native": null,
    "timezone": null,
    "translations": {}
  },
  {
    "id": 87393,
    "name": "Piotrków Kujawski",
    "state_id": 1625,
    "state_code": "04",
    "country_id": 176,
    "country_code": "PL",
    "latitude": "52.55111000",
    "longitude": "18.49905000",
    "native": null,
    "timezone": null,
    "translations": {}
  },
  {
    "id": 87868,
    "name": "Płużnica",
    "state_id": 1625,
    "state_code": "04",
    "country_id": 176,
    "country_code": "PL",
    "latitude": "53.29672000",
    "longitude": "18.77692000",
    "native": null,
    "timezone": null,
    "translations": {}
  },
  {
    "id": 87457,
    "name": "Powiat aleksandrowski",
    "state_id": 1625,
    "state_code": "04",
    "country_id": 176,
    "country_code": "PL",
    "latitude": "52.78465000",
    "longitude": "18.71930000",
    "native": null,
    "timezone": null,
    "translations": {}
  },
  {
    "id": 87473,
    "name": "Powiat brodnicki",
    "state_id": 1625,
    "state_code": "04",
    "country_id": 176,
    "country_code": "PL",
    "latitude": "53.26982000",
    "longitude": "19.42279000",
    "native": null,
    "timezone": null,
    "translations": {}
  },
  {
    "id": 87479,
    "name": "Powiat bydgoski",
    "state_id": 1625,
    "state_code": "04",
    "country_id": 176,
    "country_code": "PL",
    "latitude": "53.19029000",
    "longitude": "18.03808000",
    "native": null,
    "timezone": null,
    "translations": {}
  },
  {
    "id": 87482,
    "name": "Powiat chełmiński",
    "state_id": 1625,
    "state_code": "04",
    "country_id": 176,
    "country_code": "PL",
    "latitude": "53.30056000",
    "longitude": "18.50396000",
    "native": null,
    "timezone": null,
    "translations": {}
  },
  {
    "id": 87506,
    "name": "Powiat golubsko-dobrzyński",
    "state_id": 1625,
    "state_code": "04",
    "country_id": 176,
    "country_code": "PL",
    "latitude": "53.09922000",
    "longitude": "18.99209000",
    "native": null,
    "timezone": null,
    "translations": {}
  },
  {
    "id": 87515,
    "name": "Powiat grudziądzki",
    "state_id": 1625,
    "state_code": "04",
    "country_id": 176,
    "country_code": "PL",
    "latitude": "53.47146000",
    "longitude": "18.91620000",
    "native": null,
    "timezone": null,
    "translations": {}
  },
  {
    "id": 87524,
    "name": "Powiat inowrocławski",
    "state_id": 1625,
    "state_code": "04",
    "country_id": 176,
    "country_code": "PL",
    "latitude": "52.76463000",
    "longitude": "18.29671000",
    "native": null,
    "timezone": null,
    "translations": {}
  },
  {
    "id": 87571,
    "name": "Powiat lipnowski",
    "state_id": 1625,
    "state_code": "04",
    "country_id": 176,
    "country_code": "PL",
    "latitude": "52.81573000",
    "longitude": "19.21704000",
    "native": null,
    "timezone": null,
    "translations": {}
  },
  {
    "id": 87590,
    "name": "Powiat mogileński",
    "state_id": 1625,
    "state_code": "04",
    "country_id": 176,
    "country_code": "PL",
    "latitude": "52.66160000",
    "longitude": "18.07424000",
    "native": null,
    "timezone": null,
    "translations": {}
  },
  {
    "id": 87597,
    "name": "Powiat nakielski",
    "state_id": 1625,
    "state_code": "04",
    "country_id": 176,
    "country_code": "PL",
    "latitude": "53.09480000",
    "longitude": "17.58988000",
    "native": null,
    "timezone": null,
    "translations": {}
  },
  {
    "id": 87658,
    "name": "Powiat radziejowski",
    "state_id": 1625,
    "state_code": "04",
    "country_id": 176,
    "country_code": "PL",
    "latitude": "52.62358000",
    "longitude": "18.52964000",
    "native": null,
    "timezone": null,
    "translations": {}
  },
  {
    "id": 87665,
    "name": "Powiat rypiński",
    "state_id": 1625,
    "state_code": "04",
    "country_id": 176,
    "country_code": "PL",
    "latitude": "53.06613000",
    "longitude": "19.40975000",
    "native": null,
    "timezone": null,
    "translations": {}
  },
  {
    "id": 87696,
    "name": "Powiat sępoleński",
    "state_id": 1625,
    "state_code": "04",
    "country_id": 176,
    "country_code": "PL",
    "latitude": "53.44263000",
    "longitude": "17.50895000",
    "native": null,
    "timezone": null,
    "translations": {}
  },
  {
    "id": 87763,
    "name": "Powiat świecki",
    "state_id": 1625,
    "state_code": "04",
    "country_id": 176,
    "country_code": "PL",
    "latitude": "53.48128000",
    "longitude": "18.41163000",
    "native": null,
    "timezone": null,
    "translations": {}
  },
  {
    "id": 87708,
    "name": "Powiat toruński",
    "state_id": 1625,
    "state_code": "04",
    "country_id": 176,
    "country_code": "PL",
    "latitude": "52.98255000",
    "longitude": "18.83331000",
    "native": null,
    "timezone": null,
    "translations": {}
  },
  {
    "id": 87710,
    "name": "Powiat tucholski",
    "state_id": 1625,
    "state_code": "04",
    "country_id": 176,
    "country_code": "PL",
    "latitude": "53.58146000",
    "longitude": "17.93967000",
    "native": null,
    "timezone": null,
    "translations": {}
  },
  {
    "id": 87729,
    "name": "Powiat wąbrzeski",
    "state_id": 1625,
    "state_code": "04",
    "country_id": 176,
    "country_code": "PL",
    "latitude": "53.28267000",
    "longitude": "18.92649000",
    "native": null,
    "timezone": null,
    "translations": {}
  },
  {
    "id": 87733,
    "name": "Powiat włocławski",
    "state_id": 1625,
    "state_code": "04",
    "country_id": 176,
    "country_code": "PL",
    "latitude": "52.55662000",
    "longitude": "19.05157000",
    "native": null,
    "timezone": null,
    "translations": {}
  },
  {
    "id": 87766,
    "name": "Powiat żniński",
    "state_id": 1625,
    "state_code": "04",
    "country_id": 176,
    "country_code": "PL",
    "latitude": "52.82255000",
    "longitude": "17.73743000",
    "native": null,
    "timezone": null,
    "translations": {}
  },
  {
    "id": 87797,
    "name": "Pruszcz",
    "state_id": 1625,
    "state_code": "04",
    "country_id": 176,
    "country_code": "PL",
    "latitude": "53.33021000",
    "longitude": "18.19894000",
    "native": null,
    "timezone": null,
    "translations": {}
  },
  {
    "id": 87874,
    "name": "Raciążek",
    "state_id": 1625,
    "state_code": "04",
    "country_id": 176,
    "country_code": "PL",
    "latitude": "52.85650000",
    "longitude": "18.81334000",
    "native": null,
    "timezone": null,
    "translations": {}
  },
  {
    "id": 87885,
    "name": "Radomin",
    "state_id": 1625,
    "state_code": "04",
    "country_id": 176,
    "country_code": "PL",
    "latitude": "53.08670000",
    "longitude": "19.19415000",
    "native": null,
    "timezone": null,
    "translations": {}
  },
  {
    "id": 87898,
    "name": "Radziejów",
    "state_id": 1625,
    "state_code": "04",
    "country_id": 176,
    "country_code": "PL",
    "latitude": "52.62481000",
    "longitude": "18.52771000",
    "native": null,
    "timezone": null,
    "translations": {}
  },
  {
    "id": 87903,
    "name": "Radzyń Chełmiński",
    "state_id": 1625,
    "state_code": "04",
    "country_id": 176,
    "country_code": "PL",
    "latitude": "53.38509000",
    "longitude": "18.93725000",
    "native": null,
    "timezone": null,
    "translations": {}
  },
  {
    "id": 87944,
    "name": "Rogowo",
    "state_id": 1625,
    "state_code": "04",
    "country_id": 176,
    "country_code": "PL",
    "latitude": "52.72449000",
    "longitude": "17.65117000",
    "native": null,
    "timezone": null,
    "translations": {}
  },
  {
    "id": 87952,
    "name": "Rogóźno",
    "state_id": 1625,
    "state_code": "04",
    "country_id": 176,
    "country_code": "PL",
    "latitude": "53.53587000",
    "longitude": "18.92859000",
    "native": null,
    "timezone": null,
    "translations": {}
  },
  {
    "id": 88012,
    "name": "Rypin",
    "state_id": 1625,
    "state_code": "04",
    "country_id": 176,
    "country_code": "PL",
    "latitude": "53.06603000",
    "longitude": "19.40941000",
    "native": null,
    "timezone": null,
    "translations": {}
  },
  {
    "id": 88040,
    "name": "Sadki",
    "state_id": 1625,
    "state_code": "04",
    "country_id": 176,
    "country_code": "PL",
    "latitude": "53.16036000",
    "longitude": "17.44912000",
    "native": null,
    "timezone": null,
    "translations": {}
  },
  {
    "id": 88333,
    "name": "Sępólno Krajeńskie",
    "state_id": 1625,
    "state_code": "04",
    "country_id": 176,
    "country_code": "PL",
    "latitude": "53.45198000",
    "longitude": "17.53169000",
    "native": null,
    "timezone": null,
    "translations": {}
  },
  {
    "id": 88060,
    "name": "Sicienko",
    "state_id": 1625,
    "state_code": "04",
    "country_id": 176,
    "country_code": "PL",
    "latitude": "53.20387000",
    "longitude": "17.80051000",
    "native": null,
    "timezone": null,
    "translations": {}
  },
  {
    "id": 88124,
    "name": "Skępe",
    "state_id": 1625,
    "state_code": "04",
    "country_id": 176,
    "country_code": "PL",
    "latitude": "52.86798000",
    "longitude": "19.35604000",
    "native": null,
    "timezone": null,
    "translations": {}
  },
  {
    "id": 88115,
    "name": "Skrwilno",
    "state_id": 1625,
    "state_code": "04",
    "country_id": 176,
    "country_code": "PL",
    "latitude": "53.01607000",
    "longitude": "19.62364000",
    "native": null,
    "timezone": null,
    "translations": {}
  },
  {
    "id": 88831,
    "name": "Ślesin",
    "state_id": 1625,
    "state_code": "04",
    "country_id": 176,
    "country_code": "PL",
    "latitude": "53.16514000",
    "longitude": "17.70258000",
    "native": null,
    "timezone": null,
    "translations": {}
  },
  {
    "id": 88833,
    "name": "Śliwice",
    "state_id": 1625,
    "state_code": "04",
    "country_id": 176,
    "country_code": "PL",
    "latitude": "53.70875000",
    "longitude": "18.17370000",
    "native": null,
    "timezone": null,
    "translations": {}
  },
  {
    "id": 88142,
    "name": "Solec Kujawski",
    "state_id": 1625,
    "state_code": "04",
    "country_id": 176,
    "country_code": "PL",
    "latitude": "53.08371000",
    "longitude": "18.22572000",
    "native": null,
    "timezone": null,
    "translations": {}
  },
  {
    "id": 88160,
    "name": "Sośno",
    "state_id": 1625,
    "state_code": "04",
    "country_id": 176,
    "country_code": "PL",
    "latitude": "53.38922000",
    "longitude": "17.68713000",
    "native": null,
    "timezone": null,
    "translations": {}
  },
  {
    "id": 88232,
    "name": "Strzelno",
    "state_id": 1625,
    "state_code": "04",
    "country_id": 176,
    "country_code": "PL",
    "latitude": "52.62789000",
    "longitude": "18.17246000",
    "native": null,
    "timezone": null,
    "translations": {}
  },
  {
    "id": 88847,
    "name": "Świecie",
    "state_id": 1625,
    "state_code": "04",
    "country_id": 176,
    "country_code": "PL",
    "latitude": "53.40953000",
    "longitude": "18.44742000",
    "native": null,
    "timezone": null,
    "translations": {}
  },
  {
    "id": 88848,
    "name": "Świecie nad Osą",
    "state_id": 1625,
    "state_code": "04",
    "country_id": 176,
    "country_code": "PL",
    "latitude": "53.44400000",
    "longitude": "19.10171000",
    "native": null,
    "timezone": null,
    "translations": {}
  },
  {
    "id": 88849,
    "name": "Świedziebnia",
    "state_id": 1625,
    "state_code": "04",
    "country_id": 176,
    "country_code": "PL",
    "latitude": "53.15207000",
    "longitude": "19.55463000",
    "native": null,
    "timezone": null,
    "translations": {}
  },
  {
    "id": 88850,
    "name": "Świekatowo",
    "state_id": 1625,
    "state_code": "04",
    "country_id": 176,
    "country_code": "PL",
    "latitude": "53.41864000",
    "longitude": "18.09731000",
    "native": null,
    "timezone": null,
    "translations": {}
  },
  {
    "id": 88280,
    "name": "Sypniewo",
    "state_id": 1625,
    "state_code": "04",
    "country_id": 176,
    "country_code": "PL",
    "latitude": "53.36981000",
    "longitude": "17.32690000",
    "native": null,
    "timezone": null,
    "translations": {}
  },
  {
    "id": 88317,
    "name": "Szubin",
    "state_id": 1625,
    "state_code": "04",
    "country_id": 176,
    "country_code": "PL",
    "latitude": "53.00967000",
    "longitude": "17.74000000",
    "native": null,
    "timezone": null,
    "translations": {}
  },
  {
    "id": 88444,
    "name": "Tłuchowo",
    "state_id": 1625,
    "state_code": "04",
    "country_id": 176,
    "country_code": "PL",
    "latitude": "52.74715000",
    "longitude": "19.46563000",
    "native": null,
    "timezone": null,
    "translations": {}
  },
  {
    "id": 88383,
    "name": "Topólka",
    "state_id": 1625,
    "state_code": "04",
    "country_id": 176,
    "country_code": "PL",
    "latitude": "52.50327000",
    "longitude": "18.71246000",
    "native": null,
    "timezone": null,
    "translations": {}
  },
  {
    "id": 88384,
    "name": "Toruń",
    "state_id": 1625,
    "state_code": "04",
    "country_id": 176,
    "country_code": "PL",
    "latitude": "53.01375000",
    "longitude": "18.59814000",
    "native": null,
    "timezone": null,
    "translations": {}
  },
  {
    "id": 88417,
    "name": "Tuchola",
    "state_id": 1625,
    "state_code": "04",
    "country_id": 176,
    "country_code": "PL",
    "latitude": "53.58792000",
    "longitude": "17.85905000",
    "native": null,
    "timezone": null,
    "translations": {}
  },
  {
    "id": 88456,
    "name": "Unisław",
    "state_id": 1625,
    "state_code": "04",
    "country_id": 176,
    "country_code": "PL",
    "latitude": "53.21241000",
    "longitude": "18.38622000",
    "native": null,
    "timezone": null,
    "translations": {}
  },
  {
    "id": 88631,
    "name": "Wąbrzeźno",
    "state_id": 1625,
    "state_code": "04",
    "country_id": 176,
    "country_code": "PL",
    "latitude": "53.27989000",
    "longitude": "18.94773000",
    "native": null,
    "timezone": null,
    "translations": {}
  },
  {
    "id": 88471,
    "name": "Waganiec",
    "state_id": 1625,
    "state_code": "04",
    "country_id": 176,
    "country_code": "PL",
    "latitude": "52.80120000",
    "longitude": "18.87589000",
    "native": null,
    "timezone": null,
    "translations": {}
  },
  {
    "id": 88634,
    "name": "Wąpielsk",
    "state_id": 1625,
    "state_code": "04",
    "country_id": 176,
    "country_code": "PL",
    "latitude": "53.13761000",
    "longitude": "19.27792000",
    "native": null,
    "timezone": null,
    "translations": {}
  },
  {
    "id": 88478,
    "name": "Warlubie",
    "state_id": 1625,
    "state_code": "04",
    "country_id": 176,
    "country_code": "PL",
    "latitude": "53.58751000",
    "longitude": "18.63444000",
    "native": null,
    "timezone": null,
    "translations": {}
  },
  {
    "id": 88557,
    "name": "Więcbork",
    "state_id": 1625,
    "state_code": "04",
    "country_id": 176,
    "country_code": "PL",
    "latitude": "53.35384000",
    "longitude": "17.49064000",
    "native": null,
    "timezone": null,
    "translations": {}
  },
  {
    "id": 88500,
    "name": "Wielgie",
    "state_id": 1625,
    "state_code": "04",
    "country_id": 176,
    "country_code": "PL",
    "latitude": "52.74076000",
    "longitude": "19.26350000",
    "native": null,
    "timezone": null,
    "translations": {}
  },
  {
    "id": 88504,
    "name": "Wielka Nieszawka",
    "state_id": 1625,
    "state_code": "04",
    "country_id": 176,
    "country_code": "PL",
    "latitude": "52.99619000",
    "longitude": "18.50973000",
    "native": null,
    "timezone": null,
    "translations": {}
  },
  {
    "id": 88524,
    "name": "Wierzchosławice",
    "state_id": 1625,
    "state_code": "04",
    "country_id": 176,
    "country_code": "PL",
    "latitude": "52.86923000",
    "longitude": "18.35609000",
    "native": null,
    "timezone": null,
    "translations": {}
  },
  {
    "id": 88649,
    "name": "Włocławek",
    "state_id": 1625,
    "state_code": "04",
    "country_id": 176,
    "country_code": "PL",
    "latitude": "52.64817000",
    "longitude": "19.06780000",
    "native": null,
    "timezone": null,
    "translations": {}
  },
  {
    "id": 88713,
    "name": "Zbójno",
    "state_id": 1625,
    "state_code": "04",
    "country_id": 176,
    "country_code": "PL",
    "latitude": "53.00848000",
    "longitude": "19.15750000",
    "native": null,
    "timezone": null,
    "translations": {}
  },
  {
    "id": 88741,
    "name": "Zławieś Wielka",
    "state_id": 1625,
    "state_code": "04",
    "country_id": 176,
    "country_code": "PL",
    "latitude": "53.09562000",
    "longitude": "18.32897000",
    "native": null,
    "timezone": null,
    "translations": {}
  },
  {
    "id": 88748,
    "name": "Złotniki Kujawskie",
    "state_id": 1625,
    "state_code": "04",
    "country_id": 176,
    "country_code": "PL",
    "latitude": "52.89943000",
    "longitude": "18.14564000",
    "native": null,
    "timezone": null,
    "translations": {}
  },
  {
    "id": 88888,
    "name": "Żnin",
    "state_id": 1625,
    "state_code": "04",
    "country_id": 176,
    "country_code": "PL",
    "latitude": "52.84958000",
    "longitude": "17.71992000",
    "native": null,
    "timezone": null,
    "translations": {}
  }
]