[
  {
    "id": 2895,
    "name": "Amazonas",
    "country_id": 48,
    "country_code": "CO",
    "fips_code": null,
    "iso2": "AMA",
    "type": "department",
    "latitude": "-1.30529900",
    "longitude": "-71.46592120",
    "native": "Amazonas",
    "timezone": "America/Bogota",
    "translations": {}
  },
  {
    "id": 2890,
    "name": "Antioquia",
    "country_id": 48,
    "country_code": "CO",
    "fips_code": null,
    "iso2": "ANT",
    "type": "department",
    "latitude": "7.00000850",
    "longitude": "-75.50000860",
    "native": "Antioquia",
    "timezone": "America/Bogota",
    "translations": {}
  },
  {
    "id": 2881,
    "name": "Arauca",
    "country_id": 48,
    "country_code": "CO",
    "fips_code": null,
    "iso2": "ARA",
    "type": "department",
    "latitude": "6.66667550",
    "longitude": "-71.00000860",
    "native": "Arauca",
    "timezone": "America/Bogota",
    "translations": {}
  },
  {
    "id": 2880,
    "name": "Atlántico",
    "country_id": 48,
    "country_code": "CO",
    "fips_code": null,
    "iso2": "ATL",
    "type": "department",
    "latitude": "10.67734220",
    "longitude": "-74.97186660",
    "native": "atlántico",
    "timezone": "America/Bogota",
    "translations": {}
  },
  {
    "id": 4921,
    "name": "Bogotá D.C.",
    "country_id": 48,
    "country_code": "CO",
    "fips_code": null,
    "iso2": "DC",
    "type": "capital district",
    "latitude": "4.28347150",
    "longitude": "-74.17536060",
    "native": "Bogotá D.C.",
    "timezone": "America/Bogota",
    "translations": {}
  },
  {
    "id": 2893,
    "name": "Bolívar",
    "country_id": 48,
    "country_code": "CO",
    "fips_code": null,
    "iso2": "BOL",
    "type": "department",
    "latitude": "9.36604770",
    "longitude": "-74.80236360",
    "native": "Bolívar",
    "timezone": "America/Bogota",
    "translations": {}
  },
  {
    "id": 2903,
    "name": "Boyacá",
    "country_id": 48,
    "country_code": "CO",
    "fips_code": null,
    "iso2": "BOY",
    "type": "department",
    "latitude": "5.44281930",
    "longitude": "-73.37452240",
    "native": "Boyacá",
    "timezone": "America/Bogota",
    "translations": {}
  },
  {
    "id": 2887,
    "name": "Caldas",
    "country_id": 48,
    "country_code": "CO",
    "fips_code": null,
    "iso2": "CAL",
    "type": "department",
    "latitude": "5.33025140",
    "longitude": "-75.28734710",
    "native": "Caldas",
    "timezone": "America/Bogota",
    "translations": {}
  },
  {
    "id": 2891,
    "name": "Caquetá",
    "country_id": 48,
    "country_code": "CO",
    "fips_code": null,
    "iso2": "CAQ",
    "type": "department",
    "latitude": "1.11533850",
    "longitude": "-74.10568380",
    "native": "Caquetá",
    "timezone": "America/Bogota",
    "translations": {}
  },
  {
    "id": 2892,
    "name": "Casanare",
    "country_id": 48,
    "country_code": "CO",
    "fips_code": null,
    "iso2": "CAS",
    "type": "department",
    "latitude": "5.50000850",
    "longitude": "-71.50000860",
    "native": "Casanare",
    "timezone": "America/Bogota",
    "translations": {}
  },
  {
    "id": 2884,
    "name": "Cauca",
    "country_id": 48,
    "country_code": "CO",
    "fips_code": null,
    "iso2": "CAU",
    "type": "department",
    "latitude": "2.71564500",
    "longitude": "-76.66266500",
    "native": "Cauca",
    "timezone": "America/Bogota",
    "translations": {}
  },
  {
    "id": 2899,
    "name": "Cesar",
    "country_id": 48,
    "country_code": "CO",
    "fips_code": null,
    "iso2": "CES",
    "type": "department",
    "latitude": "9.33334150",
    "longitude": "-73.50000860",
    "native": "César",
    "timezone": "America/Bogota",
    "translations": {}
  },
  {
    "id": 2876,
    "name": "Chocó",
    "country_id": 48,
    "country_code": "CO",
    "fips_code": null,
    "iso2": "CHO",
    "type": "department",
    "latitude": "6.00000850",
    "longitude": "-77.00000860",
    "native": "Chocó",
    "timezone": "America/Bogota",
    "translations": {}
  },
  {
    "id": 2898,
    "name": "Córdoba",
    "country_id": 48,
    "country_code": "CO",
    "fips_code": null,
    "iso2": "COR",
    "type": "department",
    "latitude": "8.33447130",
    "longitude": "-75.66662380",
    "native": "Córdoba",
    "timezone": "America/Bogota",
    "translations": {}
  },
  {
    "id": 2875,
    "name": "Cundinamarca",
    "country_id": 48,
    "country_code": "CO",
    "fips_code": null,
    "iso2": "CUN",
    "type": "department",
    "latitude": "5.10965960",
    "longitude": "-74.09958540",
    "native": "Cundinamarca",
    "timezone": "America/Bogota",
    "translations": {}
  },
  {
    "id": 2882,
    "name": "Guainía",
    "country_id": 48,
    "country_code": "CO",
    "fips_code": null,
    "iso2": "GUA",
    "type": "department",
    "latitude": "2.50000860",
    "longitude": "-69.00000860",
    "native": "Guainía",
    "timezone": "America/Bogota",
    "translations": {}
  },
  {
    "id": 2888,
    "name": "Guaviare",
    "country_id": 48,
    "country_code": "CO",
    "fips_code": null,
    "iso2": "GUV",
    "type": "department",
    "latitude": "1.78991980",
    "longitude": "-72.37617840",
    "native": "Guaviare",
    "timezone": "America/Bogota",
    "translations": {}
  },
  {
    "id": 4871,
    "name": "Huila",
    "country_id": 48,
    "country_code": "CO",
    "fips_code": null,
    "iso2": "HUI",
    "type": "department",
    "latitude": "2.47389930",
    "longitude": "-75.59001130",
    "native": "Ruedas",
    "timezone": "America/Bogota",
    "translations": {}
  },
  {
    "id": 2889,
    "name": "La Guajira",
    "country_id": 48,
    "country_code": "CO",
    "fips_code": null,
    "iso2": "LAG",
    "type": "department",
    "latitude": "11.43541180",
    "longitude": "-72.90021610",
    "native": "La Guajira",
    "timezone": "America/Bogota",
    "translations": {}
  },
  {
    "id": 2886,
    "name": "Magdalena",
    "country_id": 48,
    "country_code": "CO",
    "fips_code": null,
    "iso2": "MAG",
    "type": "department",
    "latitude": "10.58080750",
    "longitude": "-74.06856690",
    "native": "Magdalena",
    "timezone": "America/Bogota",
    "translations": {}
  },
  {
    "id": 2878,
    "name": "Meta",
    "country_id": 48,
    "country_code": "CO",
    "fips_code": null,
    "iso2": "MET",
    "type": "department",
    "latitude": "5.15544480",
    "longitude": "-70.86537840",
    "native": "Meta",
    "timezone": "America/Bogota",
    "translations": {}
  },
  {
    "id": 2897,
    "name": "Nariño",
    "country_id": 48,
    "country_code": "CO",
    "fips_code": null,
    "iso2": "NAR",
    "type": "department",
    "latitude": "1.28915100",
    "longitude": "-77.35794000",
    "native": "Nariño",
    "timezone": "America/Bogota",
    "translations": {}
  },
  {
    "id": 2877,
    "name": "Norte de Santander",
    "country_id": 48,
    "country_code": "CO",
    "fips_code": null,
    "iso2": "NSA",
    "type": "department",
    "latitude": "8.44179240",
    "longitude": "-73.04925050",
    "native": "Norte de Santander",
    "timezone": "America/Bogota",
    "translations": {}
  },
  {
    "id": 2896,
    "name": "Putumayo",
    "country_id": 48,
    "country_code": "CO",
    "fips_code": null,
    "iso2": "PUT",
    "type": "department",
    "latitude": "0.50000860",
    "longitude": "-76.00000860",
    "native": "Putumayo",
    "timezone": "America/Bogota",
    "translations": {}
  },
  {
    "id": 2874,
    "name": "Quindío",
    "country_id": 48,
    "country_code": "CO",
    "fips_code": null,
    "iso2": "QUI",
    "type": "department",
    "latitude": "4.40283130",
    "longitude": "-75.70257950",
    "native": "Quindío",
    "timezone": "America/Bogota",
    "translations": {}
  },
  {
    "id": 2879,
    "name": "Risaralda",
    "country_id": 48,
    "country_code": "CO",
    "fips_code": null,
    "iso2": "RIS",
    "type": "department",
    "latitude": "5.21029480",
    "longitude": "-75.98422360",
    "native": "Risaralda",
    "timezone": "America/Bogota",
    "translations": {}
  },
  {
    "id": 2900,
    "name": "San Andrés, Providencia y Santa Catalina",
    "country_id": 48,
    "country_code": "CO",
    "fips_code": null,
    "iso2": "SAP",
    "type": "department",
    "latitude": "12.53759790",
    "longitude": "-81.72041550",
    "native": "San Andrés, Providencia y Santa Catalina",
    "timezone": "America/Bogota",
    "translations": {}
  },
  {
    "id": 2901,
    "name": "Santander",
    "country_id": 48,
    "country_code": "CO",
    "fips_code": null,
    "iso2": "SAN",
    "type": "department",
    "latitude": "7.00000850",
    "longitude": "-73.25000860",
    "native": "Santander",
    "timezone": "America/Bogota",
    "translations": {}
  },
  {
    "id": 2902,
    "name": "Sucre",
    "country_id": 48,
    "country_code": "CO",
    "fips_code": null,
    "iso2": "SUC",
    "type": "department",
    "latitude": "9.00000000",
    "longitude": "-75.00000000",
    "native": "Sucre",
    "timezone": "America/Bogota",
    "translations": {}
  },
  {
    "id": 2883,
    "name": "Tolima",
    "country_id": 48,
    "country_code": "CO",
    "fips_code": null,
    "iso2": "TOL",
    "type": "department",
    "latitude": "4.03557860",
    "longitude": "-75.20866420",
    "native": "Tolima",
    "timezone": "America/Bogota",
    "translations": {}
  },
  {
    "id": 2904,
    "name": "Valle del Cauca",
    "country_id": 48,
    "country_code": "CO",
    "fips_code": null,
    "iso2": "VAC",
    "type": "department",
    "latitude": "3.69840530",
    "longitude": "-76.55019960",
    "native": "Valle del Cauca",
    "timezone": "America/Bogota",
    "translations": {}
  },
  {
    "id": 2885,
    "name": "Vaupés",
    "country_id": 48,
    "country_code": "CO",
    "fips_code": null,
    "iso2": "VAU",
    "type": "department",
    "latitude": "0.42281240",
    "longitude": "-70.94683720",
    "native": "Vaupés",
    "timezone": "America/Bogota",
    "translations": {}
  },
  {
    "id": 2894,
    "name": "Vichada",
    "country_id": 48,
    "country_code": "CO",
    "fips_code": null,
    "iso2": "VID",
    "type": "department",
    "latitude": "4.86866130",
    "longitude": "-69.37366580",
    "native": "Vichada",
    "timezone": "America/Bogota",
    "translations": {}
  }
]