[
  {
    "id": 23577,
    "name": "Alt Tucheband",
    "state_id": 3013,
    "state_code": "BB",
    "country_id": 82,
    "country_code": "DE",
    "latitude": "52.53732000",
    "longitude": "14.51225000",
    "native": null,
    "timezone": null,
    "translations": {}
  },
  {
    "id": 23585,
    "name": "Altdöbern",
    "state_id": 3013,
    "state_code": "BB",
    "country_id": 82,
    "country_code": "DE",
    "latitude": "51.65000000",
    "longitude": "14.03333000",
    "native": null,
    "timezone": null,
    "translations": {}
  },
  {
    "id": 23626,
    "name": "Altlandsberg",
    "state_id": 3013,
    "state_code": "BB",
    "country_id": 82,
    "country_code": "DE",
    "latitude": "52.56503000",
    "longitude": "13.72815000",
    "native": null,
    "timezone": null,
    "translations": {}
  },
  {
    "id": 23655,
    "name": "Angermünde",
    "state_id": 3013,
    "state_code": "BB",
    "country_id": 82,
    "country_code": "DE",
    "latitude": "53.01499000",
    "longitude": "13.99924000",
    "native": null,
    "timezone": null,
    "translations": {}
  },
  {
    "id": 23764,
    "name": "Bad Belzig",
    "state_id": 3013,
    "state_code": "BB",
    "country_id": 82,
    "country_code": "DE",
    "latitude": "52.14184000",
    "longitude": "12.59272000",
    "native": null,
    "timezone": null,
    "translations": {}
  },
  {
    "id": 23798,
    "name": "Bad Freienwalde",
    "state_id": 3013,
    "state_code": "BB",
    "country_id": 82,
    "country_code": "DE",
    "latitude": "52.78730000",
    "longitude": "14.03040000",
    "native": null,
    "timezone": null,
    "translations": {}
  },
  {
    "id": 23829,
    "name": "Bad Liebenwerda",
    "state_id": 3013,
    "state_code": "BB",
    "country_id": 82,
    "country_code": "DE",
    "latitude": "51.51826000",
    "longitude": "13.39459000",
    "native": null,
    "timezone": null,
    "translations": {}
  },
  {
    "id": 23853,
    "name": "Bad Saarow",
    "state_id": 3013,
    "state_code": "BB",
    "country_id": 82,
    "country_code": "DE",
    "latitude": "52.28333000",
    "longitude": "14.06667000",
    "native": null,
    "timezone": null,
    "translations": {}
  },
  {
    "id": 23885,
    "name": "Bad Wilsnack",
    "state_id": 3013,
    "state_code": "BB",
    "country_id": 82,
    "country_code": "DE",
    "latitude": "52.95607000",
    "longitude": "11.94903000",
    "native": null,
    "timezone": null,
    "translations": {}
  },
  {
    "id": 23947,
    "name": "Baruth",
    "state_id": 3013,
    "state_code": "BB",
    "country_id": 82,
    "country_code": "DE",
    "latitude": "52.04468000",
    "longitude": "13.50270000",
    "native": null,
    "timezone": null,
    "translations": {}
  },
  {
    "id": 23983,
    "name": "Beelitz",
    "state_id": 3013,
    "state_code": "BB",
    "country_id": 82,
    "country_code": "DE",
    "latitude": "52.23812000",
    "longitude": "12.97140000",
    "native": null,
    "timezone": null,
    "translations": {}
  },
  {
    "id": 23987,
    "name": "Beeskow",
    "state_id": 3013,
    "state_code": "BB",
    "country_id": 82,
    "country_code": "DE",
    "latitude": "52.17291000",
    "longitude": "14.24597000",
    "native": null,
    "timezone": null,
    "translations": {}
  },
  {
    "id": 24017,
    "name": "Bensdorf",
    "state_id": 3013,
    "state_code": "BB",
    "country_id": 82,
    "country_code": "DE",
    "latitude": "52.41667000",
    "longitude": "12.33333000",
    "native": null,
    "timezone": null,
    "translations": {}
  },
  {
    "id": 24050,
    "name": "Berkenbrück",
    "state_id": 3013,
    "state_code": "BB",
    "country_id": 82,
    "country_code": "DE",
    "latitude": "52.35000000",
    "longitude": "14.15000000",
    "native": null,
    "timezone": null,
    "translations": {}
  },
  {
    "id": 24061,
    "name": "Bernau bei Berlin",
    "state_id": 3013,
    "state_code": "BB",
    "country_id": 82,
    "country_code": "DE",
    "latitude": "52.67982000",
    "longitude": "13.58708000",
    "native": null,
    "timezone": null,
    "translations": {}
  },
  {
    "id": 24079,
    "name": "Bestensee",
    "state_id": 3013,
    "state_code": "BB",
    "country_id": 82,
    "country_code": "DE",
    "latitude": "52.23978000",
    "longitude": "13.63732000",
    "native": null,
    "timezone": null,
    "translations": {}
  },
  {
    "id": 24112,
    "name": "Biesenthal",
    "state_id": 3013,
    "state_code": "BB",
    "country_id": 82,
    "country_code": "DE",
    "latitude": "52.76616000",
    "longitude": "13.64416000",
    "native": null,
    "timezone": null,
    "translations": {}
  },
  {
    "id": 24138,
    "name": "Birkenwerder",
    "state_id": 3013,
    "state_code": "BB",
    "country_id": 82,
    "country_code": "DE",
    "latitude": "52.68333000",
    "longitude": "13.28333000",
    "native": null,
    "timezone": null,
    "translations": {}
  },
  {
    "id": 24181,
    "name": "Bliesdorf",
    "state_id": 3013,
    "state_code": "BB",
    "country_id": 82,
    "country_code": "DE",
    "latitude": "52.69298000",
    "longitude": "14.15949000",
    "native": null,
    "timezone": null,
    "translations": {}
  },
  {
    "id": 24246,
    "name": "Borkheide",
    "state_id": 3013,
    "state_code": "BB",
    "country_id": 82,
    "country_code": "DE",
    "latitude": "52.21667000",
    "longitude": "12.85000000",
    "native": null,
    "timezone": null,
    "translations": {}
  },
  {
    "id": 24248,
    "name": "Borkwalde",
    "state_id": 3013,
    "state_code": "BB",
    "country_id": 82,
    "country_code": "DE",
    "latitude": "52.25000000",
    "longitude": "12.83333000",
    "native": null,
    "timezone": null,
    "translations": {}
  },
  {
    "id": 24280,
    "name": "Brandenburg an der Havel",
    "state_id": 3013,
    "state_code": "BB",
    "country_id": 82,
    "country_code": "DE",
    "latitude": "52.41667000",
    "longitude": "12.55000000",
    "native": null,
    "timezone": null,
    "translations": {}
  },
  {
    "id": 24293,
    "name": "Breddin",
    "state_id": 3013,
    "state_code": "BB",
    "country_id": 82,
    "country_code": "DE",
    "latitude": "52.88560000",
    "longitude": "12.22366000",
    "native": null,
    "timezone": null,
    "translations": {}
  },
  {
    "id": 24297,
    "name": "Breese",
    "state_id": 3013,
    "state_code": "BB",
    "country_id": 82,
    "country_code": "DE",
    "latitude": "53.00000000",
    "longitude": "11.80000000",
    "native": null,
    "timezone": null,
    "translations": {}
  },
  {
    "id": 24331,
    "name": "Brieselang",
    "state_id": 3013,
    "state_code": "BB",
    "country_id": 82,
    "country_code": "DE",
    "latitude": "52.58333000",
    "longitude": "13.00000000",
    "native": null,
    "timezone": null,
    "translations": {}
  },
  {
    "id": 24332,
    "name": "Briesen",
    "state_id": 3013,
    "state_code": "BB",
    "country_id": 82,
    "country_code": "DE",
    "latitude": "52.34383000",
    "longitude": "14.27804000",
    "native": null,
    "timezone": null,
    "translations": {}
  },
  {
    "id": 24333,
    "name": "Brieskow-Finkenheerd",
    "state_id": 3013,
    "state_code": "BB",
    "country_id": 82,
    "country_code": "DE",
    "latitude": "52.25387000",
    "longitude": "14.57285000",
    "native": null,
    "timezone": null,
    "translations": {}
  },
  {
    "id": 24337,
    "name": "Britz",
    "state_id": 3013,
    "state_code": "BB",
    "country_id": 82,
    "country_code": "DE",
    "latitude": "52.88726000",
    "longitude": "13.81119000",
    "native": null,
    "timezone": null,
    "translations": {}
  },
  {
    "id": 24365,
    "name": "Brück",
    "state_id": 3013,
    "state_code": "BB",
    "country_id": 82,
    "country_code": "DE",
    "latitude": "52.19766000",
    "longitude": "12.76868000",
    "native": null,
    "timezone": null,
    "translations": {}
  },
  {
    "id": 24374,
    "name": "Brüssow",
    "state_id": 3013,
    "state_code": "BB",
    "country_id": 82,
    "country_code": "DE",
    "latitude": "53.39971000",
    "longitude": "14.12533000",
    "native": null,
    "timezone": null,
    "translations": {}
  },
  {
    "id": 24396,
    "name": "Buckow",
    "state_id": 3013,
    "state_code": "BB",
    "country_id": 82,
    "country_code": "DE",
    "latitude": "52.56610000",
    "longitude": "14.07429000",
    "native": null,
    "timezone": null,
    "translations": {}
  },
  {
    "id": 24406,
    "name": "Burg",
    "state_id": 3013,
    "state_code": "BB",
    "country_id": 82,
    "country_code": "DE",
    "latitude": "51.83448000",
    "longitude": "14.14856000",
    "native": null,
    "timezone": null,
    "translations": {}
  },
  {
    "id": 24513,
    "name": "Calau",
    "state_id": 3013,
    "state_code": "BB",
    "country_id": 82,
    "country_code": "DE",
    "latitude": "51.74402000",
    "longitude": "13.95329000",
    "native": null,
    "timezone": null,
    "translations": {}
  },
  {
    "id": 24525,
    "name": "Casekow",
    "state_id": 3013,
    "state_code": "BB",
    "country_id": 82,
    "country_code": "DE",
    "latitude": "53.21117000",
    "longitude": "14.20824000",
    "native": null,
    "timezone": null,
    "translations": {}
  },
  {
    "id": 24535,
    "name": "Chorin",
    "state_id": 3013,
    "state_code": "BB",
    "country_id": 82,
    "country_code": "DE",
    "latitude": "52.90197000",
    "longitude": "13.87153000",
    "native": null,
    "timezone": null,
    "translations": {}
  },
  {
    "id": 24556,
    "name": "Cottbus",
    "state_id": 3013,
    "state_code": "BB",
    "country_id": 82,
    "country_code": "DE",
    "latitude": "51.75769000",
    "longitude": "14.32888000",
    "native": null,
    "timezone": null,
    "translations": {}
  },
  {
    "id": 24564,
    "name": "Crinitz",
    "state_id": 3013,
    "state_code": "BB",
    "country_id": 82,
    "country_code": "DE",
    "latitude": "51.73333000",
    "longitude": "13.76667000",
    "native": null,
    "timezone": null,
    "translations": {}
  },
  {
    "id": 24583,
    "name": "Dahme",
    "state_id": 3013,
    "state_code": "BB",
    "country_id": 82,
    "country_code": "DE",
    "latitude": "51.87008000",
    "longitude": "13.42743000",
    "native": null,
    "timezone": null,
    "translations": {}
  },
  {
    "id": 24587,
    "name": "Dallgow-Döberitz",
    "state_id": 3013,
    "state_code": "BB",
    "country_id": 82,
    "country_code": "DE",
    "latitude": "52.54269000",
    "longitude": "13.05837000",
    "native": null,
    "timezone": null,
    "translations": {}
  },
  {
    "id": 24713,
    "name": "Doberlug-Kirchhain",
    "state_id": 3013,
    "state_code": "BB",
    "country_id": 82,
    "country_code": "DE",
    "latitude": "51.62578000",
    "longitude": "13.56232000",
    "native": null,
    "timezone": null,
    "translations": {}
  },
  {
    "id": 24758,
    "name": "Drebkau",
    "state_id": 3013,
    "state_code": "BB",
    "country_id": 82,
    "country_code": "DE",
    "latitude": "51.65412000",
    "longitude": "14.22316000",
    "native": null,
    "timezone": null,
    "translations": {}
  },
  {
    "id": 24759,
    "name": "Dreetz",
    "state_id": 3013,
    "state_code": "BB",
    "country_id": 82,
    "country_code": "DE",
    "latitude": "52.80297000",
    "longitude": "12.45961000",
    "native": null,
    "timezone": null,
    "translations": {}
  },
  {
    "id": 24839,
    "name": "Eberswalde",
    "state_id": 3013,
    "state_code": "BB",
    "country_id": 82,
    "country_code": "DE",
    "latitude": "52.83492000",
    "longitude": "13.81951000",
    "native": null,
    "timezone": null,
    "translations": {}
  },
  {
    "id": 24907,
    "name": "Eichwalde",
    "state_id": 3013,
    "state_code": "BB",
    "country_id": 82,
    "country_code": "DE",
    "latitude": "52.36667000",
    "longitude": "13.61667000",
    "native": null,
    "timezone": null,
    "translations": {}
  },
  {
    "id": 24929,
    "name": "Eisenhüttenstadt",
    "state_id": 3013,
    "state_code": "BB",
    "country_id": 82,
    "country_code": "DE",
    "latitude": "52.15000000",
    "longitude": "14.65000000",
    "native": null,
    "timezone": null,
    "translations": {}
  },
  {
    "id": 24972,
    "name": "Elsterwerda",
    "state_id": 3013,
    "state_code": "BB",
    "country_id": 82,
    "country_code": "DE",
    "latitude": "51.46043000",
    "longitude": "13.52001000",
    "native": null,
    "timezone": null,
    "translations": {}
  },
  {
    "id": 25049,
    "name": "Erkner",
    "state_id": 3013,
    "state_code": "BB",
    "country_id": 82,
    "country_code": "DE",
    "latitude": "52.42000000",
    "longitude": "13.75437000",
    "native": null,
    "timezone": null,
    "translations": {}
  },
  {
    "id": 25133,
    "name": "Falkenberg",
    "state_id": 3013,
    "state_code": "BB",
    "country_id": 82,
    "country_code": "DE",
    "latitude": "51.58557000",
    "longitude": "13.24347000",
    "native": null,
    "timezone": null,
    "translations": {}
  },
  {
    "id": 25138,
    "name": "Falkensee",
    "state_id": 3013,
    "state_code": "BB",
    "country_id": 82,
    "country_code": "DE",
    "latitude": "52.56014000",
    "longitude": "13.09270000",
    "native": null,
    "timezone": null,
    "translations": {}
  },
  {
    "id": 25149,
    "name": "Fehrbellin",
    "state_id": 3013,
    "state_code": "BB",
    "country_id": 82,
    "country_code": "DE",
    "latitude": "52.81350000",
    "longitude": "12.76440000",
    "native": null,
    "timezone": null,
    "translations": {}
  },
  {
    "id": 25169,
    "name": "Fichtenwalde",
    "state_id": 3013,
    "state_code": "BB",
    "country_id": 82,
    "country_code": "DE",
    "latitude": "52.28038000",
    "longitude": "12.88349000",
    "native": null,
    "timezone": null,
    "translations": {}
  },
  {
    "id": 25176,
    "name": "Finsterwalde",
    "state_id": 3013,
    "state_code": "BB",
    "country_id": 82,
    "country_code": "DE",
    "latitude": "51.63388000",
    "longitude": "13.70662000",
    "native": null,
    "timezone": null,
    "translations": {}
  },
  {
    "id": 25207,
    "name": "Forst",
    "state_id": 3013,
    "state_code": "BB",
    "country_id": 82,
    "country_code": "DE",
    "latitude": "51.73544000",
    "longitude": "14.63971000",
    "native": null,
    "timezone": null,
    "translations": {}
  },
  {
    "id": 25221,
    "name": "Frankfurt (Oder)",
    "state_id": 3013,
    "state_code": "BB",
    "country_id": 82,
    "country_code": "DE",
    "latitude": "52.34714000",
    "longitude": "14.55062000",
    "native": null,
    "timezone": null,
    "translations": {}
  },
  {
    "id": 25282,
    "name": "Friedland",
    "state_id": 3013,
    "state_code": "BB",
    "country_id": 82,
    "country_code": "DE",
    "latitude": "52.10493000",
    "longitude": "14.26399000",
    "native": null,
    "timezone": null,
    "translations": {}
  },
  {
    "id": 25297,
    "name": "Friesack",
    "state_id": 3013,
    "state_code": "BB",
    "country_id": 82,
    "country_code": "DE",
    "latitude": "52.73764000",
    "longitude": "12.57969000",
    "native": null,
    "timezone": null,
    "translations": {}
  },
  {
    "id": 25328,
    "name": "Fürstenberg",
    "state_id": 3013,
    "state_code": "BB",
    "country_id": 82,
    "country_code": "DE",
    "latitude": "53.18427000",
    "longitude": "13.14442000",
    "native": null,
    "timezone": null,
    "translations": {}
  },
  {
    "id": 25334,
    "name": "Fürstenwalde",
    "state_id": 3013,
    "state_code": "BB",
    "country_id": 82,
    "country_code": "DE",
    "latitude": "52.36067000",
    "longitude": "14.06185000",
    "native": null,
    "timezone": null,
    "translations": {}
  },
  {
    "id": 25373,
    "name": "Gartz",
    "state_id": 3013,
    "state_code": "BB",
    "country_id": 82,
    "country_code": "DE",
    "latitude": "53.20829000",
    "longitude": "14.39226000",
    "native": null,
    "timezone": null,
    "translations": {}
  },
  {
    "id": 25465,
    "name": "Gerswalde",
    "state_id": 3013,
    "state_code": "BB",
    "country_id": 82,
    "country_code": "DE",
    "latitude": "53.16988000",
    "longitude": "13.74853000",
    "native": null,
    "timezone": null,
    "translations": {}
  },
  {
    "id": 25512,
    "name": "Glienicke",
    "state_id": 3013,
    "state_code": "BB",
    "country_id": 82,
    "country_code": "DE",
    "latitude": "52.63353000",
    "longitude": "13.32564000",
    "native": null,
    "timezone": null,
    "translations": {}
  },
  {
    "id": 25536,
    "name": "Golßen",
    "state_id": 3013,
    "state_code": "BB",
    "country_id": 82,
    "country_code": "DE",
    "latitude": "51.97204000",
    "longitude": "13.60115000",
    "native": null,
    "timezone": null,
    "translations": {}
  },
  {
    "id": 25535,
    "name": "Golzow",
    "state_id": 3013,
    "state_code": "BB",
    "country_id": 82,
    "country_code": "DE",
    "latitude": "52.27617000",
    "longitude": "12.60052000",
    "native": null,
    "timezone": null,
    "translations": {}
  },
  {
    "id": 25786,
    "name": "Görzke",
    "state_id": 3013,
    "state_code": "BB",
    "country_id": 82,
    "country_code": "DE",
    "latitude": "52.17179000",
    "longitude": "12.37506000",
    "native": null,
    "timezone": null,
    "translations": {}
  },
  {
    "id": 25575,
    "name": "Gramzow",
    "state_id": 3013,
    "state_code": "BB",
    "country_id": 82,
    "country_code": "DE",
    "latitude": "53.21246000",
    "longitude": "14.00748000",
    "native": null,
    "timezone": null,
    "translations": {}
  },
  {
    "id": 25577,
    "name": "Gransee",
    "state_id": 3013,
    "state_code": "BB",
    "country_id": 82,
    "country_code": "DE",
    "latitude": "53.00704000",
    "longitude": "13.15750000",
    "native": null,
    "timezone": null,
    "translations": {}
  },
  {
    "id": 25730,
    "name": "Gröden",
    "state_id": 3013,
    "state_code": "BB",
    "country_id": 82,
    "country_code": "DE",
    "latitude": "51.40000000",
    "longitude": "13.56667000",
    "native": null,
    "timezone": null,
    "translations": {}
  },
  {
    "id": 25627,
    "name": "Groß Köris",
    "state_id": 3013,
    "state_code": "BB",
    "country_id": 82,
    "country_code": "DE",
    "latitude": "52.16587000",
    "longitude": "13.65935000",
    "native": null,
    "timezone": null,
    "translations": {}
  },
  {
    "id": 25625,
    "name": "Groß Kreutz",
    "state_id": 3013,
    "state_code": "BB",
    "country_id": 82,
    "country_code": "DE",
    "latitude": "52.40281000",
    "longitude": "12.77940000",
    "native": null,
    "timezone": null,
    "translations": {}
  },
  {
    "id": 25629,
    "name": "Groß Lindow",
    "state_id": 3013,
    "state_code": "BB",
    "country_id": 82,
    "country_code": "DE",
    "latitude": "52.23333000",
    "longitude": "14.53333000",
    "native": null,
    "timezone": null,
    "translations": {}
  },
  {
    "id": 25634,
    "name": "Groß Pankow",
    "state_id": 3013,
    "state_code": "BB",
    "country_id": 82,
    "country_code": "DE",
    "latitude": "53.11952000",
    "longitude": "12.04975000",
    "native": null,
    "timezone": null,
    "translations": {}
  },
  {
    "id": 25653,
    "name": "Großbeeren",
    "state_id": 3013,
    "state_code": "BB",
    "country_id": 82,
    "country_code": "DE",
    "latitude": "52.35862000",
    "longitude": "13.30994000",
    "native": null,
    "timezone": null,
    "translations": {}
  },
  {
    "id": 25684,
    "name": "Großkmehlen",
    "state_id": 3013,
    "state_code": "BB",
    "country_id": 82,
    "country_code": "DE",
    "latitude": "51.37901000",
    "longitude": "13.72501000",
    "native": null,
    "timezone": null,
    "translations": {}
  },
  {
    "id": 25703,
    "name": "Großräschen",
    "state_id": 3013,
    "state_code": "BB",
    "country_id": 82,
    "country_code": "DE",
    "latitude": "51.58760000",
    "longitude": "14.01093000",
    "native": null,
    "timezone": null,
    "translations": {}
  },
  {
    "id": 25710,
    "name": "Großthiemig",
    "state_id": 3013,
    "state_code": "BB",
    "country_id": 82,
    "country_code": "DE",
    "latitude": "51.38333000",
    "longitude": "13.66667000",
    "native": null,
    "timezone": null,
    "translations": {}
  },
  {
    "id": 25714,
    "name": "Großwoltersdorf",
    "state_id": 3013,
    "state_code": "BB",
    "country_id": 82,
    "country_code": "DE",
    "latitude": "53.06667000",
    "longitude": "13.10000000",
    "native": null,
    "timezone": null,
    "translations": {}
  },
  {
    "id": 25741,
    "name": "Grünheide",
    "state_id": 3013,
    "state_code": "BB",
    "country_id": 82,
    "country_code": "DE",
    "latitude": "52.42343000",
    "longitude": "13.81324000",
    "native": null,
    "timezone": null,
    "translations": {}
  },
  {
    "id": 25748,
    "name": "Guben",
    "state_id": 3013,
    "state_code": "BB",
    "country_id": 82,
    "country_code": "DE",
    "latitude": "51.94987000",
    "longitude": "14.71447000",
    "native": null,
    "timezone": null,
    "translations": {}
  },
  {
    "id": 25753,
    "name": "Gumtow",
    "state_id": 3013,
    "state_code": "BB",
    "country_id": 82,
    "country_code": "DE",
    "latitude": "52.98333000",
    "longitude": "12.25000000",
    "native": null,
    "timezone": null,
    "translations": {}
  },
  {
    "id": 25842,
    "name": "Halbe",
    "state_id": 3013,
    "state_code": "BB",
    "country_id": 82,
    "country_code": "DE",
    "latitude": "52.11667000",
    "longitude": "13.70000000",
    "native": null,
    "timezone": null,
    "translations": {}
  },
  {
    "id": 25996,
    "name": "Heiligengrabe",
    "state_id": 3013,
    "state_code": "BB",
    "country_id": 82,
    "country_code": "DE",
    "latitude": "53.14461000",
    "longitude": "12.36254000",
    "native": null,
    "timezone": null,
    "translations": {}
  },
  {
    "id": 26051,
    "name": "Hennigsdorf",
    "state_id": 3013,
    "state_code": "BB",
    "country_id": 82,
    "country_code": "DE",
    "latitude": "52.63598000",
    "longitude": "13.20419000",
    "native": null,
    "timezone": null,
    "translations": {}
  },
  {
    "id": 26098,
    "name": "Herzberg",
    "state_id": 3013,
    "state_code": "BB",
    "country_id": 82,
    "country_code": "DE",
    "latitude": "51.68692000",
    "longitude": "13.22016000",
    "native": null,
    "timezone": null,
    "translations": {}
  },
  {
    "id": 26166,
    "name": "Hirschfeld",
    "state_id": 3013,
    "state_code": "BB",
    "country_id": 82,
    "country_code": "DE",
    "latitude": "51.38333000",
    "longitude": "13.61667000",
    "native": null,
    "timezone": null,
    "translations": {}
  },
  {
    "id": 26195,
    "name": "Hohen Neuendorf",
    "state_id": 3013,
    "state_code": "BB",
    "country_id": 82,
    "country_code": "DE",
    "latitude": "52.67631000",
    "longitude": "13.27775000",
    "native": null,
    "timezone": null,
    "translations": {}
  },
  {
    "id": 26199,
    "name": "Hohenbocka",
    "state_id": 3013,
    "state_code": "BB",
    "country_id": 82,
    "country_code": "DE",
    "latitude": "51.43099000",
    "longitude": "14.00982000",
    "native": null,
    "timezone": null,
    "translations": {}
  },
  {
    "id": 26208,
    "name": "Hohenleipisch",
    "state_id": 3013,
    "state_code": "BB",
    "country_id": 82,
    "country_code": "DE",
    "latitude": "51.50000000",
    "longitude": "13.55000000",
    "native": null,
    "timezone": null,
    "translations": {}
  },
  {
    "id": 26424,
    "name": "Jacobsdorf",
    "state_id": 3013,
    "state_code": "BB",
    "country_id": 82,
    "country_code": "DE",
    "latitude": "52.33333000",
    "longitude": "14.35000000",
    "native": null,
    "timezone": null,
    "translations": {}
  },
  {
    "id": 26464,
    "name": "Jänschwalde",
    "state_id": 3013,
    "state_code": "BB",
    "country_id": 82,
    "country_code": "DE",
    "latitude": "51.86066000",
    "longitude": "14.49813000",
    "native": null,
    "timezone": null,
    "translations": {}
  },
  {
    "id": 26452,
    "name": "Joachimsthal",
    "state_id": 3013,
    "state_code": "BB",
    "country_id": 82,
    "country_code": "DE",
    "latitude": "52.97945000",
    "longitude": "13.74493000",
    "native": null,
    "timezone": null,
    "translations": {}
  },
  {
    "id": 26476,
    "name": "Jüterbog",
    "state_id": 3013,
    "state_code": "BB",
    "country_id": 82,
    "country_code": "DE",
    "latitude": "51.99607000",
    "longitude": "13.07979000",
    "native": null,
    "timezone": null,
    "translations": {}
  },
  {
    "id": 26526,
    "name": "Karstädt",
    "state_id": 3013,
    "state_code": "BB",
    "country_id": 82,
    "country_code": "DE",
    "latitude": "53.16215000",
    "longitude": "11.74242000",
    "native": null,
    "timezone": null,
    "translations": {}
  },
  {
    "id": 26579,
    "name": "Ketzin",
    "state_id": 3013,
    "state_code": "BB",
    "country_id": 82,
    "country_code": "DE",
    "latitude": "52.47809000",
    "longitude": "12.84530000",
    "native": null,
    "timezone": null,
    "translations": {}
  },
  {
    "id": 26675,
    "name": "Kleinmachnow",
    "state_id": 3013,
    "state_code": "BB",
    "country_id": 82,
    "country_code": "DE",
    "latitude": "52.40786000",
    "longitude": "13.22514000",
    "native": null,
    "timezone": null,
    "translations": {}
  },
  {
    "id": 26693,
    "name": "Kloster Lehnin",
    "state_id": 3013,
    "state_code": "BB",
    "country_id": 82,
    "country_code": "DE",
    "latitude": "52.32039000",
    "longitude": "12.74320000",
    "native": null,
    "timezone": null,
    "translations": {}
  },
  {
    "id": 26713,
    "name": "Kolkwitz",
    "state_id": 3013,
    "state_code": "BB",
    "country_id": 82,
    "country_code": "DE",
    "latitude": "51.75000000",
    "longitude": "14.25000000",
    "native": null,
    "timezone": null,
    "translations": {}
  },
  {
    "id": 26822,
    "name": "Königs Wusterhausen",
    "state_id": 3013,
    "state_code": "BB",
    "country_id": 82,
    "country_code": "DE",
    "latitude": "52.30141000",
    "longitude": "13.63300000",
    "native": null,
    "timezone": null,
    "translations": {}
  },
  {
    "id": 26749,
    "name": "Kremmen",
    "state_id": 3013,
    "state_code": "BB",
    "country_id": 82,
    "country_code": "DE",
    "latitude": "52.76216000",
    "longitude": "13.02515000",
    "native": null,
    "timezone": null,
    "translations": {}
  },
  {
    "id": 26811,
    "name": "Kyritz",
    "state_id": 3013,
    "state_code": "BB",
    "country_id": 82,
    "country_code": "DE",
    "latitude": "52.94212000",
    "longitude": "12.39704000",
    "native": null,
    "timezone": null,
    "translations": {}
  },
  {
    "id": 26959,
    "name": "Lauchhammer",
    "state_id": 3013,
    "state_code": "BB",
    "country_id": 82,
    "country_code": "DE",
    "latitude": "51.48813000",
    "longitude": "13.76623000",
    "native": null,
    "timezone": null,
    "translations": {}
  },
  {
    "id": 26995,
    "name": "Lebus",
    "state_id": 3013,
    "state_code": "BB",
    "country_id": 82,
    "country_code": "DE",
    "latitude": "52.42719000",
    "longitude": "14.53235000",
    "native": null,
    "timezone": null,
    "translations": {}
  },
  {
    "id": 26998,
    "name": "Leegebruch",
    "state_id": 3013,
    "state_code": "BB",
    "country_id": 82,
    "country_code": "DE",
    "latitude": "52.72340000",
    "longitude": "13.19304000",
    "native": null,
    "timezone": null,
    "translations": {}
  },
  {
    "id": 27050,
    "name": "Lenzen",
    "state_id": 3013,
    "state_code": "BB",
    "country_id": 82,
    "country_code": "DE",
    "latitude": "53.09176000",
    "longitude": "11.47453000",
    "native": null,
    "timezone": null,
    "translations": {}
  },
  {
    "id": 27055,
    "name": "Letschin",
    "state_id": 3013,
    "state_code": "BB",
    "country_id": 82,
    "country_code": "DE",
    "latitude": "52.64379000",
    "longitude": "14.36007000",
    "native": null,
    "timezone": null,
    "translations": {}
  },
  {
    "id": 27089,
    "name": "Liebenwalde",
    "state_id": 3013,
    "state_code": "BB",
    "country_id": 82,
    "country_code": "DE",
    "latitude": "52.87125000",
    "longitude": "13.39465000",
    "native": null,
    "timezone": null,
    "translations": {}
  },
  {
    "id": 27090,
    "name": "Lieberose",
    "state_id": 3013,
    "state_code": "BB",
    "country_id": 82,
    "country_code": "DE",
    "latitude": "51.98491000",
    "longitude": "14.29987000",
    "native": null,
    "timezone": null,
    "translations": {}
  },
  {
    "id": 27112,
    "name": "Lindow",
    "state_id": 3013,
    "state_code": "BB",
    "country_id": 82,
    "country_code": "DE",
    "latitude": "52.96689000",
    "longitude": "12.98498000",
    "native": null,
    "timezone": null,
    "translations": {}
  },
  {
    "id": 27203,
    "name": "Lübben",
    "state_id": 3013,
    "state_code": "BB",
    "country_id": 82,
    "country_code": "DE",
    "latitude": "51.93814000",
    "longitude": "13.88826000",
    "native": null,
    "timezone": null,
    "translations": {}
  },
  {
    "id": 27204,
    "name": "Lübbenau",
    "state_id": 3013,
    "state_code": "BB",
    "country_id": 82,
    "country_code": "DE",
    "latitude": "51.86217000",
    "longitude": "13.95168000",
    "native": null,
    "timezone": null,
    "translations": {}
  },
  {
    "id": 27160,
    "name": "Luckau",
    "state_id": 3013,
    "state_code": "BB",
    "country_id": 82,
    "country_code": "DE",
    "latitude": "51.85245000",
    "longitude": "13.70735000",
    "native": null,
    "timezone": null,
    "translations": {}
  },
  {
    "id": 27161,
    "name": "Luckenwalde",
    "state_id": 3013,
    "state_code": "BB",
    "country_id": 82,
    "country_code": "DE",
    "latitude": "52.09029000",
    "longitude": "13.16772000",
    "native": null,
    "timezone": null,
    "translations": {}
  },
  {
    "id": 27164,
    "name": "Ludwigsfelde",
    "state_id": 3013,
    "state_code": "BB",
    "country_id": 82,
    "country_code": "DE",
    "latitude": "52.30322000",
    "longitude": "13.25405000",
    "native": null,
    "timezone": null,
    "translations": {}
  },
  {
    "id": 27182,
    "name": "Lychen",
    "state_id": 3013,
    "state_code": "BB",
    "country_id": 82,
    "country_code": "DE",
    "latitude": "53.21242000",
    "longitude": "13.31483000",
    "native": null,
    "timezone": null,
    "translations": {}
  },
  {
    "id": 27266,
    "name": "Manschnow",
    "state_id": 3013,
    "state_code": "BB",
    "country_id": 82,
    "country_code": "DE",
    "latitude": "52.54990000",
    "longitude": "14.55332000",
    "native": null,
    "timezone": null,
    "translations": {}
  },
  {
    "id": 27281,
    "name": "Marienwerder",
    "state_id": 3013,
    "state_code": "BB",
    "country_id": 82,
    "country_code": "DE",
    "latitude": "52.84208000",
    "longitude": "13.59927000",
    "native": null,
    "timezone": null,
    "translations": {}
  },
  {
    "id": 27391,
    "name": "Melchow",
    "state_id": 3013,
    "state_code": "BB",
    "country_id": 82,
    "country_code": "DE",
    "latitude": "52.77613000",
    "longitude": "13.70647000",
    "native": null,
    "timezone": null,
    "translations": {}
  },
  {
    "id": 27448,
    "name": "Meyenburg",
    "state_id": 3013,
    "state_code": "BB",
    "country_id": 82,
    "country_code": "DE",
    "latitude": "53.04524000",
    "longitude": "14.23691000",
    "native": null,
    "timezone": null,
    "translations": {}
  },
  {
    "id": 27456,
    "name": "Michendorf",
    "state_id": 3013,
    "state_code": "BB",
    "country_id": 82,
    "country_code": "DE",
    "latitude": "52.31352000",
    "longitude": "13.02996000",
    "native": null,
    "timezone": null,
    "translations": {}
  },
  {
    "id": 27467,
    "name": "Milmersdorf",
    "state_id": 3013,
    "state_code": "BB",
    "country_id": 82,
    "country_code": "DE",
    "latitude": "53.11185000",
    "longitude": "13.64150000",
    "native": null,
    "timezone": null,
    "translations": {}
  },
  {
    "id": 27489,
    "name": "Mittenwalde",
    "state_id": 3013,
    "state_code": "BB",
    "country_id": 82,
    "country_code": "DE",
    "latitude": "52.26007000",
    "longitude": "13.53945000",
    "native": null,
    "timezone": null,
    "translations": {}
  },
  {
    "id": 27495,
    "name": "Mixdorf",
    "state_id": 3013,
    "state_code": "BB",
    "country_id": 82,
    "country_code": "DE",
    "latitude": "52.20000000",
    "longitude": "14.40000000",
    "native": null,
    "timezone": null,
    "translations": {}
  },
  {
    "id": 27592,
    "name": "Mühlberg",
    "state_id": 3013,
    "state_code": "BB",
    "country_id": 82,
    "country_code": "DE",
    "latitude": "51.43453000",
    "longitude": "13.22177000",
    "native": null,
    "timezone": null,
    "translations": {}
  },
  {
    "id": 27607,
    "name": "Müllrose",
    "state_id": 3013,
    "state_code": "BB",
    "country_id": 82,
    "country_code": "DE",
    "latitude": "52.24736000",
    "longitude": "14.41794000",
    "native": null,
    "timezone": null,
    "translations": {}
  },
  {
    "id": 27610,
    "name": "Müncheberg",
    "state_id": 3013,
    "state_code": "BB",
    "country_id": 82,
    "country_code": "DE",
    "latitude": "52.50704000",
    "longitude": "14.13716000",
    "native": null,
    "timezone": null,
    "translations": {}
  },
  {
    "id": 27647,
    "name": "Nauen",
    "state_id": 3013,
    "state_code": "BB",
    "country_id": 82,
    "country_code": "DE",
    "latitude": "52.60701000",
    "longitude": "12.87374000",
    "native": null,
    "timezone": null,
    "translations": {}
  },
  {
    "id": 27673,
    "name": "Nennhausen",
    "state_id": 3013,
    "state_code": "BB",
    "country_id": 82,
    "country_code": "DE",
    "latitude": "52.60000000",
    "longitude": "12.50000000",
    "native": null,
    "timezone": null,
    "translations": {}
  },
  {
    "id": 27691,
    "name": "Neu Zauche",
    "state_id": 3013,
    "state_code": "BB",
    "country_id": 82,
    "country_code": "DE",
    "latitude": "51.92757000",
    "longitude": "14.08812000",
    "native": null,
    "timezone": null,
    "translations": {}
  },
  {
    "id": 27720,
    "name": "Neuenhagen",
    "state_id": 3013,
    "state_code": "BB",
    "country_id": 82,
    "country_code": "DE",
    "latitude": "52.52985000",
    "longitude": "13.68914000",
    "native": null,
    "timezone": null,
    "translations": {}
  },
  {
    "id": 27737,
    "name": "Neuhardenberg",
    "state_id": 3013,
    "state_code": "BB",
    "country_id": 82,
    "country_code": "DE",
    "latitude": "52.59601000",
    "longitude": "14.23768000",
    "native": null,
    "timezone": null,
    "translations": {}
  },
  {
    "id": 27767,
    "name": "Neulewin",
    "state_id": 3013,
    "state_code": "BB",
    "country_id": 82,
    "country_code": "DE",
    "latitude": "52.72434000",
    "longitude": "14.27922000",
    "native": null,
    "timezone": null,
    "translations": {}
  },
  {
    "id": 27787,
    "name": "Neuruppin",
    "state_id": 3013,
    "state_code": "BB",
    "country_id": 82,
    "country_code": "DE",
    "latitude": "52.92815000",
    "longitude": "12.80311000",
    "native": null,
    "timezone": null,
    "translations": {}
  },
  {
    "id": 27812,
    "name": "Neutrebbin",
    "state_id": 3013,
    "state_code": "BB",
    "country_id": 82,
    "country_code": "DE",
    "latitude": "52.66482000",
    "longitude": "14.22802000",
    "native": null,
    "timezone": null,
    "translations": {}
  },
  {
    "id": 27816,
    "name": "Neuzelle",
    "state_id": 3013,
    "state_code": "BB",
    "country_id": 82,
    "country_code": "DE",
    "latitude": "52.09016000",
    "longitude": "14.64804000",
    "native": null,
    "timezone": null,
    "translations": {}
  },
  {
    "id": 27849,
    "name": "Niedergörsdorf",
    "state_id": 3013,
    "state_code": "BB",
    "country_id": 82,
    "country_code": "DE",
    "latitude": "51.97943000",
    "longitude": "12.98541000",
    "native": null,
    "timezone": null,
    "translations": {}
  },
  {
    "id": 27891,
    "name": "Niemegk",
    "state_id": 3013,
    "state_code": "BB",
    "country_id": 82,
    "country_code": "DE",
    "latitude": "52.07388000",
    "longitude": "12.68947000",
    "native": null,
    "timezone": null,
    "translations": {}
  },
  {
    "id": 28070,
    "name": "Oderberg",
    "state_id": 3013,
    "state_code": "BB",
    "country_id": 82,
    "country_code": "DE",
    "latitude": "52.86571000",
    "longitude": "14.04508000",
    "native": null,
    "timezone": null,
    "translations": {}
  },
  {
    "id": 28124,
    "name": "Oranienburg",
    "state_id": 3013,
    "state_code": "BB",
    "country_id": 82,
    "country_code": "DE",
    "latitude": "52.75577000",
    "longitude": "13.24197000",
    "native": null,
    "timezone": null,
    "translations": {}
  },
  {
    "id": 28133,
    "name": "Ortrand",
    "state_id": 3013,
    "state_code": "BB",
    "country_id": 82,
    "country_code": "DE",
    "latitude": "51.37505000",
    "longitude": "13.75982000",
    "native": null,
    "timezone": null,
    "translations": {}
  },
  {
    "id": 28235,
    "name": "Paulinenaue",
    "state_id": 3013,
    "state_code": "BB",
    "country_id": 82,
    "country_code": "DE",
    "latitude": "52.67701000",
    "longitude": "12.71067000",
    "native": null,
    "timezone": null,
    "translations": {}
  },
  {
    "id": 28244,
    "name": "Peitz",
    "state_id": 3013,
    "state_code": "BB",
    "country_id": 82,
    "country_code": "DE",
    "latitude": "51.85841000",
    "longitude": "14.41138000",
    "native": null,
    "timezone": null,
    "translations": {}
  },
  {
    "id": 28260,
    "name": "Perleberg",
    "state_id": 3013,
    "state_code": "BB",
    "country_id": 82,
    "country_code": "DE",
    "latitude": "53.07583000",
    "longitude": "11.85739000",
    "native": null,
    "timezone": null,
    "translations": {}
  },
  {
    "id": 28265,
    "name": "Petershagen",
    "state_id": 3013,
    "state_code": "BB",
    "country_id": 82,
    "country_code": "DE",
    "latitude": "52.52078000",
    "longitude": "13.78748000",
    "native": null,
    "timezone": null,
    "translations": {}
  },
  {
    "id": 28315,
    "name": "Plattenburg",
    "state_id": 3013,
    "state_code": "BB",
    "country_id": 82,
    "country_code": "DE",
    "latitude": "52.95919000",
    "longitude": "12.02951000",
    "native": null,
    "timezone": null,
    "translations": {}
  },
  {
    "id": 28323,
    "name": "Plessa",
    "state_id": 3013,
    "state_code": "BB",
    "country_id": 82,
    "country_code": "DE",
    "latitude": "51.46667000",
    "longitude": "13.61667000",
    "native": null,
    "timezone": null,
    "translations": {}
  },
  {
    "id": 28339,
    "name": "Podelzig",
    "state_id": 3013,
    "state_code": "BB",
    "country_id": 82,
    "country_code": "DE",
    "latitude": "52.47175000",
    "longitude": "14.53465000",
    "native": null,
    "timezone": null,
    "translations": {}
  },
  {
    "id": 28362,
    "name": "Potsdam",
    "state_id": 3013,
    "state_code": "BB",
    "country_id": 82,
    "country_code": "DE",
    "latitude": "52.39886000",
    "longitude": "13.06566000",
    "native": null,
    "timezone": null,
    "translations": {}
  },
  {
    "id": 28373,
    "name": "Premnitz",
    "state_id": 3013,
    "state_code": "BB",
    "country_id": 82,
    "country_code": "DE",
    "latitude": "52.53184000",
    "longitude": "12.34845000",
    "native": null,
    "timezone": null,
    "translations": {}
  },
  {
    "id": 28374,
    "name": "Prenzlau",
    "state_id": 3013,
    "state_code": "BB",
    "country_id": 82,
    "country_code": "DE",
    "latitude": "53.31625000",
    "longitude": "13.86261000",
    "native": null,
    "timezone": null,
    "translations": {}
  },
  {
    "id": 28392,
    "name": "Pritzwalk",
    "state_id": 3013,
    "state_code": "BB",
    "country_id": 82,
    "country_code": "DE",
    "latitude": "53.14945000",
    "longitude": "12.17405000",
    "native": null,
    "timezone": null,
    "translations": {}
  },
  {
    "id": 28399,
    "name": "Prötzel",
    "state_id": 3013,
    "state_code": "BB",
    "country_id": 82,
    "country_code": "DE",
    "latitude": "52.63723000",
    "longitude": "13.98783000",
    "native": null,
    "timezone": null,
    "translations": {}
  },
  {
    "id": 28409,
    "name": "Putlitz",
    "state_id": 3013,
    "state_code": "BB",
    "country_id": 82,
    "country_code": "DE",
    "latitude": "53.24899000",
    "longitude": "12.04179000",
    "native": null,
    "timezone": null,
    "translations": {}
  },
  {
    "id": 28471,
    "name": "Rangsdorf",
    "state_id": 3013,
    "state_code": "BB",
    "country_id": 82,
    "country_code": "DE",
    "latitude": "52.29126000",
    "longitude": "13.41946000",
    "native": null,
    "timezone": null,
    "translations": {}
  },
  {
    "id": 28485,
    "name": "Rathenow",
    "state_id": 3013,
    "state_code": "BB",
    "country_id": 82,
    "country_code": "DE",
    "latitude": "52.60659000",
    "longitude": "12.33696000",
    "native": null,
    "timezone": null,
    "translations": {}
  },
  {
    "id": 28494,
    "name": "Rauen",
    "state_id": 3013,
    "state_code": "BB",
    "country_id": 82,
    "country_code": "DE",
    "latitude": "52.33227000",
    "longitude": "14.02797000",
    "native": null,
    "timezone": null,
    "translations": {}
  },
  {
    "id": 28532,
    "name": "Rehfelde",
    "state_id": 3013,
    "state_code": "BB",
    "country_id": 82,
    "country_code": "DE",
    "latitude": "52.53417000",
    "longitude": "13.90884000",
    "native": null,
    "timezone": null,
    "translations": {}
  },
  {
    "id": 28546,
    "name": "Reichenwalde",
    "state_id": 3013,
    "state_code": "BB",
    "country_id": 82,
    "country_code": "DE",
    "latitude": "52.26667000",
    "longitude": "14.00000000",
    "native": null,
    "timezone": null,
    "translations": {}
  },
  {
    "id": 28612,
    "name": "Rheinsberg",
    "state_id": 3013,
    "state_code": "BB",
    "country_id": 82,
    "country_code": "DE",
    "latitude": "53.09972000",
    "longitude": "12.89885000",
    "native": null,
    "timezone": null,
    "translations": {}
  },
  {
    "id": 28617,
    "name": "Rhinow",
    "state_id": 3013,
    "state_code": "BB",
    "country_id": 82,
    "country_code": "DE",
    "latitude": "52.75094000",
    "longitude": "12.34194000",
    "native": null,
    "timezone": null,
    "translations": {}
  },
  {
    "id": 28654,
    "name": "Rietz Neuendorf",
    "state_id": 3013,
    "state_code": "BB",
    "country_id": 82,
    "country_code": "DE",
    "latitude": "52.22758000",
    "longitude": "14.17463000",
    "native": null,
    "timezone": null,
    "translations": {}
  },
  {
    "id": 28712,
    "name": "Roskow",
    "state_id": 3013,
    "state_code": "BB",
    "country_id": 82,
    "country_code": "DE",
    "latitude": "52.47237000",
    "longitude": "12.71886000",
    "native": null,
    "timezone": null,
    "translations": {}
  },
  {
    "id": 28799,
    "name": "Rückersdorf",
    "state_id": 3013,
    "state_code": "BB",
    "country_id": 82,
    "country_code": "DE",
    "latitude": "51.56955000",
    "longitude": "13.57226000",
    "native": null,
    "timezone": null,
    "translations": {}
  },
  {
    "id": 28802,
    "name": "Rüdnitz",
    "state_id": 3013,
    "state_code": "BB",
    "country_id": 82,
    "country_code": "DE",
    "latitude": "52.72137000",
    "longitude": "13.62502000",
    "native": null,
    "timezone": null,
    "translations": {}
  },
  {
    "id": 28756,
    "name": "Ruhland",
    "state_id": 3013,
    "state_code": "BB",
    "country_id": 82,
    "country_code": "DE",
    "latitude": "51.45755000",
    "longitude": "13.86643000",
    "native": null,
    "timezone": null,
    "translations": {}
  },
  {
    "id": 28835,
    "name": "Sallgast",
    "state_id": 3013,
    "state_code": "BB",
    "country_id": 82,
    "country_code": "DE",
    "latitude": "51.58870000",
    "longitude": "13.84861000",
    "native": null,
    "timezone": null,
    "translations": {}
  },
  {
    "id": 28929,
    "name": "Schenkendöbern",
    "state_id": 3013,
    "state_code": "BB",
    "country_id": 82,
    "country_code": "DE",
    "latitude": "51.95723000",
    "longitude": "14.63541000",
    "native": null,
    "timezone": null,
    "translations": {}
  },
  {
    "id": 28951,
    "name": "Schipkau",
    "state_id": 3013,
    "state_code": "BB",
    "country_id": 82,
    "country_code": "DE",
    "latitude": "51.51766000",
    "longitude": "13.89738000",
    "native": null,
    "timezone": null,
    "translations": {}
  },
  {
    "id": 28975,
    "name": "Schlieben",
    "state_id": 3013,
    "state_code": "BB",
    "country_id": 82,
    "country_code": "DE",
    "latitude": "51.72379000",
    "longitude": "13.38304000",
    "native": null,
    "timezone": null,
    "translations": {}
  },
  {
    "id": 29113,
    "name": "Schönborn",
    "state_id": 3013,
    "state_code": "BB",
    "country_id": 82,
    "country_code": "DE",
    "latitude": "51.60016000",
    "longitude": "13.48967000",
    "native": null,
    "timezone": null,
    "translations": {}
  },
  {
    "id": 29119,
    "name": "Schönefeld",
    "state_id": 3013,
    "state_code": "BB",
    "country_id": 82,
    "country_code": "DE",
    "latitude": "52.38897000",
    "longitude": "13.50374000",
    "native": null,
    "timezone": null,
    "translations": {}
  },
  {
    "id": 29120,
    "name": "Schöneiche",
    "state_id": 3013,
    "state_code": "BB",
    "country_id": 82,
    "country_code": "DE",
    "latitude": "52.47286000",
    "longitude": "13.69226000",
    "native": null,
    "timezone": null,
    "translations": {}
  },
  {
    "id": 29122,
    "name": "Schönewalde",
    "state_id": 3013,
    "state_code": "BB",
    "country_id": 82,
    "country_code": "DE",
    "latitude": "51.67901000",
    "longitude": "13.60247000",
    "native": null,
    "timezone": null,
    "translations": {}
  },
  {
    "id": 29035,
    "name": "Schulzendorf",
    "state_id": 3013,
    "state_code": "BB",
    "country_id": 82,
    "country_code": "DE",
    "latitude": "52.35818000",
    "longitude": "13.59842000",
    "native": null,
    "timezone": null,
    "translations": {}
  },
  {
    "id": 29074,
    "name": "Schwarzheide",
    "state_id": 3013,
    "state_code": "BB",
    "country_id": 82,
    "country_code": "DE",
    "latitude": "51.47671000",
    "longitude": "13.85559000",
    "native": null,
    "timezone": null,
    "translations": {}
  },
  {
    "id": 29078,
    "name": "Schwedt (Oder)",
    "state_id": 3013,
    "state_code": "BB",
    "country_id": 82,
    "country_code": "DE",
    "latitude": "53.05963000",
    "longitude": "14.28154000",
    "native": null,
    "timezone": null,
    "translations": {}
  },
  {
    "id": 29160,
    "name": "Seelow",
    "state_id": 3013,
    "state_code": "BB",
    "country_id": 82,
    "country_code": "DE",
    "latitude": "52.53392000",
    "longitude": "14.38128000",
    "native": null,
    "timezone": null,
    "translations": {}
  },
  {
    "id": 29191,
    "name": "Senftenberg",
    "state_id": 3013,
    "state_code": "BB",
    "country_id": 82,
    "country_code": "DE",
    "latitude": "51.52517000",
    "longitude": "14.00164000",
    "native": null,
    "timezone": null,
    "translations": {}
  },
  {
    "id": 29274,
    "name": "Sonnewalde",
    "state_id": 3013,
    "state_code": "BB",
    "country_id": 82,
    "country_code": "DE",
    "latitude": "51.69223000",
    "longitude": "13.64730000",
    "native": null,
    "timezone": null,
    "translations": {}
  },
  {
    "id": 29297,
    "name": "Sperenberg",
    "state_id": 3013,
    "state_code": "BB",
    "country_id": 82,
    "country_code": "DE",
    "latitude": "52.14113000",
    "longitude": "13.36500000",
    "native": null,
    "timezone": null,
    "translations": {}
  },
  {
    "id": 29307,
    "name": "Spreenhagen",
    "state_id": 3013,
    "state_code": "BB",
    "country_id": 82,
    "country_code": "DE",
    "latitude": "52.34325000",
    "longitude": "13.87663000",
    "native": null,
    "timezone": null,
    "translations": {}
  },
  {
    "id": 29333,
    "name": "Stahnsdorf",
    "state_id": 3013,
    "state_code": "BB",
    "country_id": 82,
    "country_code": "DE",
    "latitude": "52.38333000",
    "longitude": "13.21667000",
    "native": null,
    "timezone": null,
    "translations": {}
  },
  {
    "id": 29384,
    "name": "Steinhöfel",
    "state_id": 3013,
    "state_code": "BB",
    "country_id": 82,
    "country_code": "DE",
    "latitude": "52.40000000",
    "longitude": "14.16667000",
    "native": null,
    "timezone": null,
    "translations": {}
  },
  {
    "id": 29421,
    "name": "Storkow",
    "state_id": 3013,
    "state_code": "BB",
    "country_id": 82,
    "country_code": "DE",
    "latitude": "52.25662000",
    "longitude": "13.93337000",
    "native": null,
    "timezone": null,
    "translations": {}
  },
  {
    "id": 29429,
    "name": "Straupitz",
    "state_id": 3013,
    "state_code": "BB",
    "country_id": 82,
    "country_code": "DE",
    "latitude": "51.91357000",
    "longitude": "14.12275000",
    "native": null,
    "timezone": null,
    "translations": {}
  },
  {
    "id": 29430,
    "name": "Strausberg",
    "state_id": 3013,
    "state_code": "BB",
    "country_id": 82,
    "country_code": "DE",
    "latitude": "52.57859000",
    "longitude": "13.88741000",
    "native": null,
    "timezone": null,
    "translations": {}
  },
  {
    "id": 29535,
    "name": "Tauche",
    "state_id": 3013,
    "state_code": "BB",
    "country_id": 82,
    "country_code": "DE",
    "latitude": "52.15000000",
    "longitude": "14.16667000",
    "native": null,
    "timezone": null,
    "translations": {}
  },
  {
    "id": 29554,
    "name": "Teltow",
    "state_id": 3013,
    "state_code": "BB",
    "country_id": 82,
    "country_code": "DE",
    "latitude": "52.40310000",
    "longitude": "13.26014000",
    "native": null,
    "timezone": null,
    "translations": {}
  },
  {
    "id": 29556,
    "name": "Templin",
    "state_id": 3013,
    "state_code": "BB",
    "country_id": 82,
    "country_code": "DE",
    "latitude": "53.11865000",
    "longitude": "13.50220000",
    "native": null,
    "timezone": null,
    "translations": {}
  },
  {
    "id": 29571,
    "name": "Teupitz",
    "state_id": 3013,
    "state_code": "BB",
    "country_id": 82,
    "country_code": "DE",
    "latitude": "52.12967000",
    "longitude": "13.61960000",
    "native": null,
    "timezone": null,
    "translations": {}
  },
  {
    "id": 29648,
    "name": "Trebbin",
    "state_id": 3013,
    "state_code": "BB",
    "country_id": 82,
    "country_code": "DE",
    "latitude": "52.21675000",
    "longitude": "13.22496000",
    "native": null,
    "timezone": null,
    "translations": {}
  },
  {
    "id": 29663,
    "name": "Treuenbrietzen",
    "state_id": 3013,
    "state_code": "BB",
    "country_id": 82,
    "country_code": "DE",
    "latitude": "52.09754000",
    "longitude": "12.87258000",
    "native": null,
    "timezone": null,
    "translations": {}
  },
  {
    "id": 29687,
    "name": "Tschernitz",
    "state_id": 3013,
    "state_code": "BB",
    "country_id": 82,
    "country_code": "DE",
    "latitude": "51.58333000",
    "longitude": "14.61667000",
    "native": null,
    "timezone": null,
    "translations": {}
  },
  {
    "id": 29718,
    "name": "Uebigau",
    "state_id": 3013,
    "state_code": "BB",
    "country_id": 82,
    "country_code": "DE",
    "latitude": "51.59415000",
    "longitude": "13.29983000",
    "native": null,
    "timezone": null,
    "translations": {}
  },
  {
    "id": 29831,
    "name": "Velten",
    "state_id": 3013,
    "state_code": "BB",
    "country_id": 82,
    "country_code": "DE",
    "latitude": "52.69149000",
    "longitude": "13.17533000",
    "native": null,
    "timezone": null,
    "translations": {}
  },
  {
    "id": 29839,
    "name": "Vetschau",
    "state_id": 3013,
    "state_code": "BB",
    "country_id": 82,
    "country_code": "DE",
    "latitude": "51.78638000",
    "longitude": "14.07941000",
    "native": null,
    "timezone": null,
    "translations": {}
  },
  {
    "id": 29964,
    "name": "Waldsieversdorf",
    "state_id": 3013,
    "state_code": "BB",
    "country_id": 82,
    "country_code": "DE",
    "latitude": "52.54221000",
    "longitude": "14.07022000",
    "native": null,
    "timezone": null,
    "translations": {}
  },
  {
    "id": 29999,
    "name": "Wandlitz",
    "state_id": 3013,
    "state_code": "BB",
    "country_id": 82,
    "country_code": "DE",
    "latitude": "52.74196000",
    "longitude": "13.45799000",
    "native": null,
    "timezone": null,
    "translations": {}
  },
  {
    "id": 30107,
    "name": "Weisen",
    "state_id": 3013,
    "state_code": "BB",
    "country_id": 82,
    "country_code": "DE",
    "latitude": "53.02518000",
    "longitude": "11.78710000",
    "native": null,
    "timezone": null,
    "translations": {}
  },
  {
    "id": 30150,
    "name": "Welzow",
    "state_id": 3013,
    "state_code": "BB",
    "country_id": 82,
    "country_code": "DE",
    "latitude": "51.58381000",
    "longitude": "14.17082000",
    "native": null,
    "timezone": null,
    "translations": {}
  },
  {
    "id": 30157,
    "name": "Wendisch Rietz",
    "state_id": 3013,
    "state_code": "BB",
    "country_id": 82,
    "country_code": "DE",
    "latitude": "52.21613000",
    "longitude": "14.00845000",
    "native": null,
    "timezone": null,
    "translations": {}
  },
  {
    "id": 30167,
    "name": "Werben",
    "state_id": 3013,
    "state_code": "BB",
    "country_id": 82,
    "country_code": "DE",
    "latitude": "51.81667000",
    "longitude": "14.18333000",
    "native": null,
    "timezone": null,
    "translations": {}
  },
  {
    "id": 30170,
    "name": "Werder",
    "state_id": 3013,
    "state_code": "BB",
    "country_id": 82,
    "country_code": "DE",
    "latitude": "52.37874000",
    "longitude": "12.93400000",
    "native": null,
    "timezone": null,
    "translations": {}
  },
  {
    "id": 30173,
    "name": "Werftpfuhl",
    "state_id": 3013,
    "state_code": "BB",
    "country_id": 82,
    "country_code": "DE",
    "latitude": "52.66014000",
    "longitude": "13.79351000",
    "native": null,
    "timezone": null,
    "translations": {}
  },
  {
    "id": 30183,
    "name": "Werneuchen",
    "state_id": 3013,
    "state_code": "BB",
    "country_id": 82,
    "country_code": "DE",
    "latitude": "52.63275000",
    "longitude": "13.73437000",
    "native": null,
    "timezone": null,
    "translations": {}
  },
  {
    "id": 30256,
    "name": "Wiesenau",
    "state_id": 3013,
    "state_code": "BB",
    "country_id": 82,
    "country_code": "DE",
    "latitude": "52.23071000",
    "longitude": "14.59107000",
    "native": null,
    "timezone": null,
    "translations": {}
  },
  {
    "id": 30258,
    "name": "Wiesenburg",
    "state_id": 3013,
    "state_code": "BB",
    "country_id": 82,
    "country_code": "DE",
    "latitude": "52.11456000",
    "longitude": "12.45534000",
    "native": null,
    "timezone": null,
    "translations": {}
  },
  {
    "id": 30352,
    "name": "Wittenberge",
    "state_id": 3013,
    "state_code": "BB",
    "country_id": 82,
    "country_code": "DE",
    "latitude": "53.00543000",
    "longitude": "11.75032000",
    "native": null,
    "timezone": null,
    "translations": {}
  },
  {
    "id": 30366,
    "name": "Wittstock",
    "state_id": 3013,
    "state_code": "BB",
    "country_id": 82,
    "country_code": "DE",
    "latitude": "53.16118000",
    "longitude": "12.48287000",
    "native": null,
    "timezone": null,
    "translations": {}
  },
  {
    "id": 30400,
    "name": "Woltersdorf",
    "state_id": 3013,
    "state_code": "BB",
    "country_id": 82,
    "country_code": "DE",
    "latitude": "52.45554000",
    "longitude": "13.74986000",
    "native": null,
    "timezone": null,
    "translations": {}
  },
  {
    "id": 30411,
    "name": "Wriezen",
    "state_id": 3013,
    "state_code": "BB",
    "country_id": 82,
    "country_code": "DE",
    "latitude": "52.72091000",
    "longitude": "14.13425000",
    "native": null,
    "timezone": null,
    "translations": {}
  },
  {
    "id": 30427,
    "name": "Wusterhausen",
    "state_id": 3013,
    "state_code": "BB",
    "country_id": 82,
    "country_code": "DE",
    "latitude": "52.89120000",
    "longitude": "12.46021000",
    "native": null,
    "timezone": null,
    "translations": {}
  },
  {
    "id": 30429,
    "name": "Wustermark",
    "state_id": 3013,
    "state_code": "BB",
    "country_id": 82,
    "country_code": "DE",
    "latitude": "52.55000000",
    "longitude": "12.95000000",
    "native": null,
    "timezone": null,
    "translations": {}
  },
  {
    "id": 30430,
    "name": "Wusterwitz",
    "state_id": 3013,
    "state_code": "BB",
    "country_id": 82,
    "country_code": "DE",
    "latitude": "52.36666000",
    "longitude": "12.38488000",
    "native": null,
    "timezone": null,
    "translations": {}
  },
  {
    "id": 30474,
    "name": "Zehdenick",
    "state_id": 3013,
    "state_code": "BB",
    "country_id": 82,
    "country_code": "DE",
    "latitude": "52.97852000",
    "longitude": "13.33165000",
    "native": null,
    "timezone": null,
    "translations": {}
  },
  {
    "id": 30499,
    "name": "Zeuthen",
    "state_id": 3013,
    "state_code": "BB",
    "country_id": 82,
    "country_code": "DE",
    "latitude": "52.34803000",
    "longitude": "13.62174000",
    "native": null,
    "timezone": null,
    "translations": {}
  },
  {
    "id": 30505,
    "name": "Ziesar",
    "state_id": 3013,
    "state_code": "BB",
    "country_id": 82,
    "country_code": "DE",
    "latitude": "52.26616000",
    "longitude": "12.28997000",
    "native": null,
    "timezone": null,
    "translations": {}
  },
  {
    "id": 30507,
    "name": "Ziltendorf",
    "state_id": 3013,
    "state_code": "BB",
    "country_id": 82,
    "country_code": "DE",
    "latitude": "52.20608000",
    "longitude": "14.62411000",
    "native": null,
    "timezone": null,
    "translations": {}
  },
  {
    "id": 30517,
    "name": "Zossen",
    "state_id": 3013,
    "state_code": "BB",
    "country_id": 82,
    "country_code": "DE",
    "latitude": "52.21600000",
    "longitude": "13.44909000",
    "native": null,
    "timezone": null,
    "translations": {}
  }
]