[
  {
    "id": 3444,
    "name": "Annobón",
    "country_id": 67,
    "country_code": "GQ",
    "fips_code": null,
    "iso2": "AN",
    "type": "province",
    "latitude": "-1.42687820",
    "longitude": "5.63528010",
    "native": "Annobón",
    "timezone": "Africa/Malabo",
    "translations": {}
  },
  {
    "id": 3446,
    "name": "Bioko Norte",
    "country_id": 67,
    "country_code": "GQ",
    "fips_code": null,
    "iso2": "BN",
    "type": "province",
    "latitude": "3.64845940",
    "longitude": "8.78511550",
    "native": "Bioko norte",
    "timezone": "Africa/Malabo",
    "translations": {}
  },
  {
    "id": 3443,
    "name": "Bioko Sur",
    "country_id": 67,
    "country_code": "GQ",
    "fips_code": null,
    "iso2": "BS",
    "type": "province",
    "latitude": "3.42452540",
    "longitude": "8.66460920",
    "native": "Bioko sur",
    "timezone": "Africa/Malabo",
    "translations": {}
  },
  {
    "id": 3445,
    "name": "Centro Sur",
    "country_id": 67,
    "country_code": "GQ",
    "fips_code": null,
    "iso2": "CS",
    "type": "province",
    "latitude": "1.39699660",
    "longitude": "10.45385280",
    "native": "Centro Sur",
    "timezone": "Africa/Malabo",
    "translations": {}
  },
  {
    "id": 3442,
    "name": "Insular",
    "country_id": 67,
    "country_code": "GQ",
    "fips_code": null,
    "iso2": "I",
    "type": "region",
    "latitude": "3.49865230",
    "longitude": "8.71360620",
    "native": "Insular",
    "timezone": "Africa/Malabo",
    "translations": {}
  },
  {
    "id": 3439,
    "name": "Kié-Ntem",
    "country_id": 67,
    "country_code": "GQ",
    "fips_code": null,
    "iso2": "KN",
    "type": "province",
    "latitude": "2.05792660",
    "longitude": "10.98559160",
    "native": "A quien hice",
    "timezone": "Africa/Malabo",
    "translations": {}
  },
  {
    "id": 3441,
    "name": "Litoral",
    "country_id": 67,
    "country_code": "GQ",
    "fips_code": null,
    "iso2": "LI",
    "type": "province",
    "latitude": "1.60263740",
    "longitude": "9.84156900",
    "native": "Costero",
    "timezone": "Africa/Malabo",
    "translations": {}
  },
  {
    "id": 3438,
    "name": "Río Muni",
    "country_id": 67,
    "country_code": "GQ",
    "fips_code": null,
    "iso2": "C",
    "type": "region",
    "latitude": "1.05709510",
    "longitude": "9.65329170",
    "native": "Río Muni",
    "timezone": "Africa/Malabo",
    "translations": {}
  },
  {
    "id": 3440,
    "name": "Wele-Nzas",
    "country_id": 67,
    "country_code": "GQ",
    "fips_code": null,
    "iso2": "WN",
    "type": "province",
    "latitude": "1.46487190",
    "longitude": "11.13167600",
    "native": "Wele-nza",
    "timezone": "Africa/Malabo",
    "translations": {}
  }
]