[
  {
    "id": 150327,
    "name": "Ab Pakhsh",
    "state_id": 3932,
    "state_code": "18",
    "country_id": 103,
    "country_code": "IR",
    "latitude": "29.36788550",
    "longitude": "51.05140670",
    "native": null,
    "timezone": null,
    "translations": {}
  },
  {
    "id": 150322,
    "name": "Abad",
    "state_id": 3932,
    "state_code": "18",
    "country_id": 103,
    "country_code": "IR",
    "latitude": "29.02994140",
    "longitude": "51.23435480",
    "native": null,
    "timezone": null,
    "translations": {}
  },
  {
    "id": 134560,
    "name": "Ahram",
    "state_id": 3932,
    "state_code": "18",
    "country_id": 103,
    "country_code": "IR",
    "latitude": "28.88260000",
    "longitude": "51.27460000",
    "native": null,
    "timezone": null,
    "translations": {}
  },
  {
    "id": 150321,
    "name": "Alishahr",
    "state_id": 3932,
    "state_code": "18",
    "country_id": 103,
    "country_code": "IR",
    "latitude": "28.93079290",
    "longitude": "51.05608460",
    "native": null,
    "timezone": null,
    "translations": {}
  },
  {
    "id": 150324,
    "name": "Anarestan",
    "state_id": 3932,
    "state_code": "18",
    "country_id": 103,
    "country_code": "IR",
    "latitude": "28.03242110",
    "longitude": "52.05895180",
    "native": null,
    "timezone": null,
    "translations": {}
  },
  {
    "id": 135103,
    "name": "Asaluyeh",
    "state_id": 3932,
    "state_code": "18",
    "country_id": 103,
    "country_code": "IR",
    "latitude": "27.45000000",
    "longitude": "52.73333000",
    "native": null,
    "timezone": null,
    "translations": {}
  },
  {
    "id": 150335,
    "name": "Baduleh",
    "state_id": 3932,
    "state_code": "18",
    "country_id": 103,
    "country_code": "IR",
    "latitude": "28.39721360",
    "longitude": "51.49332760",
    "native": null,
    "timezone": null,
    "translations": {}
  },
  {
    "id": 150348,
    "name": "Banak",
    "state_id": 3932,
    "state_code": "18",
    "country_id": 103,
    "country_code": "IR",
    "latitude": "27.86259810",
    "longitude": "52.00103740",
    "native": null,
    "timezone": null,
    "translations": {}
  },
  {
    "id": 150318,
    "name": "Bandar Bushehr",
    "state_id": 3932,
    "state_code": "18",
    "country_id": 103,
    "country_code": "IR",
    "latitude": "28.91090220",
    "longitude": "50.83002130",
    "native": null,
    "timezone": null,
    "translations": {}
  },
  {
    "id": 150345,
    "name": "Bandar Deylam",
    "state_id": 3932,
    "state_code": "18",
    "country_id": 103,
    "country_code": "IR",
    "latitude": "30.06097110",
    "longitude": "50.14617180",
    "native": null,
    "timezone": null,
    "translations": {}
  },
  {
    "id": 134579,
    "name": "Bandar Ganaveh",
    "state_id": 3932,
    "state_code": "18",
    "country_id": 103,
    "country_code": "IR",
    "latitude": "29.57910000",
    "longitude": "50.51700000",
    "native": null,
    "timezone": null,
    "translations": {}
  },
  {
    "id": 150350,
    "name": "Bandar Rig",
    "state_id": 3932,
    "state_code": "18",
    "country_id": 103,
    "country_code": "IR",
    "latitude": "29.48417390",
    "longitude": "50.61869140",
    "native": null,
    "timezone": null,
    "translations": {}
  },
  {
    "id": 150347,
    "name": "Bandar-e Kangan",
    "state_id": 3932,
    "state_code": "18",
    "country_id": 103,
    "country_code": "IR",
    "latitude": "27.83288720",
    "longitude": "52.03707510",
    "native": null,
    "timezone": null,
    "translations": {}
  },
  {
    "id": 150349,
    "name": "BandarSiraf",
    "state_id": 3932,
    "state_code": "18",
    "country_id": 103,
    "country_code": "IR",
    "latitude": "27.66442800",
    "longitude": "52.32552030",
    "native": null,
    "timezone": null,
    "translations": {}
  },
  {
    "id": 150341,
    "name": "Bardestan",
    "state_id": 3932,
    "state_code": "18",
    "country_id": 103,
    "country_code": "IR",
    "latitude": "27.87006400",
    "longitude": "51.94125630",
    "native": null,
    "timezone": null,
    "translations": {}
  },
  {
    "id": 134589,
    "name": "Borazjan",
    "state_id": 3932,
    "state_code": "18",
    "country_id": 103,
    "country_code": "IR",
    "latitude": "29.26990000",
    "longitude": "51.21880000",
    "native": null,
    "timezone": null,
    "translations": {}
  },
  {
    "id": 150340,
    "name": "Bord Khun",
    "state_id": 3932,
    "state_code": "18",
    "country_id": 103,
    "country_code": "IR",
    "latitude": "28.06421750",
    "longitude": "51.47342790",
    "native": null,
    "timezone": null,
    "translations": {}
  },
  {
    "id": 150328,
    "name": "Boshkan",
    "state_id": 3932,
    "state_code": "18",
    "country_id": 103,
    "country_code": "IR",
    "latitude": "28.83166590",
    "longitude": "51.69114580",
    "native": null,
    "timezone": null,
    "translations": {}
  },
  {
    "id": 134594,
    "name": "Bushehr",
    "state_id": 3932,
    "state_code": "18",
    "country_id": 103,
    "country_code": "IR",
    "latitude": "28.96887000",
    "longitude": "50.83657000",
    "native": null,
    "timezone": null,
    "translations": {}
  },
  {
    "id": 150319,
    "name": "Choghadak",
    "state_id": 3932,
    "state_code": "18",
    "country_id": 103,
    "country_code": "IR",
    "latitude": "28.98004950",
    "longitude": "51.00757680",
    "native": null,
    "timezone": null,
    "translations": {}
  },
  {
    "id": 150330,
    "name": "Dalaki",
    "state_id": 3932,
    "state_code": "18",
    "country_id": 103,
    "country_code": "IR",
    "latitude": "29.43023450",
    "longitude": "51.28279560",
    "native": null,
    "timezone": null,
    "translations": {}
  },
  {
    "id": 134844,
    "name": "Dashtestan",
    "state_id": 3932,
    "state_code": "18",
    "country_id": 103,
    "country_code": "IR",
    "latitude": "29.28333000",
    "longitude": "51.25000000",
    "native": null,
    "timezone": null,
    "translations": {}
  },
  {
    "id": 134845,
    "name": "Dashti",
    "state_id": 3932,
    "state_code": "18",
    "country_id": 103,
    "country_code": "IR",
    "latitude": "28.48685000",
    "longitude": "51.56182000",
    "native": null,
    "timezone": null,
    "translations": {}
  },
  {
    "id": 150342,
    "name": "Dayyer",
    "state_id": 3932,
    "state_code": "18",
    "country_id": 103,
    "country_code": "IR",
    "latitude": "27.84286870",
    "longitude": "51.91832720",
    "native": null,
    "timezone": null,
    "translations": {}
  },
  {
    "id": 150323,
    "name": "Delvar",
    "state_id": 3932,
    "state_code": "18",
    "country_id": 103,
    "country_code": "IR",
    "latitude": "28.75279600",
    "longitude": "51.05192160",
    "native": null,
    "timezone": null,
    "translations": {}
  },
  {
    "id": 134621,
    "name": "Deylam",
    "state_id": 3932,
    "state_code": "18",
    "country_id": 103,
    "country_code": "IR",
    "latitude": "30.02286000",
    "longitude": "50.35595000",
    "native": null,
    "timezone": null,
    "translations": {}
  },
  {
    "id": 150343,
    "name": "Dorahak",
    "state_id": 3932,
    "state_code": "18",
    "country_id": 103,
    "country_code": "IR",
    "latitude": "27.94859620",
    "longitude": "51.95292940",
    "native": null,
    "timezone": null,
    "translations": {}
  },
  {
    "id": 134881,
    "name": "Genaveh",
    "state_id": 3932,
    "state_code": "18",
    "country_id": 103,
    "country_code": "IR",
    "latitude": "29.64574000",
    "longitude": "50.64699000",
    "native": null,
    "timezone": null,
    "translations": {}
  },
  {
    "id": 150344,
    "name": "Imam Hassan",
    "state_id": 3932,
    "state_code": "18",
    "country_id": 103,
    "country_code": "IR",
    "latitude": "29.84250000",
    "longitude": "50.26305600",
    "native": null,
    "timezone": null,
    "translations": {}
  },
  {
    "id": 150325,
    "name": "Jam",
    "state_id": 3932,
    "state_code": "18",
    "country_id": 103,
    "country_code": "IR",
    "latitude": "27.81572560",
    "longitude": "52.30998450",
    "native": null,
    "timezone": null,
    "translations": {}
  },
  {
    "id": 150338,
    "name": "Kaki",
    "state_id": 3932,
    "state_code": "18",
    "country_id": 103,
    "country_code": "IR",
    "latitude": "28.34162750",
    "longitude": "51.50626640",
    "native": null,
    "timezone": null,
    "translations": {}
  },
  {
    "id": 150333,
    "name": "Kalameh",
    "state_id": 3932,
    "state_code": "18",
    "country_id": 103,
    "country_code": "IR",
    "latitude": "28.94047610",
    "longitude": "51.45177470",
    "native": null,
    "timezone": null,
    "translations": {}
  },
  {
    "id": 134906,
    "name": "Kangan",
    "state_id": 3932,
    "state_code": "18",
    "country_id": 103,
    "country_code": "IR",
    "latitude": "27.71330000",
    "longitude": "52.26862000",
    "native": null,
    "timezone": null,
    "translations": {}
  },
  {
    "id": 150320,
    "name": "Kharg",
    "state_id": 3932,
    "state_code": "18",
    "country_id": 103,
    "country_code": "IR",
    "latitude": "29.24059200",
    "longitude": "50.27422810",
    "native": null,
    "timezone": null,
    "translations": {}
  },
  {
    "id": 134678,
    "name": "Khark",
    "state_id": 3932,
    "state_code": "18",
    "country_id": 103,
    "country_code": "IR",
    "latitude": "29.26139000",
    "longitude": "50.33056000",
    "native": null,
    "timezone": null,
    "translations": {}
  },
  {
    "id": 150336,
    "name": "Khormoj",
    "state_id": 3932,
    "state_code": "18",
    "country_id": 103,
    "country_code": "IR",
    "latitude": "28.64840690",
    "longitude": "51.35095520",
    "native": null,
    "timezone": null,
    "translations": {}
  },
  {
    "id": 150339,
    "name": "Konar Torshan",
    "state_id": 3932,
    "state_code": "18",
    "country_id": 103,
    "country_code": "IR",
    "latitude": "28.07801520",
    "longitude": "51.74254250",
    "native": null,
    "timezone": null,
    "translations": {}
  },
  {
    "id": 150346,
    "name": "Nakhl Taghi",
    "state_id": 3932,
    "state_code": "18",
    "country_id": 103,
    "country_code": "IR",
    "latitude": "27.50035250",
    "longitude": "52.57634380",
    "native": null,
    "timezone": null,
    "translations": {}
  },
  {
    "id": 150326,
    "name": "Riz",
    "state_id": 3932,
    "state_code": "18",
    "country_id": 103,
    "country_code": "IR",
    "latitude": "28.05156760",
    "longitude": "52.06435920",
    "native": null,
    "timezone": null,
    "translations": {}
  },
  {
    "id": 150331,
    "name": "Sadabad",
    "state_id": 3932,
    "state_code": "18",
    "country_id": 103,
    "country_code": "IR",
    "latitude": "29.38580150",
    "longitude": "51.11174580",
    "native": null,
    "timezone": null,
    "translations": {}
  },
  {
    "id": 150332,
    "name": "Shaban Kareh",
    "state_id": 3932,
    "state_code": "18",
    "country_id": 103,
    "country_code": "IR",
    "latitude": "29.47081580",
    "longitude": "50.97548950",
    "native": null,
    "timezone": null,
    "translations": {}
  },
  {
    "id": 150337,
    "name": "Shonbeh",
    "state_id": 3932,
    "state_code": "18",
    "country_id": 103,
    "country_code": "IR",
    "latitude": "28.39593970",
    "longitude": "51.75433880",
    "native": null,
    "timezone": null,
    "translations": {}
  },
  {
    "id": 150329,
    "name": "Tang Eram",
    "state_id": 3932,
    "state_code": "18",
    "country_id": 103,
    "country_code": "IR",
    "latitude": "29.15332260",
    "longitude": "51.51832580",
    "native": null,
    "timezone": null,
    "translations": {}
  },
  {
    "id": 135059,
    "name": "Tangestan",
    "state_id": 3932,
    "state_code": "18",
    "country_id": 103,
    "country_code": "IR",
    "latitude": "28.88333000",
    "longitude": "51.26667000",
    "native": null,
    "timezone": null,
    "translations": {}
  },
  {
    "id": 150334,
    "name": "Vahdatiyeh",
    "state_id": 3932,
    "state_code": "18",
    "country_id": 103,
    "country_code": "IR",
    "latitude": "29.48645140",
    "longitude": "51.21830440",
    "native": null,
    "timezone": null,
    "translations": {}
  }
]