[
  {
    "id": 22109,
    "name": "Albrechtice nad Orlicí",
    "state_id": 4614,
    "state_code": "52",
    "country_id": 58,
    "country_code": "CZ",
    "latitude": "50.13979000",
    "longitude": "16.06437000",
    "native": null,
    "timezone": null,
    "translations": {}
  },
  {
    "id": 22198,
    "name": "Bílá Třemešná",
    "state_id": 4614,
    "state_code": "52",
    "country_id": 58,
    "country_code": "CZ",
    "latitude": "50.44465000",
    "longitude": "15.74101000",
    "native": null,
    "timezone": null,
    "translations": {}
  },
  {
    "id": 22148,
    "name": "Borohrádek",
    "state_id": 4614,
    "state_code": "52",
    "country_id": 58,
    "country_code": "CZ",
    "latitude": "50.09777000",
    "longitude": "16.09326000",
    "native": null,
    "timezone": null,
    "translations": {}
  },
  {
    "id": 22169,
    "name": "Broumov",
    "state_id": 4614,
    "state_code": "52",
    "country_id": 58,
    "country_code": "CZ",
    "latitude": "50.58566000",
    "longitude": "16.33181000",
    "native": null,
    "timezone": null,
    "translations": {}
  },
  {
    "id": 23362,
    "name": "Častolovice",
    "state_id": 4614,
    "state_code": "52",
    "country_id": 58,
    "country_code": "CZ",
    "latitude": "50.12910000",
    "longitude": "16.18128000",
    "native": null,
    "timezone": null,
    "translations": {}
  },
  {
    "id": 23370,
    "name": "Černilov",
    "state_id": 4614,
    "state_code": "52",
    "country_id": 58,
    "country_code": "CZ",
    "latitude": "50.26265000",
    "longitude": "15.92254000",
    "native": null,
    "timezone": null,
    "translations": {}
  },
  {
    "id": 23374,
    "name": "Černožice",
    "state_id": 4614,
    "state_code": "52",
    "country_id": 58,
    "country_code": "CZ",
    "latitude": "50.31863000",
    "longitude": "15.87403000",
    "native": null,
    "timezone": null,
    "translations": {}
  },
  {
    "id": 23381,
    "name": "Červený Kostelec",
    "state_id": 4614,
    "state_code": "52",
    "country_id": 58,
    "country_code": "CZ",
    "latitude": "50.47626000",
    "longitude": "16.09289000",
    "native": null,
    "timezone": null,
    "translations": {}
  },
  {
    "id": 23385,
    "name": "Česká Skalice",
    "state_id": 4614,
    "state_code": "52",
    "country_id": 58,
    "country_code": "CZ",
    "latitude": "50.39467000",
    "longitude": "16.04276000",
    "native": null,
    "timezone": null,
    "translations": {}
  },
  {
    "id": 23389,
    "name": "České Meziříčí",
    "state_id": 4614,
    "state_code": "52",
    "country_id": 58,
    "country_code": "CZ",
    "latitude": "50.28680000",
    "longitude": "16.04428000",
    "native": null,
    "timezone": null,
    "translations": {}
  },
  {
    "id": 22221,
    "name": "Chlumec nad Cidlinou",
    "state_id": 4614,
    "state_code": "52",
    "country_id": 58,
    "country_code": "CZ",
    "latitude": "50.15440000",
    "longitude": "15.46026000",
    "native": null,
    "timezone": null,
    "translations": {}
  },
  {
    "id": 22261,
    "name": "Dobruška",
    "state_id": 4614,
    "state_code": "52",
    "country_id": 58,
    "country_code": "CZ",
    "latitude": "50.29201000",
    "longitude": "16.16001000",
    "native": null,
    "timezone": null,
    "translations": {}
  },
  {
    "id": 22298,
    "name": "Dolní Černilov",
    "state_id": 4614,
    "state_code": "52",
    "country_id": 58,
    "country_code": "CZ",
    "latitude": "50.26110000",
    "longitude": "15.96107000",
    "native": null,
    "timezone": null,
    "translations": {}
  },
  {
    "id": 22306,
    "name": "Doudleby nad Orlicí",
    "state_id": 4614,
    "state_code": "52",
    "country_id": 58,
    "country_code": "CZ",
    "latitude": "50.10742000",
    "longitude": "16.26131000",
    "native": null,
    "timezone": null,
    "translations": {}
  },
  {
    "id": 22319,
    "name": "Dvůr Králové nad Labem",
    "state_id": 4614,
    "state_code": "52",
    "country_id": 58,
    "country_code": "CZ",
    "latitude": "50.43172000",
    "longitude": "15.81402000",
    "native": null,
    "timezone": null,
    "translations": {}
  },
  {
    "id": 22407,
    "name": "Hořice",
    "state_id": 4614,
    "state_code": "52",
    "country_id": 58,
    "country_code": "CZ",
    "latitude": "50.36609000",
    "longitude": "15.63183000",
    "native": null,
    "timezone": null,
    "translations": {}
  },
  {
    "id": 22398,
    "name": "Hostinné",
    "state_id": 4614,
    "state_code": "52",
    "country_id": 58,
    "country_code": "CZ",
    "latitude": "50.54066000",
    "longitude": "15.72334000",
    "native": null,
    "timezone": null,
    "translations": {}
  },
  {
    "id": 22412,
    "name": "Hradec Králové",
    "state_id": 4614,
    "state_code": "52",
    "country_id": 58,
    "country_code": "CZ",
    "latitude": "50.20923000",
    "longitude": "15.83277000",
    "native": null,
    "timezone": null,
    "translations": {}
  },
  {
    "id": 22422,
    "name": "Hronov",
    "state_id": 4614,
    "state_code": "52",
    "country_id": 58,
    "country_code": "CZ",
    "latitude": "50.47968000",
    "longitude": "16.18230000",
    "native": null,
    "timezone": null,
    "translations": {}
  },
  {
    "id": 22456,
    "name": "Jaroměř",
    "state_id": 4614,
    "state_code": "52",
    "country_id": 58,
    "country_code": "CZ",
    "latitude": "50.35620000",
    "longitude": "15.92136000",
    "native": null,
    "timezone": null,
    "translations": {}
  },
  {
    "id": 22481,
    "name": "Jičín",
    "state_id": 4614,
    "state_code": "52",
    "country_id": 58,
    "country_code": "CZ",
    "latitude": "50.43723000",
    "longitude": "15.35162000",
    "native": null,
    "timezone": null,
    "translations": {}
  },
  {
    "id": 22533,
    "name": "Kopidlno",
    "state_id": 4614,
    "state_code": "52",
    "country_id": 58,
    "country_code": "CZ",
    "latitude": "50.33085000",
    "longitude": "15.27029000",
    "native": null,
    "timezone": null,
    "translations": {}
  },
  {
    "id": 22540,
    "name": "Kostelec nad Orlicí",
    "state_id": 4614,
    "state_code": "52",
    "country_id": 58,
    "country_code": "CZ",
    "latitude": "50.12267000",
    "longitude": "16.21319000",
    "native": null,
    "timezone": null,
    "translations": {}
  },
  {
    "id": 22579,
    "name": "Kvasiny",
    "state_id": 4614,
    "state_code": "52",
    "country_id": 58,
    "country_code": "CZ",
    "latitude": "50.21250000",
    "longitude": "16.26323000",
    "native": null,
    "timezone": null,
    "translations": {}
  },
  {
    "id": 22663,
    "name": "Lázně Bělohrad",
    "state_id": 4614,
    "state_code": "52",
    "country_id": 58,
    "country_code": "CZ",
    "latitude": "50.42874000",
    "longitude": "15.58269000",
    "native": null,
    "timezone": null,
    "translations": {}
  },
  {
    "id": 22611,
    "name": "Libáň",
    "state_id": 4614,
    "state_code": "52",
    "country_id": 58,
    "country_code": "CZ",
    "latitude": "50.37542000",
    "longitude": "15.21684000",
    "native": null,
    "timezone": null,
    "translations": {}
  },
  {
    "id": 22668,
    "name": "Machov",
    "state_id": 4614,
    "state_code": "52",
    "country_id": 58,
    "country_code": "CZ",
    "latitude": "50.49927000",
    "longitude": "16.27690000",
    "native": null,
    "timezone": null,
    "translations": {}
  },
  {
    "id": 22673,
    "name": "Malé Svatoňovice",
    "state_id": 4614,
    "state_code": "52",
    "country_id": 58,
    "country_code": "CZ",
    "latitude": "50.53395000",
    "longitude": "16.04978000",
    "native": null,
    "timezone": null,
    "translations": {}
  },
  {
    "id": 22684,
    "name": "Meziměstí",
    "state_id": 4614,
    "state_code": "52",
    "country_id": 58,
    "country_code": "CZ",
    "latitude": "50.62461000",
    "longitude": "16.24207000",
    "native": null,
    "timezone": null,
    "translations": {}
  },
  {
    "id": 22703,
    "name": "Mladé Buky",
    "state_id": 4614,
    "state_code": "52",
    "country_id": 58,
    "country_code": "CZ",
    "latitude": "50.60643000",
    "longitude": "15.83348000",
    "native": null,
    "timezone": null,
    "translations": {}
  },
  {
    "id": 22726,
    "name": "Mostek",
    "state_id": 4614,
    "state_code": "52",
    "country_id": 58,
    "country_code": "CZ",
    "latitude": "50.48623000",
    "longitude": "15.69622000",
    "native": null,
    "timezone": null,
    "translations": {}
  },
  {
    "id": 22792,
    "name": "Náchod",
    "state_id": 4614,
    "state_code": "52",
    "country_id": 58,
    "country_code": "CZ",
    "latitude": "50.41670000",
    "longitude": "16.16289000",
    "native": null,
    "timezone": null,
    "translations": {}
  },
  {
    "id": 22752,
    "name": "Nechanice",
    "state_id": 4614,
    "state_code": "52",
    "country_id": 58,
    "country_code": "CZ",
    "latitude": "50.23737000",
    "longitude": "15.63276000",
    "native": null,
    "timezone": null,
    "translations": {}
  },
  {
    "id": 22774,
    "name": "Nová Paka",
    "state_id": 4614,
    "state_code": "52",
    "country_id": 58,
    "country_code": "CZ",
    "latitude": "50.49449000",
    "longitude": "15.51503000",
    "native": null,
    "timezone": null,
    "translations": {}
  },
  {
    "id": 22779,
    "name": "Nové Město nad Metují",
    "state_id": 4614,
    "state_code": "52",
    "country_id": 58,
    "country_code": "CZ",
    "latitude": "50.34456000",
    "longitude": "16.15147000",
    "native": null,
    "timezone": null,
    "translations": {}
  },
  {
    "id": 22786,
    "name": "Nový Bydžov",
    "state_id": 4614,
    "state_code": "52",
    "country_id": 58,
    "country_code": "CZ",
    "latitude": "50.24150000",
    "longitude": "15.49082000",
    "native": null,
    "timezone": null,
    "translations": {}
  },
  {
    "id": 22820,
    "name": "Okres Hradec Králové",
    "state_id": 4614,
    "state_code": "52",
    "country_id": 58,
    "country_code": "CZ",
    "latitude": "50.25000000",
    "longitude": "15.66667000",
    "native": null,
    "timezone": null,
    "translations": {}
  },
  {
    "id": 22825,
    "name": "Okres Jičín",
    "state_id": 4614,
    "state_code": "52",
    "country_id": 58,
    "country_code": "CZ",
    "latitude": "50.41667000",
    "longitude": "15.41667000",
    "native": null,
    "timezone": null,
    "translations": {}
  },
  {
    "id": 22841,
    "name": "Okres Náchod",
    "state_id": 4614,
    "state_code": "52",
    "country_id": 58,
    "country_code": "CZ",
    "latitude": "50.41667000",
    "longitude": "16.16667000",
    "native": null,
    "timezone": null,
    "translations": {}
  },
  {
    "id": 22859,
    "name": "Okres Rychnov nad Kněžnou",
    "state_id": 4614,
    "state_code": "52",
    "country_id": 58,
    "country_code": "CZ",
    "latitude": "50.23333000",
    "longitude": "16.28333000",
    "native": null,
    "timezone": null,
    "translations": {}
  },
  {
    "id": 22866,
    "name": "Okres Trutnov",
    "state_id": 4614,
    "state_code": "52",
    "country_id": 58,
    "country_code": "CZ",
    "latitude": "50.58333000",
    "longitude": "15.83333000",
    "native": null,
    "timezone": null,
    "translations": {}
  },
  {
    "id": 22894,
    "name": "Opočno",
    "state_id": 4614,
    "state_code": "52",
    "country_id": 58,
    "country_code": "CZ",
    "latitude": "50.26742000",
    "longitude": "16.11480000",
    "native": null,
    "timezone": null,
    "translations": {}
  },
  {
    "id": 22906,
    "name": "Ostroměř",
    "state_id": 4614,
    "state_code": "52",
    "country_id": 58,
    "country_code": "CZ",
    "latitude": "50.37246000",
    "longitude": "15.54949000",
    "native": null,
    "timezone": null,
    "translations": {}
  },
  {
    "id": 22924,
    "name": "Pecka",
    "state_id": 4614,
    "state_code": "52",
    "country_id": 58,
    "country_code": "CZ",
    "latitude": "50.48034000",
    "longitude": "15.60822000",
    "native": null,
    "timezone": null,
    "translations": {}
  },
  {
    "id": 22933,
    "name": "Pilníkov",
    "state_id": 4614,
    "state_code": "52",
    "country_id": 58,
    "country_code": "CZ",
    "latitude": "50.53247000",
    "longitude": "15.82020000",
    "native": null,
    "timezone": null,
    "translations": {}
  },
  {
    "id": 22951,
    "name": "Police nad Metují",
    "state_id": 4614,
    "state_code": "52",
    "country_id": 58,
    "country_code": "CZ",
    "latitude": "50.53687000",
    "longitude": "16.23350000",
    "native": null,
    "timezone": null,
    "translations": {}
  },
  {
    "id": 22998,
    "name": "Předměřice nad Labem",
    "state_id": 4614,
    "state_code": "52",
    "country_id": 58,
    "country_code": "CZ",
    "latitude": "50.25633000",
    "longitude": "15.81556000",
    "native": null,
    "timezone": null,
    "translations": {}
  },
  {
    "id": 22983,
    "name": "Provodov-Šonov",
    "state_id": 4614,
    "state_code": "52",
    "country_id": 58,
    "country_code": "CZ",
    "latitude": "50.38711000",
    "longitude": "16.10797000",
    "native": null,
    "timezone": null,
    "translations": {}
  },
  {
    "id": 23016,
    "name": "Radvanice",
    "state_id": 4614,
    "state_code": "52",
    "country_id": 58,
    "country_code": "CZ",
    "latitude": "50.56745000",
    "longitude": "16.06172000",
    "native": null,
    "timezone": null,
    "translations": {}
  },
  {
    "id": 23031,
    "name": "Rokytnice v Orlických Horách",
    "state_id": 4614,
    "state_code": "52",
    "country_id": 58,
    "country_code": "CZ",
    "latitude": "50.16473000",
    "longitude": "16.46567000",
    "native": null,
    "timezone": null,
    "translations": {}
  },
  {
    "id": 23045,
    "name": "Rtyně v Podkrkonoší",
    "state_id": 4614,
    "state_code": "52",
    "country_id": 58,
    "country_code": "CZ",
    "latitude": "50.50523000",
    "longitude": "16.07187000",
    "native": null,
    "timezone": null,
    "translations": {}
  },
  {
    "id": 23048,
    "name": "Rudník",
    "state_id": 4614,
    "state_code": "52",
    "country_id": 58,
    "country_code": "CZ",
    "latitude": "50.59517000",
    "longitude": "15.73362000",
    "native": null,
    "timezone": null,
    "translations": {}
  },
  {
    "id": 23053,
    "name": "Rychnov nad Kněžnou",
    "state_id": 4614,
    "state_code": "52",
    "country_id": 58,
    "country_code": "CZ",
    "latitude": "50.16284000",
    "longitude": "16.27488000",
    "native": null,
    "timezone": null,
    "translations": {}
  },
  {
    "id": 23075,
    "name": "Skuhrov nad Bělou",
    "state_id": 4614,
    "state_code": "52",
    "country_id": 58,
    "country_code": "CZ",
    "latitude": "50.22946000",
    "longitude": "16.29230000",
    "native": null,
    "timezone": null,
    "translations": {}
  },
  {
    "id": 23086,
    "name": "Smidary",
    "state_id": 4614,
    "state_code": "52",
    "country_id": 58,
    "country_code": "CZ",
    "latitude": "50.29146000",
    "longitude": "15.47725000",
    "native": null,
    "timezone": null,
    "translations": {}
  },
  {
    "id": 23087,
    "name": "Smiřice",
    "state_id": 4614,
    "state_code": "52",
    "country_id": 58,
    "country_code": "CZ",
    "latitude": "50.29978000",
    "longitude": "15.86508000",
    "native": null,
    "timezone": null,
    "translations": {}
  },
  {
    "id": 23090,
    "name": "Sobotka",
    "state_id": 4614,
    "state_code": "52",
    "country_id": 58,
    "country_code": "CZ",
    "latitude": "50.46741000",
    "longitude": "15.17619000",
    "native": null,
    "timezone": null,
    "translations": {}
  },
  {
    "id": 23095,
    "name": "Solnice",
    "state_id": 4614,
    "state_code": "52",
    "country_id": 58,
    "country_code": "CZ",
    "latitude": "50.20366000",
    "longitude": "16.23762000",
    "native": null,
    "timezone": null,
    "translations": {}
  },
  {
    "id": 23419,
    "name": "Špindlerův Mlýn",
    "state_id": 4614,
    "state_code": "52",
    "country_id": 58,
    "country_code": "CZ",
    "latitude": "50.72615000",
    "longitude": "15.60944000",
    "native": null,
    "timezone": null,
    "translations": {}
  },
  {
    "id": 23101,
    "name": "Stará Paka",
    "state_id": 4614,
    "state_code": "52",
    "country_id": 58,
    "country_code": "CZ",
    "latitude": "50.51032000",
    "longitude": "15.49444000",
    "native": null,
    "timezone": null,
    "translations": {}
  },
  {
    "id": 23109,
    "name": "Staré Nechanice",
    "state_id": 4614,
    "state_code": "52",
    "country_id": 58,
    "country_code": "CZ",
    "latitude": "50.24298000",
    "longitude": "15.61787000",
    "native": null,
    "timezone": null,
    "translations": {}
  },
  {
    "id": 23136,
    "name": "Stěžery",
    "state_id": 4614,
    "state_code": "52",
    "country_id": 58,
    "country_code": "CZ",
    "latitude": "50.21572000",
    "longitude": "15.74831000",
    "native": null,
    "timezone": null,
    "translations": {}
  },
  {
    "id": 23151,
    "name": "Svoboda nad Úpou",
    "state_id": 4614,
    "state_code": "52",
    "country_id": 58,
    "country_code": "CZ",
    "latitude": "50.62596000",
    "longitude": "15.81648000",
    "native": null,
    "timezone": null,
    "translations": {}
  },
  {
    "id": 23161,
    "name": "Teplice nad Metují",
    "state_id": 4614,
    "state_code": "52",
    "country_id": 58,
    "country_code": "CZ",
    "latitude": "50.59332000",
    "longitude": "16.17026000",
    "native": null,
    "timezone": null,
    "translations": {}
  },
  {
    "id": 23197,
    "name": "Třebechovice pod Orebem",
    "state_id": 4614,
    "state_code": "52",
    "country_id": 58,
    "country_code": "CZ",
    "latitude": "50.20097000",
    "longitude": "15.99223000",
    "native": null,
    "timezone": null,
    "translations": {}
  },
  {
    "id": 23181,
    "name": "Trutnov",
    "state_id": 4614,
    "state_code": "52",
    "country_id": 58,
    "country_code": "CZ",
    "latitude": "50.56101000",
    "longitude": "15.91270000",
    "native": null,
    "timezone": null,
    "translations": {}
  },
  {
    "id": 23194,
    "name": "Týniště nad Orlicí",
    "state_id": 4614,
    "state_code": "52",
    "country_id": 58,
    "country_code": "CZ",
    "latitude": "50.15136000",
    "longitude": "16.07770000",
    "native": null,
    "timezone": null,
    "translations": {}
  },
  {
    "id": 23357,
    "name": "Úpice",
    "state_id": 4614,
    "state_code": "52",
    "country_id": 58,
    "country_code": "CZ",
    "latitude": "50.51237000",
    "longitude": "16.01607000",
    "native": null,
    "timezone": null,
    "translations": {}
  },
  {
    "id": 23219,
    "name": "Valdice",
    "state_id": 4614,
    "state_code": "52",
    "country_id": 58,
    "country_code": "CZ",
    "latitude": "50.45501000",
    "longitude": "15.38488000",
    "native": null,
    "timezone": null,
    "translations": {}
  },
  {
    "id": 23222,
    "name": "Vamberk",
    "state_id": 4614,
    "state_code": "52",
    "country_id": 58,
    "country_code": "CZ",
    "latitude": "50.11756000",
    "longitude": "16.29067000",
    "native": null,
    "timezone": null,
    "translations": {}
  },
  {
    "id": 23248,
    "name": "Velké Poříčí",
    "state_id": 4614,
    "state_code": "52",
    "country_id": 58,
    "country_code": "CZ",
    "latitude": "50.46177000",
    "longitude": "16.18931000",
    "native": null,
    "timezone": null,
    "translations": {}
  },
  {
    "id": 23250,
    "name": "Velké Svatoňovice",
    "state_id": 4614,
    "state_code": "52",
    "country_id": 58,
    "country_code": "CZ",
    "latitude": "50.53164000",
    "longitude": "16.02853000",
    "native": null,
    "timezone": null,
    "translations": {}
  },
  {
    "id": 23300,
    "name": "Vrchlabí",
    "state_id": 4614,
    "state_code": "52",
    "country_id": 58,
    "country_code": "CZ",
    "latitude": "50.62697000",
    "longitude": "15.60937000",
    "native": null,
    "timezone": null,
    "translations": {}
  },
  {
    "id": 23320,
    "name": "Všestary",
    "state_id": 4614,
    "state_code": "52",
    "country_id": 58,
    "country_code": "CZ",
    "latitude": "50.25660000",
    "longitude": "15.75983000",
    "native": null,
    "timezone": null,
    "translations": {}
  },
  {
    "id": 23436,
    "name": "Žacléř",
    "state_id": 4614,
    "state_code": "52",
    "country_id": 58,
    "country_code": "CZ",
    "latitude": "50.66329000",
    "longitude": "15.91063000",
    "native": null,
    "timezone": null,
    "translations": {}
  },
  {
    "id": 23323,
    "name": "Zadní Mostek",
    "state_id": 4614,
    "state_code": "52",
    "country_id": 58,
    "country_code": "CZ",
    "latitude": "50.49670000",
    "longitude": "15.69804000",
    "native": null,
    "timezone": null,
    "translations": {}
  },
  {
    "id": 23443,
    "name": "Železnice",
    "state_id": 4614,
    "state_code": "52",
    "country_id": 58,
    "country_code": "CZ",
    "latitude": "50.47274000",
    "longitude": "15.38459000",
    "native": null,
    "timezone": null,
    "translations": {}
  }
]