[
  {
    "id": 4656,
    "name": "Aiwo",
    "country_id": 153,
    "country_code": "NR",
    "fips_code": null,
    "iso2": "01",
    "type": "district",
    "latitude": "-0.53400120",
    "longitude": "166.91388730",
    "native": "Theirs",
    "timezone": "Pacific/Nauru",
    "translations": {}
  },
  {
    "id": 4658,
    "name": "Anabar",
    "country_id": 153,
    "country_code": "NR",
    "fips_code": null,
    "iso2": "02",
    "type": "district",
    "latitude": "-0.51335170",
    "longitude": "166.94846240",
    "native": "An input",
    "timezone": "Pacific/Nauru",
    "translations": {}
  },
  {
    "id": 4667,
    "name": "Anetan",
    "country_id": 153,
    "country_code": "NR",
    "fips_code": null,
    "iso2": "03",
    "type": "district",
    "latitude": "-0.50643430",
    "longitude": "166.94270060",
    "native": "Aneta",
    "timezone": "Pacific/Nauru",
    "translations": {}
  },
  {
    "id": 4663,
    "name": "Anibare",
    "country_id": 153,
    "country_code": "NR",
    "fips_code": null,
    "iso2": "04",
    "type": "district",
    "latitude": "-0.52947580",
    "longitude": "166.95134320",
    "native": "Anibare",
    "timezone": "Pacific/Nauru",
    "translations": {}
  },
  {
    "id": 4660,
    "name": "Baiti",
    "country_id": 153,
    "country_code": "NR",
    "fips_code": null,
    "iso2": "05",
    "type": "district",
    "latitude": "-0.51043100",
    "longitude": "166.92757440",
    "native": "Verse",
    "timezone": "Pacific/Nauru",
    "translations": {}
  },
  {
    "id": 4665,
    "name": "Boe",
    "country_id": 153,
    "country_code": "NR",
    "fips_code": null,
    "iso2": "06",
    "type": "district",
    "latitude": "-0.54230030",
    "longitude": "166.91606090",
    "native": "Boe",
    "timezone": "Pacific/Nauru",
    "translations": {}
  },
  {
    "id": 4662,
    "name": "Buada",
    "country_id": 153,
    "country_code": "NR",
    "fips_code": null,
    "iso2": "07",
    "type": "district",
    "latitude": "-0.53287770",
    "longitude": "166.92685410",
    "native": "Puffy",
    "timezone": "Pacific/Nauru",
    "translations": {}
  },
  {
    "id": 4666,
    "name": "Denigomodu",
    "country_id": 153,
    "country_code": "NR",
    "fips_code": null,
    "iso2": "08",
    "type": "district",
    "latitude": "-0.52479640",
    "longitude": "166.91676890",
    "native": "Denigomond",
    "timezone": "Pacific/Nauru",
    "translations": {}
  },
  {
    "id": 4654,
    "name": "Ewa",
    "country_id": 153,
    "country_code": "NR",
    "fips_code": null,
    "iso2": "09",
    "type": "district",
    "latitude": "-0.50872410",
    "longitude": "166.93693840",
    "native": "Ewa",
    "timezone": "Pacific/Nauru",
    "translations": {}
  },
  {
    "id": 4661,
    "name": "Ijuw",
    "country_id": 153,
    "country_code": "NR",
    "fips_code": null,
    "iso2": "10",
    "type": "district",
    "latitude": "-0.52027670",
    "longitude": "166.95710460",
    "native": "Anemy",
    "timezone": "Pacific/Nauru",
    "translations": {}
  },
  {
    "id": 4657,
    "name": "Meneng",
    "country_id": 153,
    "country_code": "NR",
    "fips_code": null,
    "iso2": "11",
    "type": "district",
    "latitude": "-0.54672400",
    "longitude": "166.93837900",
    "native": "Silently",
    "timezone": "Pacific/Nauru",
    "translations": {}
  },
  {
    "id": 4659,
    "name": "Nibok",
    "country_id": 153,
    "country_code": "NR",
    "fips_code": null,
    "iso2": "12",
    "type": "district",
    "latitude": "-0.51962080",
    "longitude": "166.91893010",
    "native": "Nibok",
    "timezone": "Pacific/Nauru",
    "translations": {}
  },
  {
    "id": 4655,
    "name": "Uaboe",
    "country_id": 153,
    "country_code": "NR",
    "fips_code": null,
    "iso2": "13",
    "type": "district",
    "latitude": "-0.52022220",
    "longitude": "166.93117610",
    "native": "Uabee",
    "timezone": "Pacific/Nauru",
    "translations": {}
  },
  {
    "id": 4664,
    "name": "Yaren",
    "country_id": 153,
    "country_code": "NR",
    "fips_code": null,
    "iso2": "14",
    "type": "district",
    "latitude": "-0.54668570",
    "longitude": "166.92109130",
    "native": "Yaren",
    "timezone": "Pacific/Nauru",
    "translations": {}
  }
]