[
  {
    "id": 3708,
    "name": "Barbuda",
    "country_id": 10,
    "country_code": "AG",
    "fips_code": null,
    "iso2": "10",
    "type": "dependency",
    "latitude": "17.62192030",
    "longitude": "-61.78395880",
    "native": "Barbuda",
    "timezone": "America/Antigua",
    "translations": {}
  },
  {
    "id": 3703,
    "name": "Redonda",
    "country_id": 10,
    "country_code": "AG",
    "fips_code": null,
    "iso2": "11",
    "type": "dependency",
    "latitude": "16.93841600",
    "longitude": "-62.34551480",
    "native": "Round",
    "timezone": "America/Antigua",
    "translations": {}
  },
  {
    "id": 3709,
    "name": "Saint George",
    "country_id": 10,
    "country_code": "AG",
    "fips_code": null,
    "iso2": "03",
    "type": "parish",
    "latitude": "17.12180220",
    "longitude": "-61.78123000",
    "native": "Saint George",
    "timezone": "America/Antigua",
    "translations": {}
  },
  {
    "id": 3706,
    "name": "Saint John",
    "country_id": 10,
    "country_code": "AG",
    "fips_code": null,
    "iso2": "04",
    "type": "parish",
    "latitude": "17.11515020",
    "longitude": "-61.85834880",
    "native": "Saint John",
    "timezone": "America/Antigua",
    "translations": {}
  },
  {
    "id": 3707,
    "name": "Saint Mary",
    "country_id": 10,
    "country_code": "AG",
    "fips_code": null,
    "iso2": "05",
    "type": "parish",
    "latitude": "17.05481500",
    "longitude": "-61.86023680",
    "native": "Saint Mary",
    "timezone": "America/Antigua",
    "translations": {}
  },
  {
    "id": 3705,
    "name": "Saint Paul",
    "country_id": 10,
    "country_code": "AG",
    "fips_code": null,
    "iso2": "06",
    "type": "parish",
    "latitude": "17.03258310",
    "longitude": "-61.77065670",
    "native": "Saint Paul",
    "timezone": "America/Antigua",
    "translations": {}
  },
  {
    "id": 3704,
    "name": "Saint Peter",
    "country_id": 10,
    "country_code": "AG",
    "fips_code": null,
    "iso2": "07",
    "type": "parish",
    "latitude": "17.10702390",
    "longitude": "-61.75021430",
    "native": "Saint Peter",
    "timezone": "America/Antigua",
    "translations": {}
  },
  {
    "id": 3710,
    "name": "Saint Philip",
    "country_id": 10,
    "country_code": "AG",
    "fips_code": null,
    "iso2": "08",
    "type": "parish",
    "latitude": "17.06635700",
    "longitude": "-61.70619570",
    "native": "Saint Philip",
    "timezone": "America/Antigua",
    "translations": {}
  }
]