[
  {
    "id": 22017,
    "name": "Argáka",
    "state_id": 746,
    "state_code": "05",
    "country_id": 57,
    "country_code": "CY",
    "latitude": "35.06646000",
    "longitude": "32.49446000",
    "native": null,
    "timezone": null,
    "translations": {}
  },
  {
    "id": 22022,
    "name": "Chlórakas",
    "state_id": 746,
    "state_code": "05",
    "country_id": 57,
    "country_code": "CY",
    "latitude": "34.79768000",
    "longitude": "32.41207000",
    "native": null,
    "timezone": null,
    "translations": {}
  },
  {
    "id": 22026,
    "name": "Emba",
    "state_id": 746,
    "state_code": "05",
    "country_id": 57,
    "country_code": "CY",
    "latitude": "34.80700000",
    "longitude": "32.42406000",
    "native": null,
    "timezone": null,
    "translations": {}
  },
  {
    "id": 22032,
    "name": "Geroskipou",
    "state_id": 746,
    "state_code": "05",
    "country_id": 57,
    "country_code": "CY",
    "latitude": "34.75498000",
    "longitude": "32.45155000",
    "native": null,
    "timezone": null,
    "translations": {}
  },
  {
    "id": 22033,
    "name": "Geroskípou (quarter)",
    "state_id": 746,
    "state_code": "05",
    "country_id": 57,
    "country_code": "CY",
    "latitude": "34.76190000",
    "longitude": "32.45135000",
    "native": null,
    "timezone": null,
    "translations": {}
  },
  {
    "id": 22034,
    "name": "Geroskípou Municipality",
    "state_id": 746,
    "state_code": "05",
    "country_id": 57,
    "country_code": "CY",
    "latitude": "34.75142000",
    "longitude": "32.45449000",
    "native": null,
    "timezone": null,
    "translations": {}
  },
  {
    "id": 22037,
    "name": "Kissonerga",
    "state_id": 746,
    "state_code": "05",
    "country_id": 57,
    "country_code": "CY",
    "latitude": "34.82279000",
    "longitude": "32.40131000",
    "native": null,
    "timezone": null,
    "translations": {}
  },
  {
    "id": 22041,
    "name": "Koloni",
    "state_id": 746,
    "state_code": "05",
    "country_id": 57,
    "country_code": "CY",
    "latitude": "34.75228000",
    "longitude": "32.46487000",
    "native": null,
    "timezone": null,
    "translations": {}
  },
  {
    "id": 22043,
    "name": "Konia",
    "state_id": 746,
    "state_code": "05",
    "country_id": 57,
    "country_code": "CY",
    "latitude": "34.78516000",
    "longitude": "32.45900000",
    "native": null,
    "timezone": null,
    "translations": {}
  },
  {
    "id": 22063,
    "name": "Mesógi",
    "state_id": 746,
    "state_code": "05",
    "country_id": 57,
    "country_code": "CY",
    "latitude": "34.81577000",
    "longitude": "32.45542000",
    "native": null,
    "timezone": null,
    "translations": {}
  },
  {
    "id": 22071,
    "name": "Paphos",
    "state_id": 746,
    "state_code": "05",
    "country_id": 57,
    "country_code": "CY",
    "latitude": "34.77679000",
    "longitude": "32.42451000",
    "native": null,
    "timezone": null,
    "translations": {}
  },
  {
    "id": 22085,
    "name": "Pégeia",
    "state_id": 746,
    "state_code": "05",
    "country_id": 57,
    "country_code": "CY",
    "latitude": "34.88341000",
    "longitude": "32.38166000",
    "native": null,
    "timezone": null,
    "translations": {}
  },
  {
    "id": 22088,
    "name": "Pólis",
    "state_id": 746,
    "state_code": "05",
    "country_id": 57,
    "country_code": "CY",
    "latitude": "35.03534000",
    "longitude": "32.42575000",
    "native": null,
    "timezone": null,
    "translations": {}
  },
  {
    "id": 22098,
    "name": "Tála",
    "state_id": 746,
    "state_code": "05",
    "country_id": 57,
    "country_code": "CY",
    "latitude": "34.83745000",
    "longitude": "32.43272000",
    "native": null,
    "timezone": null,
    "translations": {}
  },
  {
    "id": 22096,
    "name": "Tsáda",
    "state_id": 746,
    "state_code": "05",
    "country_id": 57,
    "country_code": "CY",
    "latitude": "34.83801000",
    "longitude": "32.47547000",
    "native": null,
    "timezone": null,
    "translations": {}
  }
]