[
  {
    "id": 734,
    "name": "Bjelovar-Bilogora",
    "country_id": 55,
    "country_code": "HR",
    "fips_code": null,
    "iso2": "07",
    "type": "county",
    "latitude": "45.74621420",
    "longitude": "16.92123350",
    "native": "Bjelovar-Bilogora",
    "timezone": "Europe/Zagreb",
    "translations": {}
  },
  {
    "id": 737,
    "name": "Brod-Posavina",
    "country_id": 55,
    "country_code": "HR",
    "fips_code": null,
    "iso2": "12",
    "type": "county",
    "latitude": "45.15426690",
    "longitude": "18.01177610",
    "native": "Brod-Posavina",
    "timezone": "Europe/Zagreb",
    "translations": {}
  },
  {
    "id": 728,
    "name": "Dubrovnik-Neretva",
    "country_id": 55,
    "country_code": "HR",
    "fips_code": null,
    "iso2": "19",
    "type": "county",
    "latitude": "42.81431660",
    "longitude": "17.37466280",
    "native": "Dubrovnik-Neretva",
    "timezone": "Europe/Zagreb",
    "translations": {}
  },
  {
    "id": 743,
    "name": "Istria",
    "country_id": 55,
    "country_code": "HR",
    "fips_code": null,
    "iso2": "18",
    "type": "county",
    "latitude": "45.19343450",
    "longitude": "13.91505360",
    "native": "Istrija",
    "timezone": "Europe/Zagreb",
    "translations": {}
  },
  {
    "id": 5069,
    "name": "Karlovac",
    "country_id": 55,
    "country_code": "HR",
    "fips_code": null,
    "iso2": "04",
    "type": "county",
    "latitude": "45.48925220",
    "longitude": "15.54863030",
    "native": "Karlovac",
    "timezone": "Europe/Zagreb",
    "translations": {}
  },
  {
    "id": 742,
    "name": "Koprivnica-Križevci",
    "country_id": 55,
    "country_code": "HR",
    "fips_code": null,
    "iso2": "06",
    "type": "county",
    "latitude": "46.12545080",
    "longitude": "16.82212780",
    "native": "Koprivnica-Križevci",
    "timezone": "Europe/Zagreb",
    "translations": {}
  },
  {
    "id": 729,
    "name": "Krapina-Zagorje",
    "country_id": 55,
    "country_code": "HR",
    "fips_code": null,
    "iso2": "02",
    "type": "county",
    "latitude": "46.09832180",
    "longitude": "15.93774040",
    "native": "Krapina-Zagorje",
    "timezone": "Europe/Zagreb",
    "translations": {}
  },
  {
    "id": 731,
    "name": "Lika-Senj",
    "country_id": 55,
    "country_code": "HR",
    "fips_code": null,
    "iso2": "09",
    "type": "county",
    "latitude": "44.66818000",
    "longitude": "15.33246960",
    "native": "Lika-Senj",
    "timezone": "Europe/Zagreb",
    "translations": {}
  },
  {
    "id": 726,
    "name": "Međimurje",
    "country_id": 55,
    "country_code": "HR",
    "fips_code": null,
    "iso2": "20",
    "type": "county",
    "latitude": "46.40619430",
    "longitude": "16.54722780",
    "native": "Međimurje",
    "timezone": "Europe/Zagreb",
    "translations": {}
  },
  {
    "id": 740,
    "name": "Osijek-Baranja",
    "country_id": 55,
    "country_code": "HR",
    "fips_code": null,
    "iso2": "14",
    "type": "county",
    "latitude": "45.54111100",
    "longitude": "18.43846150",
    "native": "Osijek-Baranja",
    "timezone": "Europe/Zagreb",
    "translations": {}
  },
  {
    "id": 724,
    "name": "Požega-Slavonia",
    "country_id": 55,
    "country_code": "HR",
    "fips_code": null,
    "iso2": "11",
    "type": "county",
    "latitude": "45.43811510",
    "longitude": "17.51336870",
    "native": "Požega-Slavonia",
    "timezone": "Europe/Zagreb",
    "translations": {}
  },
  {
    "id": 735,
    "name": "Primorje-Gorski Kotar",
    "country_id": 55,
    "country_code": "HR",
    "fips_code": null,
    "iso2": "08",
    "type": "county",
    "latitude": "45.42259370",
    "longitude": "14.61720320",
    "native": "Primorje-gorski kotar",
    "timezone": "Europe/Zagreb",
    "translations": {}
  },
  {
    "id": 730,
    "name": "Šibenik-Knin",
    "country_id": 55,
    "country_code": "HR",
    "fips_code": null,
    "iso2": "15",
    "type": "county",
    "latitude": "43.92814850",
    "longitude": "16.10376940",
    "native": "Šibenik-Knin",
    "timezone": "Europe/Zagreb",
    "translations": {}
  },
  {
    "id": 733,
    "name": "Sisak-Moslavina",
    "country_id": 55,
    "country_code": "HR",
    "fips_code": null,
    "iso2": "03",
    "type": "county",
    "latitude": "45.39816660",
    "longitude": "16.49551110",
    "native": "Sisak-Moslavina",
    "timezone": "Europe/Zagreb",
    "translations": {}
  },
  {
    "id": 725,
    "name": "Split-Dalmatia",
    "country_id": 55,
    "country_code": "HR",
    "fips_code": null,
    "iso2": "17",
    "type": "county",
    "latitude": "43.50034070",
    "longitude": "16.81561930",
    "native": "Split-dalmacija",
    "timezone": "Europe/Zagreb",
    "translations": {}
  },
  {
    "id": 739,
    "name": "Varaždin",
    "country_id": 55,
    "country_code": "HR",
    "fips_code": null,
    "iso2": "05",
    "type": "county",
    "latitude": "46.30796450",
    "longitude": "16.33781980",
    "native": "Varaždin",
    "timezone": "Europe/Zagreb",
    "translations": {}
  },
  {
    "id": 732,
    "name": "Virovitica-Podravina",
    "country_id": 55,
    "country_code": "HR",
    "fips_code": null,
    "iso2": "10",
    "type": "county",
    "latitude": "45.77327510",
    "longitude": "17.57891610",
    "native": "Virovitica-Podravina",
    "timezone": "Europe/Zagreb",
    "translations": {}
  },
  {
    "id": 741,
    "name": "Vukovar-Syrmia",
    "country_id": 55,
    "country_code": "HR",
    "fips_code": null,
    "iso2": "16",
    "type": "county",
    "latitude": "45.16724010",
    "longitude": "18.63898980",
    "native": "Vukovar-Sirmija",
    "timezone": "Europe/Zagreb",
    "translations": {}
  },
  {
    "id": 727,
    "name": "Zadar",
    "country_id": 55,
    "country_code": "HR",
    "fips_code": null,
    "iso2": "13",
    "type": "county",
    "latitude": "44.11685940",
    "longitude": "15.23532570",
    "native": "Zadar",
    "timezone": "Europe/Zagreb",
    "translations": {}
  },
  {
    "id": 736,
    "name": "Zagreb",
    "country_id": 55,
    "country_code": "HR",
    "fips_code": null,
    "iso2": "01",
    "type": "county",
    "latitude": "45.81309670",
    "longitude": "15.97727950",
    "native": "Zagreb",
    "timezone": "Europe/Zagreb",
    "translations": {}
  },
  {
    "id": 738,
    "name": "Zagreb",
    "country_id": 55,
    "country_code": "HR",
    "fips_code": null,
    "iso2": "21",
    "type": "city",
    "latitude": "45.81309670",
    "longitude": "15.97727950",
    "native": "Zagreb",
    "timezone": "Europe/Zagreb",
    "translations": {}
  }
]