[
  {
    "id": 154821,
    "name": "Alegria",
    "state_id": 1286,
    "state_code": "SUN",
    "country_id": 174,
    "country_code": "PH",
    "latitude": "9.48507120",
    "longitude": "125.53845010",
    "native": null,
    "timezone": null,
    "translations": {}
  },
  {
    "id": 144380,
    "name": "Bacuag",
    "state_id": 1286,
    "state_code": "SUN",
    "country_id": 174,
    "country_code": "PH",
    "latitude": "9.53346440",
    "longitude": "125.55329880",
    "native": null,
    "timezone": null,
    "translations": {}
  },
  {
    "id": 154822,
    "name": "Burgos",
    "state_id": 1286,
    "state_code": "SUN",
    "country_id": 174,
    "country_code": "PH",
    "latitude": "10.01910090",
    "longitude": "126.05189300",
    "native": null,
    "timezone": null,
    "translations": {}
  },
  {
    "id": 144415,
    "name": "Claver",
    "state_id": 1286,
    "state_code": "SUN",
    "country_id": 174,
    "country_code": "PH",
    "latitude": "9.46317930",
    "longitude": "125.64682070",
    "native": null,
    "timezone": null,
    "translations": {}
  },
  {
    "id": 144421,
    "name": "Dapa",
    "state_id": 1286,
    "state_code": "SUN",
    "country_id": 174,
    "country_code": "PH",
    "latitude": "9.75958320",
    "longitude": "125.96326910",
    "native": null,
    "timezone": null,
    "translations": {}
  },
  {
    "id": 82404,
    "name": "Del Carmen",
    "state_id": 1286,
    "state_code": "SUN",
    "country_id": 174,
    "country_code": "PH",
    "latitude": "9.85210720",
    "longitude": "125.88275990",
    "native": null,
    "timezone": null,
    "translations": {}
  },
  {
    "id": 154823,
    "name": "General Luna",
    "state_id": 1286,
    "state_code": "SUN",
    "country_id": 174,
    "country_code": "PH",
    "latitude": "9.72399610",
    "longitude": "126.06381970",
    "native": null,
    "timezone": null,
    "translations": {}
  },
  {
    "id": 82591,
    "name": "Gigaquit",
    "state_id": 1286,
    "state_code": "SUN",
    "country_id": 174,
    "country_code": "PH",
    "latitude": "9.48488370",
    "longitude": "125.61921670",
    "native": null,
    "timezone": null,
    "translations": {}
  },
  {
    "id": 83370,
    "name": "Mainit",
    "state_id": 1286,
    "state_code": "SUN",
    "country_id": 174,
    "country_code": "PH",
    "latitude": "9.53509280",
    "longitude": "125.43781350",
    "native": null,
    "timezone": null,
    "translations": {}
  },
  {
    "id": 83433,
    "name": "Malimono",
    "state_id": 1286,
    "state_code": "SUN",
    "country_id": 174,
    "country_code": "PH",
    "latitude": "9.56483210",
    "longitude": "125.34704750",
    "native": null,
    "timezone": null,
    "translations": {}
  },
  {
    "id": 154824,
    "name": "Pilar",
    "state_id": 1286,
    "state_code": "SUN",
    "country_id": 174,
    "country_code": "PH",
    "latitude": "9.88349580",
    "longitude": "126.03815940",
    "native": null,
    "timezone": null,
    "translations": {}
  },
  {
    "id": 154825,
    "name": "Placer",
    "state_id": 1286,
    "state_code": "SUN",
    "country_id": 174,
    "country_code": "PH",
    "latitude": "9.66056260",
    "longitude": "125.50351700",
    "native": null,
    "timezone": null,
    "translations": {}
  },
  {
    "id": 144487,
    "name": "San Benito",
    "state_id": 1286,
    "state_code": "SUN",
    "country_id": 174,
    "country_code": "PH",
    "latitude": "9.95712900",
    "longitude": "125.90717880",
    "native": null,
    "timezone": null,
    "translations": {}
  },
  {
    "id": 154826,
    "name": "San Francisco",
    "state_id": 1286,
    "state_code": "SUN",
    "country_id": 174,
    "country_code": "PH",
    "latitude": "9.72778720",
    "longitude": "125.37084720",
    "native": null,
    "timezone": null,
    "translations": {}
  },
  {
    "id": 154827,
    "name": "San Isidro",
    "state_id": 1286,
    "state_code": "SUN",
    "country_id": 174,
    "country_code": "PH",
    "latitude": "9.94885110",
    "longitude": "126.03592770",
    "native": null,
    "timezone": null,
    "translations": {}
  },
  {
    "id": 84690,
    "name": "Santa Monica",
    "state_id": 1286,
    "state_code": "SUN",
    "country_id": 174,
    "country_code": "PH",
    "latitude": "10.02780360",
    "longitude": "126.00211050",
    "native": null,
    "timezone": null,
    "translations": {}
  },
  {
    "id": 154828,
    "name": "Sison",
    "state_id": 1286,
    "state_code": "SUN",
    "country_id": 174,
    "country_code": "PH",
    "latitude": "9.66633940",
    "longitude": "125.41097010",
    "native": null,
    "timezone": null,
    "translations": {}
  },
  {
    "id": 84835,
    "name": "Socorro",
    "state_id": 1286,
    "state_code": "SUN",
    "country_id": 174,
    "country_code": "PH",
    "latitude": "9.66122840",
    "longitude": "125.85619520",
    "native": null,
    "timezone": null,
    "translations": {}
  },
  {
    "id": 144509,
    "name": "Surigao City",
    "state_id": 1286,
    "state_code": "SUN",
    "country_id": 174,
    "country_code": "PH",
    "latitude": "9.79717500",
    "longitude": "125.41917610",
    "native": null,
    "timezone": null,
    "translations": {}
  },
  {
    "id": 144510,
    "name": "Tagana-an",
    "state_id": 1286,
    "state_code": "SUN",
    "country_id": 174,
    "country_code": "PH",
    "latitude": "9.70394220",
    "longitude": "125.53161580",
    "native": null,
    "timezone": null,
    "translations": {}
  },
  {
    "id": 154829,
    "name": "Tubod",
    "state_id": 1286,
    "state_code": "SUN",
    "country_id": 174,
    "country_code": "PH",
    "latitude": "9.56974790",
    "longitude": "125.52551820",
    "native": null,
    "timezone": null,
    "translations": {}
  }
]