[
  {
    "id": 1986,
    "name": "Central",
    "country_id": 246,
    "country_code": "ZM",
    "fips_code": null,
    "iso2": "02",
    "type": "province",
    "latitude": "-14.18350700",
    "longitude": "29.03755430",
    "native": "Central",
    "timezone": "Africa/Lusaka",
    "translations": {}
  },
  {
    "id": 1984,
    "name": "Copperbelt",
    "country_id": 246,
    "country_code": "ZM",
    "fips_code": null,
    "iso2": "08",
    "type": "province",
    "latitude": "-13.02141710",
    "longitude": "27.88761770",
    "native": "Copperbelt",
    "timezone": "Africa/Lusaka",
    "translations": {}
  },
  {
    "id": 1991,
    "name": "Eastern",
    "country_id": 246,
    "country_code": "ZM",
    "fips_code": null,
    "iso2": "03",
    "type": "province",
    "latitude": "-13.65147370",
    "longitude": "31.99585390",
    "native": "Eastern",
    "timezone": "Africa/Lusaka",
    "translations": {}
  },
  {
    "id": 1987,
    "name": "Luapula",
    "country_id": 246,
    "country_code": "ZM",
    "fips_code": null,
    "iso2": "04",
    "type": "province",
    "latitude": "-10.46802440",
    "longitude": "29.12756090",
    "native": "Luapula",
    "timezone": "Africa/Lusaka",
    "translations": {}
  },
  {
    "id": 1988,
    "name": "Lusaka",
    "country_id": 246,
    "country_code": "ZM",
    "fips_code": null,
    "iso2": "09",
    "type": "province",
    "latitude": "-15.35760900",
    "longitude": "29.16530920",
    "native": "Saturday",
    "timezone": "Africa/Lusaka",
    "translations": {}
  },
  {
    "id": 1989,
    "name": "Muchinga",
    "country_id": 246,
    "country_code": "ZM",
    "fips_code": null,
    "iso2": "10",
    "type": "province",
    "latitude": "-11.10052590",
    "longitude": "31.63996400",
    "native": "To go",
    "timezone": "Africa/Lusaka",
    "translations": {}
  },
  {
    "id": 1982,
    "name": "Northern",
    "country_id": 246,
    "country_code": "ZM",
    "fips_code": null,
    "iso2": "05",
    "type": "province",
    "latitude": "-9.45141650",
    "longitude": "30.88810010",
    "native": "Northern",
    "timezone": "Africa/Lusaka",
    "translations": {}
  },
  {
    "id": 1985,
    "name": "Northwestern",
    "country_id": 246,
    "country_code": "ZM",
    "fips_code": null,
    "iso2": "06",
    "type": "province",
    "latitude": "-13.00502580",
    "longitude": "24.90422080",
    "native": "Northwestern",
    "timezone": "Africa/Lusaka",
    "translations": {}
  },
  {
    "id": 1990,
    "name": "Southern",
    "country_id": 246,
    "country_code": "ZM",
    "fips_code": null,
    "iso2": "07",
    "type": "province",
    "latitude": "-16.53817150",
    "longitude": "26.73749970",
    "native": "Southern",
    "timezone": "Africa/Lusaka",
    "translations": {}
  },
  {
    "id": 1983,
    "name": "Western",
    "country_id": 246,
    "country_code": "ZM",
    "fips_code": null,
    "iso2": "01",
    "type": "province",
    "latitude": "6.90160860",
    "longitude": "80.00877460",
    "native": "Western",
    "timezone": "Asia/Colombo",
    "translations": {}
  }
]