[
  {
    "id": 79792,
    "name": "Eltham",
    "state_id": 4069,
    "state_code": "TKI",
    "country_id": 158,
    "country_code": "NZ",
    "latitude": "-39.42917000",
    "longitude": "174.30000000",
    "native": null,
    "timezone": null,
    "translations": {}
  },
  {
    "id": 79801,
    "name": "Hawera",
    "state_id": 4069,
    "state_code": "TKI",
    "country_id": 158,
    "country_code": "NZ",
    "latitude": "-39.59167000",
    "longitude": "174.28333000",
    "native": null,
    "timezone": null,
    "translations": {}
  },
  {
    "id": 79838,
    "name": "New Plymouth",
    "state_id": 4069,
    "state_code": "TKI",
    "country_id": 158,
    "country_code": "NZ",
    "latitude": "-39.06667000",
    "longitude": "174.08333000",
    "native": null,
    "timezone": null,
    "translations": {}
  },
  {
    "id": 79839,
    "name": "New Plymouth District",
    "state_id": 4069,
    "state_code": "TKI",
    "country_id": 158,
    "country_code": "NZ",
    "latitude": "-39.05865000",
    "longitude": "174.10309000",
    "native": null,
    "timezone": null,
    "translations": {}
  },
  {
    "id": 79846,
    "name": "Opunake",
    "state_id": 4069,
    "state_code": "TKI",
    "country_id": 158,
    "country_code": "NZ",
    "latitude": "-39.45556000",
    "longitude": "173.85833000",
    "native": null,
    "timezone": null,
    "translations": {}
  },
  {
    "id": 79858,
    "name": "Patea",
    "state_id": 4069,
    "state_code": "TKI",
    "country_id": 158,
    "country_code": "NZ",
    "latitude": "-39.75833000",
    "longitude": "174.48333000",
    "native": null,
    "timezone": null,
    "translations": {}
  },
  {
    "id": 79878,
    "name": "South Taranaki District",
    "state_id": 4069,
    "state_code": "TKI",
    "country_id": 158,
    "country_code": "NZ",
    "latitude": "-39.52156000",
    "longitude": "174.37160000",
    "native": null,
    "timezone": null,
    "translations": {}
  },
  {
    "id": 153921,
    "name": "Stratford",
    "state_id": 4069,
    "state_code": "TKI",
    "country_id": 158,
    "country_code": "NZ",
    "latitude": "-39.32215170",
    "longitude": "174.26298160",
    "native": null,
    "timezone": null,
    "translations": {}
  },
  {
    "id": 79909,
    "name": "Waitara",
    "state_id": 4069,
    "state_code": "TKI",
    "country_id": 158,
    "country_code": "NZ",
    "latitude": "-39.00158000",
    "longitude": "174.23836000",
    "native": null,
    "timezone": null,
    "translations": {}
  }
]