[
  {
    "id": 55234,
    "name": "Becsehely",
    "state_id": 1046,
    "state_code": "ZA",
    "country_id": 99,
    "country_code": "HU",
    "latitude": "46.44755000",
    "longitude": "16.77710000",
    "native": null,
    "timezone": null,
    "translations": {}
  },
  {
    "id": 55334,
    "name": "Cserszegtomaj",
    "state_id": 1046,
    "state_code": "ZA",
    "country_id": 99,
    "country_code": "HU",
    "latitude": "46.80165000",
    "longitude": "17.22096000",
    "native": null,
    "timezone": null,
    "translations": {}
  },
  {
    "id": 55450,
    "name": "Gyenesdiás",
    "state_id": 1046,
    "state_code": "ZA",
    "country_id": 99,
    "country_code": "HU",
    "latitude": "46.77058000",
    "longitude": "17.28660000",
    "native": null,
    "timezone": null,
    "translations": {}
  },
  {
    "id": 55519,
    "name": "Hévíz",
    "state_id": 1046,
    "state_code": "ZA",
    "country_id": 99,
    "country_code": "HU",
    "latitude": "46.79031000",
    "longitude": "17.18408000",
    "native": null,
    "timezone": null,
    "translations": {}
  },
  {
    "id": 55589,
    "name": "Keszthely",
    "state_id": 1046,
    "state_code": "ZA",
    "country_id": 99,
    "country_code": "HU",
    "latitude": "46.76812000",
    "longitude": "17.24317000",
    "native": null,
    "timezone": null,
    "translations": {}
  },
  {
    "id": 55590,
    "name": "Keszthelyi Járás",
    "state_id": 1046,
    "state_code": "ZA",
    "country_id": 99,
    "country_code": "HU",
    "latitude": "46.78356000",
    "longitude": "17.22381000",
    "native": null,
    "timezone": null,
    "translations": {}
  },
  {
    "id": 55657,
    "name": "Lenti",
    "state_id": 1046,
    "state_code": "ZA",
    "country_id": 99,
    "country_code": "HU",
    "latitude": "46.62403000",
    "longitude": "16.53863000",
    "native": null,
    "timezone": null,
    "translations": {}
  },
  {
    "id": 55658,
    "name": "Lenti Járás",
    "state_id": 1046,
    "state_code": "ZA",
    "country_id": 99,
    "country_code": "HU",
    "latitude": "46.65649000",
    "longitude": "16.57443000",
    "native": null,
    "timezone": null,
    "translations": {}
  },
  {
    "id": 55660,
    "name": "Letenye",
    "state_id": 1046,
    "state_code": "ZA",
    "country_id": 99,
    "country_code": "HU",
    "latitude": "46.43301000",
    "longitude": "16.72583000",
    "native": null,
    "timezone": null,
    "translations": {}
  },
  {
    "id": 55661,
    "name": "Letenyei Járás",
    "state_id": 1046,
    "state_code": "ZA",
    "country_id": 99,
    "country_code": "HU",
    "latitude": "46.50552000",
    "longitude": "16.76503000",
    "native": null,
    "timezone": null,
    "translations": {}
  },
  {
    "id": 55717,
    "name": "Murakeresztúr",
    "state_id": 1046,
    "state_code": "ZA",
    "country_id": 99,
    "country_code": "HU",
    "latitude": "46.36422000",
    "longitude": "16.88177000",
    "native": null,
    "timezone": null,
    "translations": {}
  },
  {
    "id": 55748,
    "name": "Nagykanizsa",
    "state_id": 1046,
    "state_code": "ZA",
    "country_id": 99,
    "country_code": "HU",
    "latitude": "46.45347000",
    "longitude": "16.99104000",
    "native": null,
    "timezone": null,
    "translations": {}
  },
  {
    "id": 55749,
    "name": "Nagykanizsai Járás",
    "state_id": 1046,
    "state_code": "ZA",
    "country_id": 99,
    "country_code": "HU",
    "latitude": "46.51873000",
    "longitude": "17.04433000",
    "native": null,
    "timezone": null,
    "translations": {}
  },
  {
    "id": 55804,
    "name": "Pacsa",
    "state_id": 1046,
    "state_code": "ZA",
    "country_id": 99,
    "country_code": "HU",
    "latitude": "46.71981000",
    "longitude": "17.01401000",
    "native": null,
    "timezone": null,
    "translations": {}
  },
  {
    "id": 55984,
    "name": "Sármellék",
    "state_id": 1046,
    "state_code": "ZA",
    "country_id": 99,
    "country_code": "HU",
    "latitude": "46.71221000",
    "longitude": "17.16865000",
    "native": null,
    "timezone": null,
    "translations": {}
  },
  {
    "id": 56087,
    "name": "Türje",
    "state_id": 1046,
    "state_code": "ZA",
    "country_id": 99,
    "country_code": "HU",
    "latitude": "46.98366000",
    "longitude": "17.10742000",
    "native": null,
    "timezone": null,
    "translations": {}
  },
  {
    "id": 56104,
    "name": "Vonyarcvashegy",
    "state_id": 1046,
    "state_code": "ZA",
    "country_id": 99,
    "country_code": "HU",
    "latitude": "46.75742000",
    "longitude": "17.31172000",
    "native": null,
    "timezone": null,
    "translations": {}
  },
  {
    "id": 56120,
    "name": "Zalaegerszeg",
    "state_id": 1046,
    "state_code": "ZA",
    "country_id": 99,
    "country_code": "HU",
    "latitude": "46.84000000",
    "longitude": "16.84389000",
    "native": null,
    "timezone": null,
    "translations": {}
  },
  {
    "id": 56121,
    "name": "Zalaegerszegi Járás",
    "state_id": 1046,
    "state_code": "ZA",
    "country_id": 99,
    "country_code": "HU",
    "latitude": "46.80000000",
    "longitude": "16.83000000",
    "native": null,
    "timezone": null,
    "translations": {}
  },
  {
    "id": 56122,
    "name": "Zalakomár",
    "state_id": 1046,
    "state_code": "ZA",
    "country_id": 99,
    "country_code": "HU",
    "latitude": "46.53795000",
    "longitude": "17.18094000",
    "native": null,
    "timezone": null,
    "translations": {}
  },
  {
    "id": 56123,
    "name": "Zalalövő",
    "state_id": 1046,
    "state_code": "ZA",
    "country_id": 99,
    "country_code": "HU",
    "latitude": "46.84802000",
    "longitude": "16.58750000",
    "native": null,
    "timezone": null,
    "translations": {}
  },
  {
    "id": 56124,
    "name": "Zalaszentgrót",
    "state_id": 1046,
    "state_code": "ZA",
    "country_id": 99,
    "country_code": "HU",
    "latitude": "46.94474000",
    "longitude": "17.07925000",
    "native": null,
    "timezone": null,
    "translations": {}
  },
  {
    "id": 56125,
    "name": "Zalaszentgróti Járás",
    "state_id": 1046,
    "state_code": "ZA",
    "country_id": 99,
    "country_code": "HU",
    "latitude": "46.92070000",
    "longitude": "17.10095000",
    "native": null,
    "timezone": null,
    "translations": {}
  }
]