[
  {
    "id": 97564,
    "name": "Aleksandro-Nevskiy",
    "state_id": 1905,
    "state_code": "RYA",
    "country_id": 182,
    "country_code": "RU",
    "latitude": "53.47510000",
    "longitude": "40.20950000",
    "native": null,
    "timezone": null,
    "translations": {}
  },
  {
    "id": 97754,
    "name": "Bagramovo",
    "state_id": 1905,
    "state_code": "RYA",
    "country_id": 182,
    "country_code": "RU",
    "latitude": "54.72337000",
    "longitude": "39.45186000",
    "native": null,
    "timezone": null,
    "translations": {}
  },
  {
    "id": 98213,
    "name": "Chuchkovo",
    "state_id": 1905,
    "state_code": "RYA",
    "country_id": 182,
    "country_code": "RU",
    "latitude": "54.26931000",
    "longitude": "41.44648000",
    "native": null,
    "timezone": null,
    "translations": {}
  },
  {
    "id": 98623,
    "name": "Gus’-Zheleznyy",
    "state_id": 1905,
    "state_code": "RYA",
    "country_id": 182,
    "country_code": "RU",
    "latitude": "55.05811000",
    "longitude": "41.16556000",
    "native": null,
    "timezone": null,
    "translations": {}
  },
  {
    "id": 98747,
    "name": "Izhevskoye",
    "state_id": 1905,
    "state_code": "RYA",
    "country_id": 182,
    "country_code": "RU",
    "latitude": "54.55700000",
    "longitude": "40.87530000",
    "native": null,
    "timezone": null,
    "translations": {}
  },
  {
    "id": 98769,
    "name": "Kadom",
    "state_id": 1905,
    "state_code": "RYA",
    "country_id": 182,
    "country_code": "RU",
    "latitude": "54.55917000",
    "longitude": "42.46750000",
    "native": null,
    "timezone": null,
    "translations": {}
  },
  {
    "id": 98897,
    "name": "Kasimov",
    "state_id": 1905,
    "state_code": "RYA",
    "country_id": 182,
    "country_code": "RU",
    "latitude": "54.94111000",
    "longitude": "41.39528000",
    "native": null,
    "timezone": null,
    "translations": {}
  },
  {
    "id": 98898,
    "name": "Kasimovskiy Rayon",
    "state_id": 1905,
    "state_code": "RYA",
    "country_id": 182,
    "country_code": "RU",
    "latitude": "54.91667000",
    "longitude": "41.41667000",
    "native": null,
    "timezone": null,
    "translations": {}
  },
  {
    "id": 99058,
    "name": "Kiritsy",
    "state_id": 1905,
    "state_code": "RYA",
    "country_id": 182,
    "country_code": "RU",
    "latitude": "54.28620000",
    "longitude": "40.35720000",
    "native": null,
    "timezone": null,
    "translations": {}
  },
  {
    "id": 99097,
    "name": "Klepikovskiy Rayon",
    "state_id": 1905,
    "state_code": "RYA",
    "country_id": 182,
    "country_code": "RU",
    "latitude": "55.08333000",
    "longitude": "40.08333000",
    "native": null,
    "timezone": null,
    "translations": {}
  },
  {
    "id": 99202,
    "name": "Korablino",
    "state_id": 1905,
    "state_code": "RYA",
    "country_id": 182,
    "country_code": "RU",
    "latitude": "53.91639000",
    "longitude": "40.01333000",
    "native": null,
    "timezone": null,
    "translations": {}
  },
  {
    "id": 99545,
    "name": "Lashma",
    "state_id": 1905,
    "state_code": "RYA",
    "country_id": 182,
    "country_code": "RU",
    "latitude": "54.93210000",
    "longitude": "41.14379000",
    "native": null,
    "timezone": null,
    "translations": {}
  },
  {
    "id": 99594,
    "name": "Lesnoy",
    "state_id": 1905,
    "state_code": "RYA",
    "country_id": 182,
    "country_code": "RU",
    "latitude": "54.21250000",
    "longitude": "40.47130000",
    "native": null,
    "timezone": null,
    "translations": {}
  },
  {
    "id": 99895,
    "name": "Mikhaylov",
    "state_id": 1905,
    "state_code": "RYA",
    "country_id": 182,
    "country_code": "RU",
    "latitude": "54.22980000",
    "longitude": "39.02690000",
    "native": null,
    "timezone": null,
    "translations": {}
  },
  {
    "id": 99911,
    "name": "Miloslavskoye",
    "state_id": 1905,
    "state_code": "RYA",
    "country_id": 182,
    "country_code": "RU",
    "latitude": "53.58152000",
    "longitude": "39.43992000",
    "native": null,
    "timezone": null,
    "translations": {}
  },
  {
    "id": 100011,
    "name": "Murmino",
    "state_id": 1905,
    "state_code": "RYA",
    "country_id": 182,
    "country_code": "RU",
    "latitude": "54.60430000",
    "longitude": "40.05490000",
    "native": null,
    "timezone": null,
    "translations": {}
  },
  {
    "id": 100266,
    "name": "Novomichurinsk",
    "state_id": 1905,
    "state_code": "RYA",
    "country_id": 182,
    "country_code": "RU",
    "latitude": "54.03840000",
    "longitude": "39.74790000",
    "native": null,
    "timezone": null,
    "translations": {}
  },
  {
    "id": 100409,
    "name": "Oktyabr’skiy",
    "state_id": 1905,
    "state_code": "RYA",
    "country_id": 182,
    "country_code": "RU",
    "latitude": "54.22675000",
    "longitude": "38.89402000",
    "native": null,
    "timezone": null,
    "translations": {}
  },
  {
    "id": 100563,
    "name": "Pavelets",
    "state_id": 1905,
    "state_code": "RYA",
    "country_id": 182,
    "country_code": "RU",
    "latitude": "53.78833000",
    "longitude": "39.24601000",
    "native": null,
    "timezone": null,
    "translations": {}
  },
  {
    "id": 100686,
    "name": "Pitelino",
    "state_id": 1905,
    "state_code": "RYA",
    "country_id": 182,
    "country_code": "RU",
    "latitude": "54.57768000",
    "longitude": "41.81448000",
    "native": null,
    "timezone": null,
    "translations": {}
  },
  {
    "id": 100761,
    "name": "Polyany",
    "state_id": 1905,
    "state_code": "RYA",
    "country_id": 182,
    "country_code": "RU",
    "latitude": "54.71801000",
    "longitude": "39.82932000",
    "native": null,
    "timezone": null,
    "translations": {}
  },
  {
    "id": 100869,
    "name": "Pronsk",
    "state_id": 1905,
    "state_code": "RYA",
    "country_id": 182,
    "country_code": "RU",
    "latitude": "54.10480000",
    "longitude": "39.60920000",
    "native": null,
    "timezone": null,
    "translations": {}
  },
  {
    "id": 100906,
    "name": "Putyatino",
    "state_id": 1905,
    "state_code": "RYA",
    "country_id": 182,
    "country_code": "RU",
    "latitude": "54.15998000",
    "longitude": "41.11690000",
    "native": null,
    "timezone": null,
    "translations": {}
  },
  {
    "id": 101045,
    "name": "Ryazan’",
    "state_id": 1905,
    "state_code": "RYA",
    "country_id": 182,
    "country_code": "RU",
    "latitude": "54.62690000",
    "longitude": "39.69160000",
    "native": null,
    "timezone": null,
    "translations": {}
  },
  {
    "id": 101044,
    "name": "Ryazanskiy Rayon",
    "state_id": 1905,
    "state_code": "RYA",
    "country_id": 182,
    "country_code": "RU",
    "latitude": "54.58333000",
    "longitude": "39.75000000",
    "native": null,
    "timezone": null,
    "translations": {}
  },
  {
    "id": 101046,
    "name": "Ryazhsk",
    "state_id": 1905,
    "state_code": "RYA",
    "country_id": 182,
    "country_code": "RU",
    "latitude": "53.70380000",
    "longitude": "40.11090000",
    "native": null,
    "timezone": null,
    "translations": {}
  },
  {
    "id": 101052,
    "name": "Rybnovskiy Rayon",
    "state_id": 1905,
    "state_code": "RYA",
    "country_id": 182,
    "country_code": "RU",
    "latitude": "54.75000000",
    "longitude": "39.50000000",
    "native": null,
    "timezone": null,
    "translations": {}
  },
  {
    "id": 101053,
    "name": "Rybnoye",
    "state_id": 1905,
    "state_code": "RYA",
    "country_id": 182,
    "country_code": "RU",
    "latitude": "54.72774000",
    "longitude": "39.51731000",
    "native": null,
    "timezone": null,
    "translations": {}
  },
  {
    "id": 101103,
    "name": "Sapozhok",
    "state_id": 1905,
    "state_code": "RYA",
    "country_id": 182,
    "country_code": "RU",
    "latitude": "53.94194000",
    "longitude": "40.68056000",
    "native": null,
    "timezone": null,
    "translations": {}
  },
  {
    "id": 101105,
    "name": "Sarai",
    "state_id": 1905,
    "state_code": "RYA",
    "country_id": 182,
    "country_code": "RU",
    "latitude": "53.74577000",
    "longitude": "41.02126000",
    "native": null,
    "timezone": null,
    "translations": {}
  },
  {
    "id": 101128,
    "name": "Sasovo",
    "state_id": 1905,
    "state_code": "RYA",
    "country_id": 182,
    "country_code": "RU",
    "latitude": "54.35369000",
    "longitude": "41.91986000",
    "native": null,
    "timezone": null,
    "translations": {}
  },
  {
    "id": 101271,
    "name": "Shatsk",
    "state_id": 1905,
    "state_code": "RYA",
    "country_id": 182,
    "country_code": "RU",
    "latitude": "54.02576000",
    "longitude": "41.71191000",
    "native": null,
    "timezone": null,
    "translations": {}
  },
  {
    "id": 101315,
    "name": "Shilovo",
    "state_id": 1905,
    "state_code": "RYA",
    "country_id": 182,
    "country_code": "RU",
    "latitude": "54.32040000",
    "longitude": "40.87400000",
    "native": null,
    "timezone": null,
    "translations": {}
  },
  {
    "id": 101389,
    "name": "Skopin",
    "state_id": 1905,
    "state_code": "RYA",
    "country_id": 182,
    "country_code": "RU",
    "latitude": "53.82486000",
    "longitude": "39.55053000",
    "native": null,
    "timezone": null,
    "translations": {}
  },
  {
    "id": 101466,
    "name": "Solotcha",
    "state_id": 1905,
    "state_code": "RYA",
    "country_id": 182,
    "country_code": "RU",
    "latitude": "54.78970000",
    "longitude": "39.83336000",
    "native": null,
    "timezone": null,
    "translations": {}
  },
  {
    "id": 101524,
    "name": "Spas-Klepiki",
    "state_id": 1905,
    "state_code": "RYA",
    "country_id": 182,
    "country_code": "RU",
    "latitude": "55.13472000",
    "longitude": "40.17673000",
    "native": null,
    "timezone": null,
    "translations": {}
  },
  {
    "id": 101529,
    "name": "Spassk-Ryazanskiy",
    "state_id": 1905,
    "state_code": "RYA",
    "country_id": 182,
    "country_code": "RU",
    "latitude": "54.40400000",
    "longitude": "40.37620000",
    "native": null,
    "timezone": null,
    "translations": {}
  },
  {
    "id": 101603,
    "name": "Starozhilovo",
    "state_id": 1905,
    "state_code": "RYA",
    "country_id": 182,
    "country_code": "RU",
    "latitude": "54.22540000",
    "longitude": "39.91600000",
    "native": null,
    "timezone": null,
    "translations": {}
  },
  {
    "id": 101727,
    "name": "Syntul",
    "state_id": 1905,
    "state_code": "RYA",
    "country_id": 182,
    "country_code": "RU",
    "latitude": "55.00327000",
    "longitude": "41.29711000",
    "native": null,
    "timezone": null,
    "translations": {}
  },
  {
    "id": 101967,
    "name": "Tuma",
    "state_id": 1905,
    "state_code": "RYA",
    "country_id": 182,
    "country_code": "RU",
    "latitude": "55.14798000",
    "longitude": "40.55374000",
    "native": null,
    "timezone": null,
    "translations": {}
  },
  {
    "id": 102042,
    "name": "Ukholovo",
    "state_id": 1905,
    "state_code": "RYA",
    "country_id": 182,
    "country_code": "RU",
    "latitude": "53.79290000",
    "longitude": "40.48920000",
    "native": null,
    "timezone": null,
    "translations": {}
  },
  {
    "id": 102305,
    "name": "Vilenka",
    "state_id": 1905,
    "state_code": "RYA",
    "country_id": 182,
    "country_code": "RU",
    "latitude": "54.26930000",
    "longitude": "38.91663000",
    "native": null,
    "timezone": null,
    "translations": {}
  },
  {
    "id": 102478,
    "name": "Yambirno",
    "state_id": 1905,
    "state_code": "RYA",
    "country_id": 182,
    "country_code": "RU",
    "latitude": "54.12310000",
    "longitude": "42.09110000",
    "native": null,
    "timezone": null,
    "translations": {}
  },
  {
    "id": 102537,
    "name": "Yelat’ma",
    "state_id": 1905,
    "state_code": "RYA",
    "country_id": 182,
    "country_code": "RU",
    "latitude": "54.96750000",
    "longitude": "41.75083000",
    "native": null,
    "timezone": null,
    "translations": {}
  },
  {
    "id": 102566,
    "name": "Yermish’",
    "state_id": 1905,
    "state_code": "RYA",
    "country_id": 182,
    "country_code": "RU",
    "latitude": "54.76778000",
    "longitude": "42.27111000",
    "native": null,
    "timezone": null,
    "translations": {}
  },
  {
    "id": 102635,
    "name": "Zakharovo",
    "state_id": 1905,
    "state_code": "RYA",
    "country_id": 182,
    "country_code": "RU",
    "latitude": "54.36600000",
    "longitude": "39.27920000",
    "native": null,
    "timezone": null,
    "translations": {}
  },
  {
    "id": 102636,
    "name": "Zakharovskiy Rayon",
    "state_id": 1905,
    "state_code": "RYA",
    "country_id": 182,
    "country_code": "RU",
    "latitude": "54.41667000",
    "longitude": "39.25000000",
    "native": null,
    "timezone": null,
    "translations": {}
  },
  {
    "id": 102653,
    "name": "Zarechnyy",
    "state_id": 1905,
    "state_code": "RYA",
    "country_id": 182,
    "country_code": "RU",
    "latitude": "53.73060000",
    "longitude": "39.59437000",
    "native": null,
    "timezone": null,
    "translations": {}
  }
]