[
  {
    "id": 150811,
    "name": "azeh Abad",
    "state_id": 3919,
    "state_code": "05",
    "country_id": 103,
    "country_code": "IR",
    "latitude": "34.49698980",
    "longitude": "47.04017400",
    "native": null,
    "timezone": null,
    "translations": {}
  },
  {
    "id": 150806,
    "name": "Banevreh",
    "state_id": 3919,
    "state_code": "05",
    "country_id": 103,
    "country_code": "IR",
    "latitude": "34.96917880",
    "longitude": "46.35028830",
    "native": null,
    "timezone": null,
    "translations": {}
  },
  {
    "id": 150807,
    "name": "Bayangan",
    "state_id": 3919,
    "state_code": "05",
    "country_id": 103,
    "country_code": "IR",
    "latitude": "34.98088040",
    "longitude": "46.26785870",
    "native": null,
    "timezone": null,
    "translations": {}
  },
  {
    "id": 150824,
    "name": "Bisotun",
    "state_id": 3919,
    "state_code": "05",
    "country_id": 103,
    "country_code": "IR",
    "latitude": "34.39705640",
    "longitude": "47.43759150",
    "native": null,
    "timezone": null,
    "translations": {}
  },
  {
    "id": 134851,
    "name": "Dalahu",
    "state_id": 3919,
    "state_code": "05",
    "country_id": 103,
    "country_code": "IR",
    "latitude": "34.41667000",
    "longitude": "46.25000000",
    "native": null,
    "timezone": null,
    "translations": {}
  },
  {
    "id": 134860,
    "name": "Eslamabad-e-Gharb",
    "state_id": 3919,
    "state_code": "05",
    "country_id": 103,
    "country_code": "IR",
    "latitude": "34.05000000",
    "longitude": "46.66667000",
    "native": null,
    "timezone": null,
    "translations": {}
  },
  {
    "id": 150810,
    "name": "Ezgeleh",
    "state_id": 3919,
    "state_code": "05",
    "country_id": 103,
    "country_code": "IR",
    "latitude": "34.83314400",
    "longitude": "45.83253630",
    "native": null,
    "timezone": null,
    "translations": {}
  },
  {
    "id": 150814,
    "name": "Gahvareh",
    "state_id": 3919,
    "state_code": "05",
    "country_id": 103,
    "country_code": "IR",
    "latitude": "34.34416220",
    "longitude": "46.41101360",
    "native": null,
    "timezone": null,
    "translations": {}
  },
  {
    "id": 134890,
    "name": "Gilan Gharb",
    "state_id": 3919,
    "state_code": "05",
    "country_id": 103,
    "country_code": "IR",
    "latitude": "34.13333000",
    "longitude": "46.00000000",
    "native": null,
    "timezone": null,
    "translations": {}
  },
  {
    "id": 150822,
    "name": "Gowdin",
    "state_id": 3919,
    "state_code": "05",
    "country_id": 103,
    "country_code": "IR",
    "latitude": "34.50788250",
    "longitude": "48.07484150",
    "native": null,
    "timezone": null,
    "translations": {}
  },
  {
    "id": 150821,
    "name": "Halashi",
    "state_id": 3919,
    "state_code": "05",
    "country_id": 103,
    "country_code": "IR",
    "latitude": "34.10985920",
    "longitude": "47.08711270",
    "native": null,
    "timezone": null,
    "translations": {}
  },
  {
    "id": 150805,
    "name": "Hamil",
    "state_id": 3919,
    "state_code": "05",
    "country_id": 103,
    "country_code": "IR",
    "latitude": "33.93732470",
    "longitude": "46.76577320",
    "native": null,
    "timezone": null,
    "translations": {}
  },
  {
    "id": 134652,
    "name": "Harsin",
    "state_id": 3919,
    "state_code": "05",
    "country_id": 103,
    "country_code": "IR",
    "latitude": "34.27210000",
    "longitude": "47.58610000",
    "native": null,
    "timezone": null,
    "translations": {}
  },
  {
    "id": 134657,
    "name": "Javanrud",
    "state_id": 3919,
    "state_code": "05",
    "country_id": 103,
    "country_code": "IR",
    "latitude": "34.79611000",
    "longitude": "46.51722000",
    "native": null,
    "timezone": null,
    "translations": {}
  },
  {
    "id": 134661,
    "name": "Kahriz",
    "state_id": 3919,
    "state_code": "05",
    "country_id": 103,
    "country_code": "IR",
    "latitude": "34.38380000",
    "longitude": "47.05530000",
    "native": null,
    "timezone": null,
    "translations": {}
  },
  {
    "id": 134663,
    "name": "Kangavar",
    "state_id": 3919,
    "state_code": "05",
    "country_id": 103,
    "country_code": "IR",
    "latitude": "34.50430000",
    "longitude": "47.96530000",
    "native": null,
    "timezone": null,
    "translations": {}
  },
  {
    "id": 150813,
    "name": "Kerend-e Gharb",
    "state_id": 3919,
    "state_code": "05",
    "country_id": 103,
    "country_code": "IR",
    "latitude": "34.27801600",
    "longitude": "46.22670290",
    "native": null,
    "timezone": null,
    "translations": {}
  },
  {
    "id": 134668,
    "name": "Kermanshah",
    "state_id": 3919,
    "state_code": "05",
    "country_id": 103,
    "country_code": "IR",
    "latitude": "34.31417000",
    "longitude": "47.06500000",
    "native": null,
    "timezone": null,
    "translations": {}
  },
  {
    "id": 150820,
    "name": "Kuzaran",
    "state_id": 3919,
    "state_code": "05",
    "country_id": 103,
    "country_code": "IR",
    "latitude": "34.49665360",
    "longitude": "46.59675130",
    "native": null,
    "timezone": null,
    "translations": {}
  },
  {
    "id": 150815,
    "name": "Mansur-e Aqai",
    "state_id": 3919,
    "state_code": "05",
    "country_id": 103,
    "country_code": "IR",
    "latitude": "34.93651900",
    "longitude": "46.45208350",
    "native": null,
    "timezone": null,
    "translations": {}
  },
  {
    "id": 150817,
    "name": "Miyan Rahan",
    "state_id": 3919,
    "state_code": "05",
    "country_id": 103,
    "country_code": "IR",
    "latitude": "34.58375750",
    "longitude": "47.44153980",
    "native": null,
    "timezone": null,
    "translations": {}
  },
  {
    "id": 150808,
    "name": "Nowdeshah",
    "state_id": 3919,
    "state_code": "05",
    "country_id": 103,
    "country_code": "IR",
    "latitude": "35.18205130",
    "longitude": "46.24964120",
    "native": null,
    "timezone": null,
    "translations": {}
  },
  {
    "id": 150809,
    "name": "Nowsud",
    "state_id": 3919,
    "state_code": "05",
    "country_id": 103,
    "country_code": "IR",
    "latitude": "35.16135400",
    "longitude": "46.20011690",
    "native": null,
    "timezone": null,
    "translations": {}
  },
  {
    "id": 134733,
    "name": "Paveh",
    "state_id": 3919,
    "state_code": "05",
    "country_id": 103,
    "country_code": "IR",
    "latitude": "35.04340000",
    "longitude": "46.35650000",
    "native": null,
    "timezone": null,
    "translations": {}
  },
  {
    "id": 135002,
    "name": "Qasr-e Shirin",
    "state_id": 3919,
    "state_code": "05",
    "country_id": 103,
    "country_code": "IR",
    "latitude": "34.20000000",
    "longitude": "45.63333000",
    "native": null,
    "timezone": null,
    "translations": {}
  },
  {
    "id": 135008,
    "name": "Ravansar",
    "state_id": 3919,
    "state_code": "05",
    "country_id": 103,
    "country_code": "IR",
    "latitude": "34.75000000",
    "longitude": "46.65000000",
    "native": null,
    "timezone": null,
    "translations": {}
  },
  {
    "id": 150812,
    "name": "Rijab",
    "state_id": 3919,
    "state_code": "05",
    "country_id": 103,
    "country_code": "IR",
    "latitude": "34.48030290",
    "longitude": "46.00143560",
    "native": null,
    "timezone": null,
    "translations": {}
  },
  {
    "id": 150819,
    "name": "Robat",
    "state_id": 3919,
    "state_code": "05",
    "country_id": 103,
    "country_code": "IR",
    "latitude": "34.26546230",
    "longitude": "46.79866770",
    "native": null,
    "timezone": null,
    "translations": {}
  },
  {
    "id": 135094,
    "name": "Sahneh",
    "state_id": 3919,
    "state_code": "05",
    "country_id": 103,
    "country_code": "IR",
    "latitude": "34.58333000",
    "longitude": "47.51667000",
    "native": null,
    "timezone": null,
    "translations": {}
  },
  {
    "id": 135056,
    "name": "Salas-e Baba Jani",
    "state_id": 3919,
    "state_code": "05",
    "country_id": 103,
    "country_code": "IR",
    "latitude": "34.81667000",
    "longitude": "45.98333000",
    "native": null,
    "timezone": null,
    "translations": {}
  },
  {
    "id": 135025,
    "name": "Sarpol Zahab",
    "state_id": 3919,
    "state_code": "05",
    "country_id": 103,
    "country_code": "IR",
    "latitude": "34.50000000",
    "longitude": "45.85000000",
    "native": null,
    "timezone": null,
    "translations": {}
  },
  {
    "id": 150816,
    "name": "Satar",
    "state_id": 3919,
    "state_code": "05",
    "country_id": 103,
    "country_code": "IR",
    "latitude": "34.81151280",
    "longitude": "47.46012210",
    "native": null,
    "timezone": null,
    "translations": {}
  },
  {
    "id": 135120,
    "name": "Sonqor",
    "state_id": 3919,
    "state_code": "05",
    "country_id": 103,
    "country_code": "IR",
    "latitude": "34.78187000",
    "longitude": "47.59945000",
    "native": null,
    "timezone": null,
    "translations": {}
  },
  {
    "id": 150818,
    "name": "Soomar",
    "state_id": 3919,
    "state_code": "05",
    "country_id": 103,
    "country_code": "IR",
    "latitude": "33.88124650",
    "longitude": "45.63190690",
    "native": null,
    "timezone": null,
    "translations": {}
  },
  {
    "id": 150823,
    "name": "Srmast",
    "state_id": 3919,
    "state_code": "05",
    "country_id": 103,
    "country_code": "IR",
    "latitude": "34.50537190",
    "longitude": "47.83984780",
    "native": null,
    "timezone": null,
    "translations": {}
  }
]