[
  {
    "id": 106887,
    "name": "Balkanabat",
    "state_id": 3372,
    "state_code": "B",
    "country_id": 226,
    "country_code": "TM",
    "latitude": "39.51075000",
    "longitude": "54.36713000",
    "native": null,
    "timezone": null,
    "translations": {}
  },
  {
    "id": 106889,
    "name": "Bereket",
    "state_id": 3372,
    "state_code": "B",
    "country_id": 226,
    "country_code": "TM",
    "latitude": "39.24463000",
    "longitude": "55.51536000",
    "native": null,
    "timezone": null,
    "translations": {}
  },
  {
    "id": 106895,
    "name": "Gumdag",
    "state_id": 3372,
    "state_code": "B",
    "country_id": 226,
    "country_code": "TM",
    "latitude": "39.20611000",
    "longitude": "54.59056000",
    "native": null,
    "timezone": null,
    "translations": {}
  },
  {
    "id": 106898,
    "name": "Magtymguly",
    "state_id": 3372,
    "state_code": "B",
    "country_id": 226,
    "country_code": "TM",
    "latitude": "38.43749000",
    "longitude": "56.28081000",
    "native": null,
    "timezone": null,
    "translations": {}
  },
  {
    "id": 106901,
    "name": "Serdar",
    "state_id": 3372,
    "state_code": "B",
    "country_id": 226,
    "country_code": "TM",
    "latitude": "38.97644000",
    "longitude": "56.27575000",
    "native": null,
    "timezone": null,
    "translations": {}
  },
  {
    "id": 106907,
    "name": "Türkmenbaşy",
    "state_id": 3372,
    "state_code": "B",
    "country_id": 226,
    "country_code": "TM",
    "latitude": "40.02216000",
    "longitude": "52.95517000",
    "native": null,
    "timezone": null,
    "translations": {}
  }
]