[
  {
    "id": 11,
    "name": "Addis Ababa",
    "country_id": 70,
    "country_code": "ET",
    "fips_code": null,
    "iso2": "AA",
    "type": "administration",
    "latitude": "9.00000000",
    "longitude": "38.75000000",
    "native": "አዲስ አበባ",
    "timezone": "Africa/Addis_Ababa",
    "translations": {}
  },
  {
    "id": 6,
    "name": "Afar",
    "country_id": 70,
    "country_code": "ET",
    "fips_code": null,
    "iso2": "AF",
    "type": "region",
    "latitude": "11.71082060",
    "longitude": "41.03308660",
    "native": "አፋር",
    "timezone": "Africa/Addis_Ababa",
    "translations": {}
  },
  {
    "id": 3,
    "name": "Amhara",
    "country_id": 70,
    "country_code": "ET",
    "fips_code": null,
    "iso2": "AM",
    "type": "region",
    "latitude": "11.50000000",
    "longitude": "38.50000000",
    "native": "አማራ",
    "timezone": "Africa/Addis_Ababa",
    "translations": {}
  },
  {
    "id": 9,
    "name": "Benishangul-Gumuz",
    "country_id": 70,
    "country_code": "ET",
    "fips_code": null,
    "iso2": "BE",
    "type": "region",
    "latitude": "10.37782510",
    "longitude": "35.50844420",
    "native": "ቤኒሻል-ጉሙዝ",
    "timezone": "Africa/Addis_Ababa",
    "translations": {}
  },
  {
    "id": 8,
    "name": "Dire Dawa",
    "country_id": 70,
    "country_code": "ET",
    "fips_code": null,
    "iso2": "DD",
    "type": "administration",
    "latitude": "9.59132300",
    "longitude": "41.85663410",
    "native": "አዝናኝ",
    "timezone": "Africa/Addis_Ababa",
    "translations": {}
  },
  {
    "id": 10,
    "name": "Gambela",
    "country_id": 70,
    "country_code": "ET",
    "fips_code": null,
    "iso2": "GA",
    "type": "region",
    "latitude": "7.81026470",
    "longitude": "34.18221720",
    "native": "ጋምቤላ",
    "timezone": "Africa/Addis_Ababa",
    "translations": {}
  },
  {
    "id": 7,
    "name": "Harari",
    "country_id": 70,
    "country_code": "ET",
    "fips_code": null,
    "iso2": "HA",
    "type": "region",
    "latitude": "9.29055170",
    "longitude": "42.18856720",
    "native": "ሐረሪ",
    "timezone": "Africa/Addis_Ababa",
    "translations": {}
  },
  {
    "id": 5,
    "name": "Oromia",
    "country_id": 70,
    "country_code": "ET",
    "fips_code": null,
    "iso2": "OR",
    "type": "region",
    "latitude": "7.67216440",
    "longitude": "40.02997270",
    "native": "Oromia",
    "timezone": "Africa/Addis_Ababa",
    "translations": {}
  },
  {
    "id": 2,
    "name": "Somali",
    "country_id": 70,
    "country_code": "ET",
    "fips_code": null,
    "iso2": "SO",
    "type": "region",
    "latitude": "7.26298440",
    "longitude": "43.53605310",
    "native": "ሶማሊ",
    "timezone": "Africa/Addis_Ababa",
    "translations": {}
  },
  {
    "id": 1,
    "name": "Southern Nations, Nationalities, and Peoples'",
    "country_id": 70,
    "country_code": "ET",
    "fips_code": null,
    "iso2": "SN",
    "type": "region",
    "latitude": "6.51569110",
    "longitude": "36.95410700",
    "native": "የደቡብ ብሔሮች, ብሔረሰቦች እና ሕዝቦች '",
    "timezone": "Africa/Addis_Ababa",
    "translations": {}
  },
  {
    "id": 4,
    "name": "Tigray",
    "country_id": 70,
    "country_code": "ET",
    "fips_code": null,
    "iso2": "TI",
    "type": "region",
    "latitude": "13.88127300",
    "longitude": "39.12749500",
    "native": "ትግራይ",
    "timezone": "Africa/Addis_Ababa",
    "translations": {}
  }
]