[
  {
    "id": 79959,
    "name": "Alanje",
    "state_id": 1397,
    "state_code": "4",
    "country_id": 170,
    "country_code": "PA",
    "latitude": "8.39791000",
    "longitude": "-82.55947000",
    "native": null,
    "timezone": null,
    "translations": {}
  },
  {
    "id": 79961,
    "name": "Algarrobos Arriba",
    "state_id": 1397,
    "state_code": "4",
    "country_id": 170,
    "country_code": "PA",
    "latitude": "8.51550000",
    "longitude": "-82.42263000",
    "native": null,
    "timezone": null,
    "translations": {}
  },
  {
    "id": 79963,
    "name": "Alto Boquete",
    "state_id": 1397,
    "state_code": "4",
    "country_id": 170,
    "country_code": "PA",
    "latitude": "8.73458000",
    "longitude": "-82.43213000",
    "native": null,
    "timezone": null,
    "translations": {}
  },
  {
    "id": 79974,
    "name": "Aserrío de Gariché",
    "state_id": 1397,
    "state_code": "4",
    "country_id": 170,
    "country_code": "PA",
    "latitude": "8.48257000",
    "longitude": "-82.79086000",
    "native": null,
    "timezone": null,
    "translations": {}
  },
  {
    "id": 80012,
    "name": "Bágala",
    "state_id": 1397,
    "state_code": "4",
    "country_id": 170,
    "country_code": "PA",
    "latitude": "8.46399000",
    "longitude": "-82.52617000",
    "native": null,
    "timezone": null,
    "translations": {}
  },
  {
    "id": 79979,
    "name": "Bajo Boquete",
    "state_id": 1397,
    "state_code": "4",
    "country_id": 170,
    "country_code": "PA",
    "latitude": "8.77058000",
    "longitude": "-82.43306000",
    "native": null,
    "timezone": null,
    "translations": {}
  },
  {
    "id": 79985,
    "name": "Barrio Guadalupe",
    "state_id": 1397,
    "state_code": "4",
    "country_id": 170,
    "country_code": "PA",
    "latitude": "8.86482000",
    "longitude": "-82.56523000",
    "native": null,
    "timezone": null,
    "translations": {}
  },
  {
    "id": 79992,
    "name": "Bijagual",
    "state_id": 1397,
    "state_code": "4",
    "country_id": 170,
    "country_code": "PA",
    "latitude": "8.51486000",
    "longitude": "-82.33361000",
    "native": null,
    "timezone": null,
    "translations": {}
  },
  {
    "id": 79995,
    "name": "Boca Chica",
    "state_id": 1397,
    "state_code": "4",
    "country_id": 170,
    "country_code": "PA",
    "latitude": "8.21911000",
    "longitude": "-82.21592000",
    "native": null,
    "timezone": null,
    "translations": {}
  },
  {
    "id": 79999,
    "name": "Boca del Monte",
    "state_id": 1397,
    "state_code": "4",
    "country_id": 170,
    "country_code": "PA",
    "latitude": "8.35296000",
    "longitude": "-82.11379000",
    "native": null,
    "timezone": null,
    "translations": {}
  },
  {
    "id": 80002,
    "name": "Boquerón",
    "state_id": 1397,
    "state_code": "4",
    "country_id": 170,
    "country_code": "PA",
    "latitude": "8.50510000",
    "longitude": "-82.57025000",
    "native": null,
    "timezone": null,
    "translations": {}
  },
  {
    "id": 80003,
    "name": "Boquete",
    "state_id": 1397,
    "state_code": "4",
    "country_id": 170,
    "country_code": "PA",
    "latitude": "8.78024000",
    "longitude": "-82.44136000",
    "native": null,
    "timezone": null,
    "translations": {}
  },
  {
    "id": 80005,
    "name": "Breñón",
    "state_id": 1397,
    "state_code": "4",
    "country_id": 170,
    "country_code": "PA",
    "latitude": "8.62491000",
    "longitude": "-82.81277000",
    "native": null,
    "timezone": null,
    "translations": {}
  },
  {
    "id": 80010,
    "name": "Bugaba",
    "state_id": 1397,
    "state_code": "4",
    "country_id": 170,
    "country_code": "PA",
    "latitude": "8.48255000",
    "longitude": "-82.61991000",
    "native": null,
    "timezone": null,
    "translations": {}
  },
  {
    "id": 80011,
    "name": "Bugabita Arriba",
    "state_id": 1397,
    "state_code": "4",
    "country_id": 170,
    "country_code": "PA",
    "latitude": "8.52143000",
    "longitude": "-82.63638000",
    "native": null,
    "timezone": null,
    "translations": {}
  },
  {
    "id": 80021,
    "name": "Caimito",
    "state_id": 1397,
    "state_code": "4",
    "country_id": 170,
    "country_code": "PA",
    "latitude": "8.54162000",
    "longitude": "-82.41900000",
    "native": null,
    "timezone": null,
    "translations": {}
  },
  {
    "id": 80023,
    "name": "Caldera",
    "state_id": 1397,
    "state_code": "4",
    "country_id": 170,
    "country_code": "PA",
    "latitude": "8.64907000",
    "longitude": "-82.38058000",
    "native": null,
    "timezone": null,
    "translations": {}
  },
  {
    "id": 80038,
    "name": "Cañas Gordas",
    "state_id": 1397,
    "state_code": "4",
    "country_id": 170,
    "country_code": "PA",
    "latitude": "8.74309000",
    "longitude": "-82.91275000",
    "native": null,
    "timezone": null,
    "translations": {}
  },
  {
    "id": 80043,
    "name": "Celmira",
    "state_id": 1397,
    "state_code": "4",
    "country_id": 170,
    "country_code": "PA",
    "latitude": "8.54026000",
    "longitude": "-82.80022000",
    "native": null,
    "timezone": null,
    "translations": {}
  },
  {
    "id": 80051,
    "name": "Cerro Punta",
    "state_id": 1397,
    "state_code": "4",
    "country_id": 170,
    "country_code": "PA",
    "latitude": "8.84968000",
    "longitude": "-82.57261000",
    "native": null,
    "timezone": null,
    "translations": {}
  },
  {
    "id": 80052,
    "name": "Cerro Viejo",
    "state_id": 1397,
    "state_code": "4",
    "country_id": 170,
    "country_code": "PA",
    "latitude": "8.25349000",
    "longitude": "-81.57658000",
    "native": null,
    "timezone": null,
    "translations": {}
  },
  {
    "id": 80062,
    "name": "Chiriquí",
    "state_id": 1397,
    "state_code": "4",
    "country_id": 170,
    "country_code": "PA",
    "latitude": "8.39291000",
    "longitude": "-82.31993000",
    "native": null,
    "timezone": null,
    "translations": {}
  },
  {
    "id": 80070,
    "name": "Cochea Abajo",
    "state_id": 1397,
    "state_code": "4",
    "country_id": 170,
    "country_code": "PA",
    "latitude": "8.50512000",
    "longitude": "-82.35878000",
    "native": null,
    "timezone": null,
    "translations": {}
  },
  {
    "id": 80075,
    "name": "Cordillera",
    "state_id": 1397,
    "state_code": "4",
    "country_id": 170,
    "country_code": "PA",
    "latitude": "8.70683000",
    "longitude": "-82.60327000",
    "native": null,
    "timezone": null,
    "translations": {}
  },
  {
    "id": 80082,
    "name": "David",
    "state_id": 1397,
    "state_code": "4",
    "country_id": 170,
    "country_code": "PA",
    "latitude": "8.42729000",
    "longitude": "-82.43085000",
    "native": null,
    "timezone": null,
    "translations": {}
  },
  {
    "id": 80087,
    "name": "Distrito de Alanje",
    "state_id": 1397,
    "state_code": "4",
    "country_id": 170,
    "country_code": "PA",
    "latitude": "8.39842000",
    "longitude": "-82.64065000",
    "native": null,
    "timezone": null,
    "translations": {}
  },
  {
    "id": 80091,
    "name": "Distrito de Barú",
    "state_id": 1397,
    "state_code": "4",
    "country_id": 170,
    "country_code": "PA",
    "latitude": "8.29482000",
    "longitude": "-82.92726000",
    "native": null,
    "timezone": null,
    "translations": {}
  },
  {
    "id": 80093,
    "name": "Distrito de Boquerón",
    "state_id": 1397,
    "state_code": "4",
    "country_id": 170,
    "country_code": "PA",
    "latitude": "8.61667000",
    "longitude": "-82.56667000",
    "native": null,
    "timezone": null,
    "translations": {}
  },
  {
    "id": 80094,
    "name": "Distrito de Boquete",
    "state_id": 1397,
    "state_code": "4",
    "country_id": 170,
    "country_code": "PA",
    "latitude": "8.74896000",
    "longitude": "-82.36842000",
    "native": null,
    "timezone": null,
    "translations": {}
  },
  {
    "id": 80095,
    "name": "Distrito de Bugaba",
    "state_id": 1397,
    "state_code": "4",
    "country_id": 170,
    "country_code": "PA",
    "latitude": "8.68786000",
    "longitude": "-82.67937000",
    "native": null,
    "timezone": null,
    "translations": {}
  },
  {
    "id": 80107,
    "name": "Distrito de David",
    "state_id": 1397,
    "state_code": "4",
    "country_id": 170,
    "country_code": "PA",
    "latitude": "8.40000000",
    "longitude": "-82.40000000",
    "native": null,
    "timezone": null,
    "translations": {}
  },
  {
    "id": 80108,
    "name": "Distrito de Dolega",
    "state_id": 1397,
    "state_code": "4",
    "country_id": 170,
    "country_code": "PA",
    "latitude": "8.61667000",
    "longitude": "-82.45000000",
    "native": null,
    "timezone": null,
    "translations": {}
  },
  {
    "id": 80110,
    "name": "Distrito de Gualaca",
    "state_id": 1397,
    "state_code": "4",
    "country_id": 170,
    "country_code": "PA",
    "latitude": "8.57398000",
    "longitude": "-82.22207000",
    "native": null,
    "timezone": null,
    "translations": {}
  },
  {
    "id": 80132,
    "name": "Distrito de Remedios",
    "state_id": 1397,
    "state_code": "4",
    "country_id": 170,
    "country_code": "PA",
    "latitude": "8.20253000",
    "longitude": "-81.81163000",
    "native": null,
    "timezone": null,
    "translations": {}
  },
  {
    "id": 80133,
    "name": "Distrito de Renacimiento",
    "state_id": 1397,
    "state_code": "4",
    "country_id": 170,
    "country_code": "PA",
    "latitude": "8.71667000",
    "longitude": "-82.76667000",
    "native": null,
    "timezone": null,
    "translations": {}
  },
  {
    "id": 80137,
    "name": "Distrito de San Félix",
    "state_id": 1397,
    "state_code": "4",
    "country_id": 170,
    "country_code": "PA",
    "latitude": "8.27768000",
    "longitude": "-81.87377000",
    "native": null,
    "timezone": null,
    "translations": {}
  },
  {
    "id": 80138,
    "name": "Distrito de San Lorenzo",
    "state_id": 1397,
    "state_code": "4",
    "country_id": 170,
    "country_code": "PA",
    "latitude": "8.29366000",
    "longitude": "-82.08922000",
    "native": null,
    "timezone": null,
    "translations": {}
  },
  {
    "id": 80145,
    "name": "Distrito de Tolé",
    "state_id": 1397,
    "state_code": "4",
    "country_id": 170,
    "country_code": "PA",
    "latitude": "8.19015000",
    "longitude": "-81.66007000",
    "native": null,
    "timezone": null,
    "translations": {}
  },
  {
    "id": 80147,
    "name": "Divalá",
    "state_id": 1397,
    "state_code": "4",
    "country_id": 170,
    "country_code": "PA",
    "latitude": "8.41066000",
    "longitude": "-82.71332000",
    "native": null,
    "timezone": null,
    "translations": {}
  },
  {
    "id": 80148,
    "name": "Dolega District",
    "state_id": 1397,
    "state_code": "4",
    "country_id": 170,
    "country_code": "PA",
    "latitude": "8.56667000",
    "longitude": "-82.41407000",
    "native": null,
    "timezone": null,
    "translations": {}
  },
  {
    "id": 80185,
    "name": "El Nancito",
    "state_id": 1397,
    "state_code": "4",
    "country_id": 170,
    "country_code": "PA",
    "latitude": "8.23811000",
    "longitude": "-81.73218000",
    "native": null,
    "timezone": null,
    "translations": {}
  },
  {
    "id": 80186,
    "name": "El Palmar",
    "state_id": 1397,
    "state_code": "4",
    "country_id": 170,
    "country_code": "PA",
    "latitude": "8.30098000",
    "longitude": "-82.85344000",
    "native": null,
    "timezone": null,
    "translations": {}
  },
  {
    "id": 80193,
    "name": "El Porvenir",
    "state_id": 1397,
    "state_code": "4",
    "country_id": 170,
    "country_code": "PA",
    "latitude": "8.22919000",
    "longitude": "-81.83278000",
    "native": null,
    "timezone": null,
    "translations": {}
  },
  {
    "id": 80203,
    "name": "El Tejar",
    "state_id": 1397,
    "state_code": "4",
    "country_id": 170,
    "country_code": "PA",
    "latitude": "8.42973000",
    "longitude": "-82.57294000",
    "native": null,
    "timezone": null,
    "translations": {}
  },
  {
    "id": 80210,
    "name": "Finca Blanco",
    "state_id": 1397,
    "state_code": "4",
    "country_id": 170,
    "country_code": "PA",
    "latitude": "8.37979000",
    "longitude": "-82.87385000",
    "native": null,
    "timezone": null,
    "translations": {}
  },
  {
    "id": 80229,
    "name": "Gómez",
    "state_id": 1397,
    "state_code": "4",
    "country_id": 170,
    "country_code": "PA",
    "latitude": "8.56085000",
    "longitude": "-82.74142000",
    "native": null,
    "timezone": null,
    "translations": {}
  },
  {
    "id": 80216,
    "name": "Guabal",
    "state_id": 1397,
    "state_code": "4",
    "country_id": 170,
    "country_code": "PA",
    "latitude": "8.57466000",
    "longitude": "-82.53730000",
    "native": null,
    "timezone": null,
    "translations": {}
  },
  {
    "id": 80218,
    "name": "Guaca Arriba",
    "state_id": 1397,
    "state_code": "4",
    "country_id": 170,
    "country_code": "PA",
    "latitude": "8.53733000",
    "longitude": "-82.49281000",
    "native": null,
    "timezone": null,
    "translations": {}
  },
  {
    "id": 80220,
    "name": "Gualaca",
    "state_id": 1397,
    "state_code": "4",
    "country_id": 170,
    "country_code": "PA",
    "latitude": "8.53006000",
    "longitude": "-82.29959000",
    "native": null,
    "timezone": null,
    "translations": {}
  },
  {
    "id": 80223,
    "name": "Guarumal",
    "state_id": 1397,
    "state_code": "4",
    "country_id": 170,
    "country_code": "PA",
    "latitude": "8.34523000",
    "longitude": "-82.53205000",
    "native": null,
    "timezone": null,
    "translations": {}
  },
  {
    "id": 80225,
    "name": "Guayabal",
    "state_id": 1397,
    "state_code": "4",
    "country_id": 170,
    "country_code": "PA",
    "latitude": "8.62193000",
    "longitude": "-82.57935000",
    "native": null,
    "timezone": null,
    "translations": {}
  },
  {
    "id": 80233,
    "name": "Horconcitos",
    "state_id": 1397,
    "state_code": "4",
    "country_id": 170,
    "country_code": "PA",
    "latitude": "8.31142000",
    "longitude": "-82.15102000",
    "native": null,
    "timezone": null,
    "translations": {}
  },
  {
    "id": 80247,
    "name": "La Concepción",
    "state_id": 1397,
    "state_code": "4",
    "country_id": 170,
    "country_code": "PA",
    "latitude": "8.51212000",
    "longitude": "-82.61858000",
    "native": null,
    "timezone": null,
    "translations": {}
  },
  {
    "id": 80252,
    "name": "La Esperanza",
    "state_id": 1397,
    "state_code": "4",
    "country_id": 170,
    "country_code": "PA",
    "latitude": "8.40344000",
    "longitude": "-82.79197000",
    "native": null,
    "timezone": null,
    "translations": {}
  },
  {
    "id": 80254,
    "name": "La Estrella",
    "state_id": 1397,
    "state_code": "4",
    "country_id": 170,
    "country_code": "PA",
    "latitude": "8.51572000",
    "longitude": "-82.67212000",
    "native": null,
    "timezone": null,
    "translations": {}
  },
  {
    "id": 80283,
    "name": "Lajas Adentro",
    "state_id": 1397,
    "state_code": "4",
    "country_id": 170,
    "country_code": "PA",
    "latitude": "8.24981000",
    "longitude": "-81.87779000",
    "native": null,
    "timezone": null,
    "translations": {}
  },
  {
    "id": 80284,
    "name": "Lajas de Tolé",
    "state_id": 1397,
    "state_code": "4",
    "country_id": 170,
    "country_code": "PA",
    "latitude": "8.16994000",
    "longitude": "-81.69654000",
    "native": null,
    "timezone": null,
    "translations": {}
  },
  {
    "id": 80295,
    "name": "Las Lajas",
    "state_id": 1397,
    "state_code": "4",
    "country_id": 170,
    "country_code": "PA",
    "latitude": "8.24184000",
    "longitude": "-81.86931000",
    "native": null,
    "timezone": null,
    "translations": {}
  },
  {
    "id": 80296,
    "name": "Las Lomas",
    "state_id": 1397,
    "state_code": "4",
    "country_id": 170,
    "country_code": "PA",
    "latitude": "8.42927000",
    "longitude": "-82.38743000",
    "native": null,
    "timezone": null,
    "translations": {}
  },
  {
    "id": 80311,
    "name": "Limones",
    "state_id": 1397,
    "state_code": "4",
    "country_id": 170,
    "country_code": "PA",
    "latitude": "8.10007000",
    "longitude": "-82.86679000",
    "native": null,
    "timezone": null,
    "translations": {}
  },
  {
    "id": 80326,
    "name": "Los Algarrobos",
    "state_id": 1397,
    "state_code": "4",
    "country_id": 170,
    "country_code": "PA",
    "latitude": "8.49601000",
    "longitude": "-82.42417000",
    "native": null,
    "timezone": null,
    "translations": {}
  },
  {
    "id": 80328,
    "name": "Los Anastacios",
    "state_id": 1397,
    "state_code": "4",
    "country_id": 170,
    "country_code": "PA",
    "latitude": "8.53027000",
    "longitude": "-82.42295000",
    "native": null,
    "timezone": null,
    "translations": {}
  },
  {
    "id": 80344,
    "name": "Los Ángeles",
    "state_id": 1397,
    "state_code": "4",
    "country_id": 170,
    "country_code": "PA",
    "latitude": "8.52271000",
    "longitude": "-82.19997000",
    "native": null,
    "timezone": null,
    "translations": {}
  },
  {
    "id": 80338,
    "name": "Los Naranjos",
    "state_id": 1397,
    "state_code": "4",
    "country_id": 170,
    "country_code": "PA",
    "latitude": "8.79210000",
    "longitude": "-82.44665000",
    "native": null,
    "timezone": null,
    "translations": {}
  },
  {
    "id": 80347,
    "name": "Manaca Civil",
    "state_id": 1397,
    "state_code": "4",
    "country_id": 170,
    "country_code": "PA",
    "latitude": "8.32458000",
    "longitude": "-82.81570000",
    "native": null,
    "timezone": null,
    "translations": {}
  },
  {
    "id": 80348,
    "name": "Manaca Norte",
    "state_id": 1397,
    "state_code": "4",
    "country_id": 170,
    "country_code": "PA",
    "latitude": "8.33419000",
    "longitude": "-82.81003000",
    "native": null,
    "timezone": null,
    "translations": {}
  },
  {
    "id": 80351,
    "name": "Mata del Nance",
    "state_id": 1397,
    "state_code": "4",
    "country_id": 170,
    "country_code": "PA",
    "latitude": "8.45056000",
    "longitude": "-82.40057000",
    "native": null,
    "timezone": null,
    "translations": {}
  },
  {
    "id": 80360,
    "name": "Monte Lirio",
    "state_id": 1397,
    "state_code": "4",
    "country_id": 170,
    "country_code": "PA",
    "latitude": "8.78935000",
    "longitude": "-82.82865000",
    "native": null,
    "timezone": null,
    "translations": {}
  },
  {
    "id": 80378,
    "name": "Nuevo San Carlitos",
    "state_id": 1397,
    "state_code": "4",
    "country_id": 170,
    "country_code": "PA",
    "latitude": "8.45698000",
    "longitude": "-82.43712000",
    "native": null,
    "timezone": null,
    "translations": {}
  },
  {
    "id": 80387,
    "name": "Paja de Sombrero",
    "state_id": 1397,
    "state_code": "4",
    "country_id": 170,
    "country_code": "PA",
    "latitude": "8.68335000",
    "longitude": "-82.31911000",
    "native": null,
    "timezone": null,
    "translations": {}
  },
  {
    "id": 80392,
    "name": "Palmira",
    "state_id": 1397,
    "state_code": "4",
    "country_id": 170,
    "country_code": "PA",
    "latitude": "8.73401000",
    "longitude": "-82.45887000",
    "native": null,
    "timezone": null,
    "translations": {}
  },
  {
    "id": 80393,
    "name": "Palmira Centro",
    "state_id": 1397,
    "state_code": "4",
    "country_id": 170,
    "country_code": "PA",
    "latitude": "8.73956000",
    "longitude": "-82.45228000",
    "native": null,
    "timezone": null,
    "translations": {}
  },
  {
    "id": 80395,
    "name": "Paraíso",
    "state_id": 1397,
    "state_code": "4",
    "country_id": 170,
    "country_code": "PA",
    "latitude": "8.65842000",
    "longitude": "-82.58625000",
    "native": null,
    "timezone": null,
    "translations": {}
  },
  {
    "id": 80402,
    "name": "Paso Canoas Arriba",
    "state_id": 1397,
    "state_code": "4",
    "country_id": 170,
    "country_code": "PA",
    "latitude": "8.56516000",
    "longitude": "-82.82214000",
    "native": null,
    "timezone": null,
    "translations": {}
  },
  {
    "id": 80405,
    "name": "Pedregal",
    "state_id": 1397,
    "state_code": "4",
    "country_id": 170,
    "country_code": "PA",
    "latitude": "8.36586000",
    "longitude": "-82.43524000",
    "native": null,
    "timezone": null,
    "translations": {}
  },
  {
    "id": 80418,
    "name": "Plaza de Caisán",
    "state_id": 1397,
    "state_code": "4",
    "country_id": 170,
    "country_code": "PA",
    "latitude": "8.73672000",
    "longitude": "-82.81968000",
    "native": null,
    "timezone": null,
    "translations": {}
  },
  {
    "id": 80424,
    "name": "Potrerillos Abajo",
    "state_id": 1397,
    "state_code": "4",
    "country_id": 170,
    "country_code": "PA",
    "latitude": "8.63978000",
    "longitude": "-82.48560000",
    "native": null,
    "timezone": null,
    "translations": {}
  },
  {
    "id": 80425,
    "name": "Potrerillos Arriba",
    "state_id": 1397,
    "state_code": "4",
    "country_id": 170,
    "country_code": "PA",
    "latitude": "8.68547000",
    "longitude": "-82.49090000",
    "native": null,
    "timezone": null,
    "translations": {}
  },
  {
    "id": 80428,
    "name": "Progreso",
    "state_id": 1397,
    "state_code": "4",
    "country_id": 170,
    "country_code": "PA",
    "latitude": "8.44669000",
    "longitude": "-82.83859000",
    "native": null,
    "timezone": null,
    "translations": {}
  },
  {
    "id": 80430,
    "name": "Pueblo Viejo",
    "state_id": 1397,
    "state_code": "4",
    "country_id": 170,
    "country_code": "PA",
    "latitude": "8.25081000",
    "longitude": "-81.66259000",
    "native": null,
    "timezone": null,
    "translations": {}
  },
  {
    "id": 80431,
    "name": "Puerto Armuelles",
    "state_id": 1397,
    "state_code": "4",
    "country_id": 170,
    "country_code": "PA",
    "latitude": "8.27775000",
    "longitude": "-82.86206000",
    "native": null,
    "timezone": null,
    "translations": {}
  },
  {
    "id": 80440,
    "name": "Punta de Burica",
    "state_id": 1397,
    "state_code": "4",
    "country_id": 170,
    "country_code": "PA",
    "latitude": "8.03333000",
    "longitude": "-82.86667000",
    "native": null,
    "timezone": null,
    "translations": {}
  },
  {
    "id": 80447,
    "name": "Quebrada de Piedra",
    "state_id": 1397,
    "state_code": "4",
    "country_id": 170,
    "country_code": "PA",
    "latitude": "8.09418000",
    "longitude": "-81.67915000",
    "native": null,
    "timezone": null,
    "translations": {}
  },
  {
    "id": 80449,
    "name": "Querévalo",
    "state_id": 1397,
    "state_code": "4",
    "country_id": 170,
    "country_code": "PA",
    "latitude": "8.37174000",
    "longitude": "-82.52670000",
    "native": null,
    "timezone": null,
    "translations": {}
  },
  {
    "id": 80450,
    "name": "Quinteño",
    "state_id": 1397,
    "state_code": "4",
    "country_id": 170,
    "country_code": "PA",
    "latitude": "8.47102000",
    "longitude": "-82.39352000",
    "native": null,
    "timezone": null,
    "translations": {}
  },
  {
    "id": 80451,
    "name": "Remedios",
    "state_id": 1397,
    "state_code": "4",
    "country_id": 170,
    "country_code": "PA",
    "latitude": "8.22436000",
    "longitude": "-81.82747000",
    "native": null,
    "timezone": null,
    "translations": {}
  },
  {
    "id": 80452,
    "name": "Rincón",
    "state_id": 1397,
    "state_code": "4",
    "country_id": 170,
    "country_code": "PA",
    "latitude": "8.46374000",
    "longitude": "-82.27951000",
    "native": null,
    "timezone": null,
    "translations": {}
  },
  {
    "id": 80465,
    "name": "Río Sereno",
    "state_id": 1397,
    "state_code": "4",
    "country_id": 170,
    "country_code": "PA",
    "latitude": "8.81741000",
    "longitude": "-82.85731000",
    "native": null,
    "timezone": null,
    "translations": {}
  },
  {
    "id": 80455,
    "name": "Rovira Arriba",
    "state_id": 1397,
    "state_code": "4",
    "country_id": 170,
    "country_code": "PA",
    "latitude": "8.63822000",
    "longitude": "-82.49965000",
    "native": null,
    "timezone": null,
    "translations": {}
  },
  {
    "id": 80471,
    "name": "San Andrés",
    "state_id": 1397,
    "state_code": "4",
    "country_id": 170,
    "country_code": "PA",
    "latitude": "8.60260000",
    "longitude": "-82.72588000",
    "native": null,
    "timezone": null,
    "translations": {}
  },
  {
    "id": 80474,
    "name": "San Carlos",
    "state_id": 1397,
    "state_code": "4",
    "country_id": 170,
    "country_code": "PA",
    "latitude": "8.51663000",
    "longitude": "-82.50906000",
    "native": null,
    "timezone": null,
    "translations": {}
  },
  {
    "id": 80478,
    "name": "San Félix",
    "state_id": 1397,
    "state_code": "4",
    "country_id": 170,
    "country_code": "PA",
    "latitude": "8.29063000",
    "longitude": "-81.86702000",
    "native": null,
    "timezone": null,
    "translations": {}
  },
  {
    "id": 80480,
    "name": "San Isidro",
    "state_id": 1397,
    "state_code": "4",
    "country_id": 170,
    "country_code": "PA",
    "latitude": "8.53032000",
    "longitude": "-82.82720000",
    "native": null,
    "timezone": null,
    "translations": {}
  },
  {
    "id": 80487,
    "name": "San Lorenzo",
    "state_id": 1397,
    "state_code": "4",
    "country_id": 170,
    "country_code": "PA",
    "latitude": "8.30561000",
    "longitude": "-82.10114000",
    "native": null,
    "timezone": null,
    "translations": {}
  },
  {
    "id": 80491,
    "name": "San Pablo Nuevo Abajo",
    "state_id": 1397,
    "state_code": "4",
    "country_id": 170,
    "country_code": "PA",
    "latitude": "8.42558000",
    "longitude": "-82.50173000",
    "native": null,
    "timezone": null,
    "translations": {}
  },
  {
    "id": 80492,
    "name": "San Pablo Viejo Abajo",
    "state_id": 1397,
    "state_code": "4",
    "country_id": 170,
    "country_code": "PA",
    "latitude": "8.45339000",
    "longitude": "-82.50179000",
    "native": null,
    "timezone": null,
    "translations": {}
  },
  {
    "id": 80497,
    "name": "Santa Clara",
    "state_id": 1397,
    "state_code": "4",
    "country_id": 170,
    "country_code": "PA",
    "latitude": "8.83376000",
    "longitude": "-82.77945000",
    "native": null,
    "timezone": null,
    "translations": {}
  },
  {
    "id": 80499,
    "name": "Santa Cruz",
    "state_id": 1397,
    "state_code": "4",
    "country_id": 170,
    "country_code": "PA",
    "latitude": "8.23219000",
    "longitude": "-81.91323000",
    "native": null,
    "timezone": null,
    "translations": {}
  },
  {
    "id": 80503,
    "name": "Santa Marta",
    "state_id": 1397,
    "state_code": "4",
    "country_id": 170,
    "country_code": "PA",
    "latitude": "8.51406000",
    "longitude": "-82.69870000",
    "native": null,
    "timezone": null,
    "translations": {}
  },
  {
    "id": 80507,
    "name": "Santa Rosa",
    "state_id": 1397,
    "state_code": "4",
    "country_id": 170,
    "country_code": "PA",
    "latitude": "8.59958000",
    "longitude": "-82.68489000",
    "native": null,
    "timezone": null,
    "translations": {}
  },
  {
    "id": 80510,
    "name": "Santo Domingo",
    "state_id": 1397,
    "state_code": "4",
    "country_id": 170,
    "country_code": "PA",
    "latitude": "8.50803000",
    "longitude": "-82.71295000",
    "native": null,
    "timezone": null,
    "translations": {}
  },
  {
    "id": 80511,
    "name": "Santo Tomás",
    "state_id": 1397,
    "state_code": "4",
    "country_id": 170,
    "country_code": "PA",
    "latitude": "8.38959000",
    "longitude": "-82.65058000",
    "native": null,
    "timezone": null,
    "translations": {}
  },
  {
    "id": 80513,
    "name": "Sioguí Abajo",
    "state_id": 1397,
    "state_code": "4",
    "country_id": 170,
    "country_code": "PA",
    "latitude": "8.48678000",
    "longitude": "-82.66539000",
    "native": null,
    "timezone": null,
    "translations": {}
  },
  {
    "id": 80514,
    "name": "Sioguí Arriba",
    "state_id": 1397,
    "state_code": "4",
    "country_id": 170,
    "country_code": "PA",
    "latitude": "8.53865000",
    "longitude": "-82.68619000",
    "native": null,
    "timezone": null,
    "translations": {}
  },
  {
    "id": 80517,
    "name": "Sortova",
    "state_id": 1397,
    "state_code": "4",
    "country_id": 170,
    "country_code": "PA",
    "latitude": "8.54642000",
    "longitude": "-82.65170000",
    "native": null,
    "timezone": null,
    "translations": {}
  },
  {
    "id": 80520,
    "name": "Tijeras",
    "state_id": 1397,
    "state_code": "4",
    "country_id": 170,
    "country_code": "PA",
    "latitude": "8.47514000",
    "longitude": "-82.56058000",
    "native": null,
    "timezone": null,
    "translations": {}
  },
  {
    "id": 80521,
    "name": "Tinajas",
    "state_id": 1397,
    "state_code": "4",
    "country_id": 170,
    "country_code": "PA",
    "latitude": "8.55281000",
    "longitude": "-82.45963000",
    "native": null,
    "timezone": null,
    "translations": {}
  },
  {
    "id": 80525,
    "name": "Tolé",
    "state_id": 1397,
    "state_code": "4",
    "country_id": 170,
    "country_code": "PA",
    "latitude": "8.23989000",
    "longitude": "-81.67168000",
    "native": null,
    "timezone": null,
    "translations": {}
  },
  {
    "id": 80539,
    "name": "Veladero",
    "state_id": 1397,
    "state_code": "4",
    "country_id": 170,
    "country_code": "PA",
    "latitude": "8.23136000",
    "longitude": "-81.65417000",
    "native": null,
    "timezone": null,
    "translations": {}
  },
  {
    "id": 80550,
    "name": "Volcán",
    "state_id": 1397,
    "state_code": "4",
    "country_id": 170,
    "country_code": "PA",
    "latitude": "8.77291000",
    "longitude": "-82.63823000",
    "native": null,
    "timezone": null,
    "translations": {}
  }
]