[
  {
    "id": 151732,
    "name": "Abella de la Conca",
    "state_id": 5104,
    "state_code": "L",
    "country_id": 207,
    "country_code": "ES",
    "latitude": "42.16150740",
    "longitude": "1.09199750",
    "native": null,
    "timezone": null,
    "translations": {}
  },
  {
    "id": 38571,
    "name": "Àger",
    "state_id": 5104,
    "state_code": "L",
    "country_id": 207,
    "country_code": "ES",
    "latitude": "42.00000000",
    "longitude": "0.76667000",
    "native": null,
    "timezone": null,
    "translations": {}
  },
  {
    "id": 31948,
    "name": "Agramunt",
    "state_id": 5104,
    "state_code": "L",
    "country_id": 207,
    "country_code": "ES",
    "latitude": "41.78686000",
    "longitude": "1.09683000",
    "native": null,
    "timezone": null,
    "translations": {}
  },
  {
    "id": 31983,
    "name": "Aitona",
    "state_id": 5104,
    "state_code": "L",
    "country_id": 207,
    "country_code": "ES",
    "latitude": "41.48333000",
    "longitude": "0.46667000",
    "native": null,
    "timezone": null,
    "translations": {}
  },
  {
    "id": 151733,
    "name": "Alamús Els",
    "state_id": 5104,
    "state_code": "L",
    "country_id": 207,
    "country_code": "ES",
    "latitude": "41.61502420",
    "longitude": "0.74021230",
    "native": null,
    "timezone": null,
    "translations": {}
  },
  {
    "id": 32345,
    "name": "Alàs i Cerc",
    "state_id": 5104,
    "state_code": "L",
    "country_id": 207,
    "country_code": "ES",
    "latitude": "42.35000000",
    "longitude": "1.51667000",
    "native": null,
    "timezone": null,
    "translations": {}
  },
  {
    "id": 151734,
    "name": "Albagés L",
    "state_id": 5104,
    "state_code": "L",
    "country_id": 207,
    "country_code": "ES",
    "latitude": "41.44700740",
    "longitude": "0.74080630",
    "native": null,
    "timezone": null,
    "translations": {}
  },
  {
    "id": 151735,
    "name": "Albatàrrec",
    "state_id": 5104,
    "state_code": "L",
    "country_id": 207,
    "country_code": "ES",
    "latitude": "41.57337630",
    "longitude": "0.60739100",
    "native": null,
    "timezone": null,
    "translations": {}
  },
  {
    "id": 32043,
    "name": "Albesa",
    "state_id": 5104,
    "state_code": "L",
    "country_id": 207,
    "country_code": "ES",
    "latitude": "41.75282000",
    "longitude": "0.65936000",
    "native": null,
    "timezone": null,
    "translations": {}
  },
  {
    "id": 151736,
    "name": "Albi L",
    "state_id": 5104,
    "state_code": "L",
    "country_id": 207,
    "country_code": "ES",
    "latitude": "41.42306580",
    "longitude": "0.93608770",
    "native": null,
    "timezone": null,
    "translations": {}
  },
  {
    "id": 32086,
    "name": "Alcanó",
    "state_id": 5104,
    "state_code": "L",
    "country_id": 207,
    "country_code": "ES",
    "latitude": "41.48064000",
    "longitude": "0.61659000",
    "native": null,
    "timezone": null,
    "translations": {}
  },
  {
    "id": 32089,
    "name": "Alcarràs",
    "state_id": 5104,
    "state_code": "L",
    "country_id": 207,
    "country_code": "ES",
    "latitude": "41.56667000",
    "longitude": "0.51667000",
    "native": null,
    "timezone": null,
    "translations": {}
  },
  {
    "id": 32110,
    "name": "Alcoletge",
    "state_id": 5104,
    "state_code": "L",
    "country_id": 207,
    "country_code": "ES",
    "latitude": "41.64762000",
    "longitude": "0.69383000",
    "native": null,
    "timezone": null,
    "translations": {}
  },
  {
    "id": 32201,
    "name": "Alfarràs",
    "state_id": 5104,
    "state_code": "L",
    "country_id": 207,
    "country_code": "ES",
    "latitude": "41.81667000",
    "longitude": "0.58333000",
    "native": null,
    "timezone": null,
    "translations": {}
  },
  {
    "id": 32207,
    "name": "Alfés",
    "state_id": 5104,
    "state_code": "L",
    "country_id": 207,
    "country_code": "ES",
    "latitude": "41.52143000",
    "longitude": "0.62050000",
    "native": null,
    "timezone": null,
    "translations": {}
  },
  {
    "id": 32218,
    "name": "Algerri",
    "state_id": 5104,
    "state_code": "L",
    "country_id": 207,
    "country_code": "ES",
    "latitude": "41.81482000",
    "longitude": "0.63633000",
    "native": null,
    "timezone": null,
    "translations": {}
  },
  {
    "id": 32228,
    "name": "Alguaire",
    "state_id": 5104,
    "state_code": "L",
    "country_id": 207,
    "country_code": "ES",
    "latitude": "41.73703000",
    "longitude": "0.58450000",
    "native": null,
    "timezone": null,
    "translations": {}
  },
  {
    "id": 151737,
    "name": "Alins",
    "state_id": 5104,
    "state_code": "L",
    "country_id": 207,
    "country_code": "ES",
    "latitude": "42.54861990",
    "longitude": "1.31770310",
    "native": null,
    "timezone": null,
    "translations": {}
  },
  {
    "id": 32259,
    "name": "Almacelles",
    "state_id": 5104,
    "state_code": "L",
    "country_id": 207,
    "country_code": "ES",
    "latitude": "41.73216000",
    "longitude": "0.43722000",
    "native": null,
    "timezone": null,
    "translations": {}
  },
  {
    "id": 151738,
    "name": "Almatret",
    "state_id": 5104,
    "state_code": "L",
    "country_id": 207,
    "country_code": "ES",
    "latitude": "41.30579990",
    "longitude": "0.42371210",
    "native": null,
    "timezone": null,
    "translations": {}
  },
  {
    "id": 32280,
    "name": "Almenar",
    "state_id": 5104,
    "state_code": "L",
    "country_id": 207,
    "country_code": "ES",
    "latitude": "41.79604000",
    "longitude": "0.56834000",
    "native": null,
    "timezone": null,
    "translations": {}
  },
  {
    "id": 151739,
    "name": "Alòs de Balaguer",
    "state_id": 5104,
    "state_code": "L",
    "country_id": 207,
    "country_code": "ES",
    "latitude": "41.91265590",
    "longitude": "0.96006620",
    "native": null,
    "timezone": null,
    "translations": {}
  },
  {
    "id": 32331,
    "name": "Alpicat",
    "state_id": 5104,
    "state_code": "L",
    "country_id": 207,
    "country_code": "ES",
    "latitude": "41.66570000",
    "longitude": "0.55564000",
    "native": null,
    "timezone": null,
    "translations": {}
  },
  {
    "id": 151740,
    "name": "Alt Àneu",
    "state_id": 5104,
    "state_code": "L",
    "country_id": 207,
    "country_code": "ES",
    "latitude": "42.68300310",
    "longitude": "1.07777230",
    "native": null,
    "timezone": null,
    "translations": {}
  },
  {
    "id": 32378,
    "name": "Anglesola",
    "state_id": 5104,
    "state_code": "L",
    "country_id": 207,
    "country_code": "ES",
    "latitude": "41.65649000",
    "longitude": "1.08286000",
    "native": null,
    "timezone": null,
    "translations": {}
  },
  {
    "id": 32422,
    "name": "Arbeca",
    "state_id": 5104,
    "state_code": "L",
    "country_id": 207,
    "country_code": "ES",
    "latitude": "41.54153000",
    "longitude": "0.92457000",
    "native": null,
    "timezone": null,
    "translations": {}
  },
  {
    "id": 151743,
    "name": "Arres",
    "state_id": 5104,
    "state_code": "L",
    "country_id": 207,
    "country_code": "ES",
    "latitude": "42.75915380",
    "longitude": "0.71052670",
    "native": null,
    "timezone": null,
    "translations": {}
  },
  {
    "id": 151744,
    "name": "Arsèguel",
    "state_id": 5104,
    "state_code": "L",
    "country_id": 207,
    "country_code": "ES",
    "latitude": "42.35005370",
    "longitude": "1.58293860",
    "native": null,
    "timezone": null,
    "translations": {}
  },
  {
    "id": 151745,
    "name": "Artesa de Lleida",
    "state_id": 5104,
    "state_code": "L",
    "country_id": 207,
    "country_code": "ES",
    "latitude": "41.55305400",
    "longitude": "0.70337450",
    "native": null,
    "timezone": null,
    "translations": {}
  },
  {
    "id": 32524,
    "name": "Artesa de Segre",
    "state_id": 5104,
    "state_code": "L",
    "country_id": 207,
    "country_code": "ES",
    "latitude": "41.89467000",
    "longitude": "1.04625000",
    "native": null,
    "timezone": null,
    "translations": {}
  },
  {
    "id": 32535,
    "name": "Aspa",
    "state_id": 5104,
    "state_code": "L",
    "country_id": 207,
    "country_code": "ES",
    "latitude": "41.49472000",
    "longitude": "0.67277000",
    "native": null,
    "timezone": null,
    "translations": {}
  },
  {
    "id": 151747,
    "name": "Avellanes i Santa Linya Les",
    "state_id": 5104,
    "state_code": "L",
    "country_id": 207,
    "country_code": "ES",
    "latitude": "41.93664020",
    "longitude": "0.81035700",
    "native": null,
    "timezone": null,
    "translations": {}
  },
  {
    "id": 151748,
    "name": "Baix Pallars",
    "state_id": 5104,
    "state_code": "L",
    "country_id": 207,
    "country_code": "ES",
    "latitude": "42.33010060",
    "longitude": "1.03946350",
    "native": null,
    "timezone": null,
    "translations": {}
  },
  {
    "id": 32619,
    "name": "Balaguer",
    "state_id": 5104,
    "state_code": "L",
    "country_id": 207,
    "country_code": "ES",
    "latitude": "41.79117000",
    "longitude": "0.81094000",
    "native": null,
    "timezone": null,
    "translations": {}
  },
  {
    "id": 151749,
    "name": "Barbens",
    "state_id": 5104,
    "state_code": "L",
    "country_id": 207,
    "country_code": "ES",
    "latitude": "41.67759140",
    "longitude": "1.01608300",
    "native": null,
    "timezone": null,
    "translations": {}
  },
  {
    "id": 151750,
    "name": "Baronia de Rialb La",
    "state_id": 5104,
    "state_code": "L",
    "country_id": 207,
    "country_code": "ES",
    "latitude": "42.01260880",
    "longitude": "1.19291140",
    "native": null,
    "timezone": null,
    "translations": {}
  },
  {
    "id": 151752,
    "name": "Bassella",
    "state_id": 5104,
    "state_code": "L",
    "country_id": 207,
    "country_code": "ES",
    "latitude": "42.01691270",
    "longitude": "1.29587540",
    "native": null,
    "timezone": null,
    "translations": {}
  },
  {
    "id": 151753,
    "name": "Bausen",
    "state_id": 5104,
    "state_code": "L",
    "country_id": 207,
    "country_code": "ES",
    "latitude": "42.83443830",
    "longitude": "0.71675880",
    "native": null,
    "timezone": null,
    "translations": {}
  },
  {
    "id": 151754,
    "name": "Belianes",
    "state_id": 5104,
    "state_code": "L",
    "country_id": 207,
    "country_code": "ES",
    "latitude": "41.56053040",
    "longitude": "1.01434260",
    "native": null,
    "timezone": null,
    "translations": {}
  },
  {
    "id": 151756,
    "name": "Bell-lloc dUrgell",
    "state_id": 5104,
    "state_code": "L",
    "country_id": 207,
    "country_code": "ES",
    "latitude": "41.63034380",
    "longitude": "0.77912830",
    "native": null,
    "timezone": null,
    "translations": {}
  },
  {
    "id": 151828,
    "name": "Bellaguarda",
    "state_id": 5104,
    "state_code": "L",
    "country_id": 207,
    "country_code": "ES",
    "latitude": "41.32875690",
    "longitude": "0.72477300",
    "native": null,
    "timezone": null,
    "translations": {}
  },
  {
    "id": 151755,
    "name": "Bellcaire dUrgell",
    "state_id": 5104,
    "state_code": "L",
    "country_id": 207,
    "country_code": "ES",
    "latitude": "41.75834430",
    "longitude": "0.90446960",
    "native": null,
    "timezone": null,
    "translations": {}
  },
  {
    "id": 151757,
    "name": "Bellmunt dUrgell",
    "state_id": 5104,
    "state_code": "L",
    "country_id": 207,
    "country_code": "ES",
    "latitude": "41.77399420",
    "longitude": "0.95197080",
    "native": null,
    "timezone": null,
    "translations": {}
  },
  {
    "id": 32743,
    "name": "Bellpuig",
    "state_id": 5104,
    "state_code": "L",
    "country_id": 207,
    "country_code": "ES",
    "latitude": "41.62595000",
    "longitude": "1.01144000",
    "native": null,
    "timezone": null,
    "translations": {}
  },
  {
    "id": 32745,
    "name": "Bellver de Cerdanya",
    "state_id": 5104,
    "state_code": "L",
    "country_id": 207,
    "country_code": "ES",
    "latitude": "42.36667000",
    "longitude": "1.78333000",
    "native": null,
    "timezone": null,
    "translations": {}
  },
  {
    "id": 32746,
    "name": "Bellvís",
    "state_id": 5104,
    "state_code": "L",
    "country_id": 207,
    "country_code": "ES",
    "latitude": "41.67269000",
    "longitude": "0.81768000",
    "native": null,
    "timezone": null,
    "translations": {}
  },
  {
    "id": 151758,
    "name": "Benavent de Segrià",
    "state_id": 5104,
    "state_code": "L",
    "country_id": 207,
    "country_code": "ES",
    "latitude": "41.69729800",
    "longitude": "0.63285390",
    "native": null,
    "timezone": null,
    "translations": {}
  },
  {
    "id": 151759,
    "name": "Biosca",
    "state_id": 5104,
    "state_code": "L",
    "country_id": 207,
    "country_code": "ES",
    "latitude": "41.89146980",
    "longitude": "1.38551610",
    "native": null,
    "timezone": null,
    "translations": {}
  },
  {
    "id": 151761,
    "name": "Bòrdes Es",
    "state_id": 5104,
    "state_code": "L",
    "country_id": 207,
    "country_code": "ES",
    "latitude": "42.73869160",
    "longitude": "0.72350770",
    "native": null,
    "timezone": null,
    "translations": {}
  },
  {
    "id": 151762,
    "name": "Borges Blanques Les",
    "state_id": 5104,
    "state_code": "L",
    "country_id": 207,
    "country_code": "ES",
    "latitude": "41.52237050",
    "longitude": "0.87356070",
    "native": null,
    "timezone": null,
    "translations": {}
  },
  {
    "id": 151763,
    "name": "Bossòst",
    "state_id": 5104,
    "state_code": "L",
    "country_id": 207,
    "country_code": "ES",
    "latitude": "42.78550450",
    "longitude": "0.69213250",
    "native": null,
    "timezone": null,
    "translations": {}
  },
  {
    "id": 151760,
    "name": "Bovera",
    "state_id": 5104,
    "state_code": "L",
    "country_id": 207,
    "country_code": "ES",
    "latitude": "41.32613000",
    "longitude": "0.63877780",
    "native": null,
    "timezone": null,
    "translations": {}
  },
  {
    "id": 151764,
    "name": "Cabanabona",
    "state_id": 5104,
    "state_code": "L",
    "country_id": 207,
    "country_code": "ES",
    "latitude": "41.85086260",
    "longitude": "1.21663830",
    "native": null,
    "timezone": null,
    "translations": {}
  },
  {
    "id": 151765,
    "name": "Cabó",
    "state_id": 5104,
    "state_code": "L",
    "country_id": 207,
    "country_code": "ES",
    "latitude": "42.23888890",
    "longitude": "1.24714270",
    "native": null,
    "timezone": null,
    "translations": {}
  },
  {
    "id": 33163,
    "name": "Camarasa",
    "state_id": 5104,
    "state_code": "L",
    "country_id": 207,
    "country_code": "ES",
    "latitude": "41.87486000",
    "longitude": "0.87814000",
    "native": null,
    "timezone": null,
    "translations": {}
  },
  {
    "id": 151766,
    "name": "Canejan",
    "state_id": 5104,
    "state_code": "L",
    "country_id": 207,
    "country_code": "ES",
    "latitude": "42.81224280",
    "longitude": "0.80083880",
    "native": null,
    "timezone": null,
    "translations": {}
  },
  {
    "id": 151884,
    "name": "Castell de Mur",
    "state_id": 5104,
    "state_code": "L",
    "country_id": 207,
    "country_code": "ES",
    "latitude": "42.10465660",
    "longitude": "0.85798180",
    "native": null,
    "timezone": null,
    "translations": {}
  },
  {
    "id": 151767,
    "name": "Castellar de la Ribera",
    "state_id": 5104,
    "state_code": "L",
    "country_id": 207,
    "country_code": "ES",
    "latitude": "42.02231250",
    "longitude": "1.41553910",
    "native": null,
    "timezone": null,
    "translations": {}
  },
  {
    "id": 151768,
    "name": "Castelldans",
    "state_id": 5104,
    "state_code": "L",
    "country_id": 207,
    "country_code": "ES",
    "latitude": "41.49748580",
    "longitude": "0.76635380",
    "native": null,
    "timezone": null,
    "translations": {}
  },
  {
    "id": 33429,
    "name": "Castellnou de Seana",
    "state_id": 5104,
    "state_code": "L",
    "country_id": 207,
    "country_code": "ES",
    "latitude": "41.64802000",
    "longitude": "0.97093000",
    "native": null,
    "timezone": null,
    "translations": {}
  },
  {
    "id": 151769,
    "name": "Castelló de Farfanya",
    "state_id": 5104,
    "state_code": "L",
    "country_id": 207,
    "country_code": "ES",
    "latitude": "41.81741630",
    "longitude": "0.72655420",
    "native": null,
    "timezone": null,
    "translations": {}
  },
  {
    "id": 33434,
    "name": "Castellserà",
    "state_id": 5104,
    "state_code": "L",
    "country_id": 207,
    "country_code": "ES",
    "latitude": "41.75000000",
    "longitude": "1.00000000",
    "native": null,
    "timezone": null,
    "translations": {}
  },
  {
    "id": 151770,
    "name": "Cava",
    "state_id": 5104,
    "state_code": "L",
    "country_id": 207,
    "country_code": "ES",
    "latitude": "42.32528710",
    "longitude": "1.60552020",
    "native": null,
    "timezone": null,
    "translations": {}
  },
  {
    "id": 33595,
    "name": "Cervera",
    "state_id": 5104,
    "state_code": "L",
    "country_id": 207,
    "country_code": "ES",
    "latitude": "41.67003000",
    "longitude": "1.27210000",
    "native": null,
    "timezone": null,
    "translations": {}
  },
  {
    "id": 151771,
    "name": "Cervià de les Garrigues",
    "state_id": 5104,
    "state_code": "L",
    "country_id": 207,
    "country_code": "ES",
    "latitude": "41.42740490",
    "longitude": "0.86096020",
    "native": null,
    "timezone": null,
    "translations": {}
  },
  {
    "id": 33700,
    "name": "Ciutadilla",
    "state_id": 5104,
    "state_code": "L",
    "country_id": 207,
    "country_code": "ES",
    "latitude": "41.56113000",
    "longitude": "1.13935000",
    "native": null,
    "timezone": null,
    "translations": {}
  },
  {
    "id": 151772,
    "name": "Clariana de Cardener",
    "state_id": 5104,
    "state_code": "L",
    "country_id": 207,
    "country_code": "ES",
    "latitude": "41.93312970",
    "longitude": "1.62614200",
    "native": null,
    "timezone": null,
    "translations": {}
  },
  {
    "id": 151773,
    "name": "Cogul El",
    "state_id": 5104,
    "state_code": "L",
    "country_id": 207,
    "country_code": "ES",
    "latitude": "41.46733710",
    "longitude": "0.68975970",
    "native": null,
    "timezone": null,
    "translations": {}
  },
  {
    "id": 33730,
    "name": "Coll de Nargó",
    "state_id": 5104,
    "state_code": "L",
    "country_id": 207,
    "country_code": "ES",
    "latitude": "42.17473000",
    "longitude": "1.31694000",
    "native": null,
    "timezone": null,
    "translations": {}
  },
  {
    "id": 151821,
    "name": "Coma i la Pedra La",
    "state_id": 5104,
    "state_code": "L",
    "country_id": 207,
    "country_code": "ES",
    "latitude": "42.17593800",
    "longitude": "1.58869660",
    "native": null,
    "timezone": null,
    "translations": {}
  },
  {
    "id": 151820,
    "name": "Conca de Dalt",
    "state_id": 5104,
    "state_code": "L",
    "country_id": 207,
    "country_code": "ES",
    "latitude": "42.21215790",
    "longitude": "1.00119020",
    "native": null,
    "timezone": null,
    "translations": {}
  },
  {
    "id": 33777,
    "name": "Corbins",
    "state_id": 5104,
    "state_code": "L",
    "country_id": 207,
    "country_code": "ES",
    "latitude": "41.68333000",
    "longitude": "0.70000000",
    "native": null,
    "timezone": null,
    "translations": {}
  },
  {
    "id": 33848,
    "name": "Cubells",
    "state_id": 5104,
    "state_code": "L",
    "country_id": 207,
    "country_code": "ES",
    "latitude": "41.85062000",
    "longitude": "0.95900000",
    "native": null,
    "timezone": null,
    "translations": {}
  },
  {
    "id": 151774,
    "name": "Espluga Calba L",
    "state_id": 5104,
    "state_code": "L",
    "country_id": 207,
    "country_code": "ES",
    "latitude": "41.49503710",
    "longitude": "1.00417900",
    "native": null,
    "timezone": null,
    "translations": {}
  },
  {
    "id": 34132,
    "name": "Espot",
    "state_id": 5104,
    "state_code": "L",
    "country_id": 207,
    "country_code": "ES",
    "latitude": "42.57838000",
    "longitude": "1.08666000",
    "native": null,
    "timezone": null,
    "translations": {}
  },
  {
    "id": 151778,
    "name": "Estamariu",
    "state_id": 5104,
    "state_code": "L",
    "country_id": 207,
    "country_code": "ES",
    "latitude": "42.37315570",
    "longitude": "1.52282930",
    "native": null,
    "timezone": null,
    "translations": {}
  },
  {
    "id": 151775,
    "name": "Estaràs",
    "state_id": 5104,
    "state_code": "L",
    "country_id": 207,
    "country_code": "ES",
    "latitude": "41.69750380",
    "longitude": "1.39034250",
    "native": null,
    "timezone": null,
    "translations": {}
  },
  {
    "id": 151776,
    "name": "Esterri dÀneu",
    "state_id": 5104,
    "state_code": "L",
    "country_id": 207,
    "country_code": "ES",
    "latitude": "42.62692270",
    "longitude": "1.12271060",
    "native": null,
    "timezone": null,
    "translations": {}
  },
  {
    "id": 151777,
    "name": "Esterri de Cardós",
    "state_id": 5104,
    "state_code": "L",
    "country_id": 207,
    "country_code": "ES",
    "latitude": "42.59273580",
    "longitude": "1.26172650",
    "native": null,
    "timezone": null,
    "translations": {}
  },
  {
    "id": 34166,
    "name": "Farrera",
    "state_id": 5104,
    "state_code": "L",
    "country_id": 207,
    "country_code": "ES",
    "latitude": "42.49654000",
    "longitude": "1.27216000",
    "native": null,
    "timezone": null,
    "translations": {}
  },
  {
    "id": 151888,
    "name": "Fígols i Alinyà",
    "state_id": 5104,
    "state_code": "L",
    "country_id": 207,
    "country_code": "ES",
    "latitude": "42.19818870",
    "longitude": "1.39516940",
    "native": null,
    "timezone": null,
    "translations": {}
  },
  {
    "id": 151779,
    "name": "Floresta La",
    "state_id": 5104,
    "state_code": "L",
    "country_id": 207,
    "country_code": "ES",
    "latitude": "41.51073120",
    "longitude": "0.92057390",
    "native": null,
    "timezone": null,
    "translations": {}
  },
  {
    "id": 151780,
    "name": "Fondarella",
    "state_id": 5104,
    "state_code": "L",
    "country_id": 207,
    "country_code": "ES",
    "latitude": "41.63435500",
    "longitude": "0.87408710",
    "native": null,
    "timezone": null,
    "translations": {}
  },
  {
    "id": 151781,
    "name": "Foradada",
    "state_id": 5104,
    "state_code": "L",
    "country_id": 207,
    "country_code": "ES",
    "latitude": "41.87688610",
    "longitude": "1.01299730",
    "native": null,
    "timezone": null,
    "translations": {}
  },
  {
    "id": 151782,
    "name": "Fuliola La",
    "state_id": 5104,
    "state_code": "L",
    "country_id": 207,
    "country_code": "ES",
    "latitude": "41.71145760",
    "longitude": "1.00597240",
    "native": null,
    "timezone": null,
    "translations": {}
  },
  {
    "id": 34364,
    "name": "Fulleda",
    "state_id": 5104,
    "state_code": "L",
    "country_id": 207,
    "country_code": "ES",
    "latitude": "41.46334000",
    "longitude": "1.02395000",
    "native": null,
    "timezone": null,
    "translations": {}
  },
  {
    "id": 151783,
    "name": "Gavet de la Conca",
    "state_id": 5104,
    "state_code": "L",
    "country_id": 207,
    "country_code": "ES",
    "latitude": "42.12286100",
    "longitude": "0.92102130",
    "native": null,
    "timezone": null,
    "translations": {}
  },
  {
    "id": 151892,
    "name": "Gimenells i el Pla de la Font",
    "state_id": 5104,
    "state_code": "L",
    "country_id": 207,
    "country_code": "ES",
    "latitude": "41.66036390",
    "longitude": "0.39367220",
    "native": null,
    "timezone": null,
    "translations": {}
  },
  {
    "id": 34479,
    "name": "Golmés",
    "state_id": 5104,
    "state_code": "L",
    "country_id": 207,
    "country_code": "ES",
    "latitude": "41.63354000",
    "longitude": "0.93125000",
    "native": null,
    "timezone": null,
    "translations": {}
  },
  {
    "id": 34565,
    "name": "Gósol",
    "state_id": 5104,
    "state_code": "L",
    "country_id": 207,
    "country_code": "ES",
    "latitude": "42.23697000",
    "longitude": "1.66010000",
    "native": null,
    "timezone": null,
    "translations": {}
  },
  {
    "id": 151784,
    "name": "Granadella La",
    "state_id": 5104,
    "state_code": "L",
    "country_id": 207,
    "country_code": "ES",
    "latitude": "41.35480620",
    "longitude": "0.66603910",
    "native": null,
    "timezone": null,
    "translations": {}
  },
  {
    "id": 151785,
    "name": "Granja dEscarp La",
    "state_id": 5104,
    "state_code": "L",
    "country_id": 207,
    "country_code": "ES",
    "latitude": "41.41880990",
    "longitude": "0.35306660",
    "native": null,
    "timezone": null,
    "translations": {}
  },
  {
    "id": 151786,
    "name": "Granyanella",
    "state_id": 5104,
    "state_code": "L",
    "country_id": 207,
    "country_code": "ES",
    "latitude": "41.64800720",
    "longitude": "1.22324820",
    "native": null,
    "timezone": null,
    "translations": {}
  },
  {
    "id": 151788,
    "name": "Granyena de les Garrigues",
    "state_id": 5104,
    "state_code": "L",
    "country_id": 207,
    "country_code": "ES",
    "latitude": "41.43285700",
    "longitude": "0.64914680",
    "native": null,
    "timezone": null,
    "translations": {}
  },
  {
    "id": 151787,
    "name": "Granyena de Segarra",
    "state_id": 5104,
    "state_code": "L",
    "country_id": 207,
    "country_code": "ES",
    "latitude": "41.62376120",
    "longitude": "1.24639110",
    "native": null,
    "timezone": null,
    "translations": {}
  },
  {
    "id": 34549,
    "name": "Guimerà",
    "state_id": 5104,
    "state_code": "L",
    "country_id": 207,
    "country_code": "ES",
    "latitude": "41.56450000",
    "longitude": "1.18528000",
    "native": null,
    "timezone": null,
    "translations": {}
  },
  {
    "id": 151883,
    "name": "Guingueta dÀneu La",
    "state_id": 5104,
    "state_code": "L",
    "country_id": 207,
    "country_code": "ES",
    "latitude": "42.59454680",
    "longitude": "1.13185400",
    "native": null,
    "timezone": null,
    "translations": {}
  },
  {
    "id": 151789,
    "name": "Guissona",
    "state_id": 5104,
    "state_code": "L",
    "country_id": 207,
    "country_code": "ES",
    "latitude": "41.78451900",
    "longitude": "1.29030740",
    "native": null,
    "timezone": null,
    "translations": {}
  },
  {
    "id": 151790,
    "name": "Guixers",
    "state_id": 5104,
    "state_code": "L",
    "country_id": 207,
    "country_code": "ES",
    "latitude": "42.13745410",
    "longitude": "1.64229750",
    "native": null,
    "timezone": null,
    "translations": {}
  },
  {
    "id": 151793,
    "name": "Isona i Conca Dellà",
    "state_id": 5104,
    "state_code": "L",
    "country_id": 207,
    "country_code": "ES",
    "latitude": "42.11848610",
    "longitude": "1.04659380",
    "native": null,
    "timezone": null,
    "translations": {}
  },
  {
    "id": 151791,
    "name": "Ivars de Noguera",
    "state_id": 5104,
    "state_code": "L",
    "country_id": 207,
    "country_code": "ES",
    "latitude": "41.84981110",
    "longitude": "0.58653750",
    "native": null,
    "timezone": null,
    "translations": {}
  },
  {
    "id": 151792,
    "name": "Ivars dUrgell",
    "state_id": 5104,
    "state_code": "L",
    "country_id": 207,
    "country_code": "ES",
    "latitude": "41.68047850",
    "longitude": "0.98804190",
    "native": null,
    "timezone": null,
    "translations": {}
  },
  {
    "id": 34777,
    "name": "Ivorra",
    "state_id": 5104,
    "state_code": "L",
    "country_id": 207,
    "country_code": "ES",
    "latitude": "41.76667000",
    "longitude": "1.40000000",
    "native": null,
    "timezone": null,
    "translations": {}
  },
  {
    "id": 151890,
    "name": "Josa i Tuixén",
    "state_id": 5104,
    "state_code": "L",
    "country_id": 207,
    "country_code": "ES",
    "latitude": "42.25459490",
    "longitude": "1.60809740",
    "native": null,
    "timezone": null,
    "translations": {}
  },
  {
    "id": 34831,
    "name": "Juncosa",
    "state_id": 5104,
    "state_code": "L",
    "country_id": 207,
    "country_code": "ES",
    "latitude": "41.37033000",
    "longitude": "0.77650000",
    "native": null,
    "timezone": null,
    "translations": {}
  },
  {
    "id": 34832,
    "name": "Juneda",
    "state_id": 5104,
    "state_code": "L",
    "country_id": 207,
    "country_code": "ES",
    "latitude": "41.54847000",
    "longitude": "0.82451000",
    "native": null,
    "timezone": null,
    "translations": {}
  },
  {
    "id": 35034,
    "name": "Les",
    "state_id": 5104,
    "state_code": "L",
    "country_id": 207,
    "country_code": "ES",
    "latitude": "42.81076000",
    "longitude": "0.71050000",
    "native": null,
    "timezone": null,
    "translations": {}
  },
  {
    "id": 35056,
    "name": "Linyola",
    "state_id": 5104,
    "state_code": "L",
    "country_id": 207,
    "country_code": "ES",
    "latitude": "41.70000000",
    "longitude": "0.91667000",
    "native": null,
    "timezone": null,
    "translations": {}
  },
  {
    "id": 151794,
    "name": "Lladorre",
    "state_id": 5104,
    "state_code": "L",
    "country_id": 207,
    "country_code": "ES",
    "latitude": "42.68104170",
    "longitude": "1.26984750",
    "native": null,
    "timezone": null,
    "translations": {}
  },
  {
    "id": 151795,
    "name": "Lladurs",
    "state_id": 5104,
    "state_code": "L",
    "country_id": 207,
    "country_code": "ES",
    "latitude": "42.04438990",
    "longitude": "1.50668740",
    "native": null,
    "timezone": null,
    "translations": {}
  },
  {
    "id": 151796,
    "name": "Llardecans",
    "state_id": 5104,
    "state_code": "L",
    "country_id": 207,
    "country_code": "ES",
    "latitude": "41.37421120",
    "longitude": "0.55001090",
    "native": null,
    "timezone": null,
    "translations": {}
  },
  {
    "id": 151797,
    "name": "Llavorsí",
    "state_id": 5104,
    "state_code": "L",
    "country_id": 207,
    "country_code": "ES",
    "latitude": "42.49585200",
    "longitude": "1.21002950",
    "native": null,
    "timezone": null,
    "translations": {}
  },
  {
    "id": 35074,
    "name": "Lleida",
    "state_id": 5104,
    "state_code": "L",
    "country_id": 207,
    "country_code": "ES",
    "latitude": "41.61674000",
    "longitude": "0.62218000",
    "native": null,
    "timezone": null,
    "translations": {}
  },
  {
    "id": 35078,
    "name": "Lles de Cerdanya",
    "state_id": 5104,
    "state_code": "L",
    "country_id": 207,
    "country_code": "ES",
    "latitude": "42.39025000",
    "longitude": "1.68692000",
    "native": null,
    "timezone": null,
    "translations": {}
  },
  {
    "id": 35079,
    "name": "Llimiana",
    "state_id": 5104,
    "state_code": "L",
    "country_id": 207,
    "country_code": "ES",
    "latitude": "42.07476000",
    "longitude": "0.91621000",
    "native": null,
    "timezone": null,
    "translations": {}
  },
  {
    "id": 151798,
    "name": "Llobera",
    "state_id": 5104,
    "state_code": "L",
    "country_id": 207,
    "country_code": "ES",
    "latitude": "41.94976290",
    "longitude": "1.47232400",
    "native": null,
    "timezone": null,
    "translations": {}
  },
  {
    "id": 151802,
    "name": "Maials",
    "state_id": 5104,
    "state_code": "L",
    "country_id": 207,
    "country_code": "ES",
    "latitude": "41.36377470",
    "longitude": "0.50333970",
    "native": null,
    "timezone": null,
    "translations": {}
  },
  {
    "id": 151799,
    "name": "Maldà",
    "state_id": 5104,
    "state_code": "L",
    "country_id": 207,
    "country_code": "ES",
    "latitude": "41.55037290",
    "longitude": "1.03860880",
    "native": null,
    "timezone": null,
    "translations": {}
  },
  {
    "id": 151800,
    "name": "Massalcoreig",
    "state_id": 5104,
    "state_code": "L",
    "country_id": 207,
    "country_code": "ES",
    "latitude": "41.45695540",
    "longitude": "0.35953720",
    "native": null,
    "timezone": null,
    "translations": {}
  },
  {
    "id": 151801,
    "name": "Massoteres",
    "state_id": 5104,
    "state_code": "L",
    "country_id": 207,
    "country_code": "ES",
    "latitude": "41.79734760",
    "longitude": "1.31017500",
    "native": null,
    "timezone": null,
    "translations": {}
  },
  {
    "id": 151803,
    "name": "Menàrguens",
    "state_id": 5104,
    "state_code": "L",
    "country_id": 207,
    "country_code": "ES",
    "latitude": "41.72793650",
    "longitude": "0.74245950",
    "native": null,
    "timezone": null,
    "translations": {}
  },
  {
    "id": 35444,
    "name": "Miralcamp",
    "state_id": 5104,
    "state_code": "L",
    "country_id": 207,
    "country_code": "ES",
    "latitude": "41.60516000",
    "longitude": "0.87987000",
    "native": null,
    "timezone": null,
    "translations": {}
  },
  {
    "id": 35486,
    "name": "Mollerussa",
    "state_id": 5104,
    "state_code": "L",
    "country_id": 207,
    "country_code": "ES",
    "latitude": "41.63333000",
    "longitude": "0.90000000",
    "native": null,
    "timezone": null,
    "translations": {}
  },
  {
    "id": 151804,
    "name": "Molsosa La",
    "state_id": 5104,
    "state_code": "L",
    "country_id": 207,
    "country_code": "ES",
    "latitude": "41.78033690",
    "longitude": "1.53054650",
    "native": null,
    "timezone": null,
    "translations": {}
  },
  {
    "id": 151806,
    "name": "Montellà i Martinet",
    "state_id": 5104,
    "state_code": "L",
    "country_id": 207,
    "country_code": "ES",
    "latitude": "42.35421290",
    "longitude": "1.70454990",
    "native": null,
    "timezone": null,
    "translations": {}
  },
  {
    "id": 151807,
    "name": "Montferrer i Castellbò",
    "state_id": 5104,
    "state_code": "L",
    "country_id": 207,
    "country_code": "ES",
    "latitude": "42.36628060",
    "longitude": "1.34692470",
    "native": null,
    "timezone": null,
    "translations": {}
  },
  {
    "id": 151805,
    "name": "Montgai",
    "state_id": 5104,
    "state_code": "L",
    "country_id": 207,
    "country_code": "ES",
    "latitude": "41.79973520",
    "longitude": "0.96078690",
    "native": null,
    "timezone": null,
    "translations": {}
  },
  {
    "id": 151809,
    "name": "Montoliu de Lleida",
    "state_id": 5104,
    "state_code": "L",
    "country_id": 207,
    "country_code": "ES",
    "latitude": "41.56099070",
    "longitude": "0.58845230",
    "native": null,
    "timezone": null,
    "translations": {}
  },
  {
    "id": 151808,
    "name": "Montoliu de Segarra",
    "state_id": 5104,
    "state_code": "L",
    "country_id": 207,
    "country_code": "ES",
    "latitude": "41.59012960",
    "longitude": "1.27074990",
    "native": null,
    "timezone": null,
    "translations": {}
  },
  {
    "id": 151810,
    "name": "Montornès de Segarra",
    "state_id": 5104,
    "state_code": "L",
    "country_id": 207,
    "country_code": "ES",
    "latitude": "41.60116430",
    "longitude": "1.23106130",
    "native": null,
    "timezone": null,
    "translations": {}
  },
  {
    "id": 151811,
    "name": "Nalec",
    "state_id": 5104,
    "state_code": "L",
    "country_id": 207,
    "country_code": "ES",
    "latitude": "41.56022110",
    "longitude": "1.11551720",
    "native": null,
    "timezone": null,
    "translations": {}
  },
  {
    "id": 151741,
    "name": "Naut Aran",
    "state_id": 5104,
    "state_code": "L",
    "country_id": 207,
    "country_code": "ES",
    "latitude": "42.74282410",
    "longitude": "0.94384680",
    "native": null,
    "timezone": null,
    "translations": {}
  },
  {
    "id": 151812,
    "name": "Navès",
    "state_id": 5104,
    "state_code": "L",
    "country_id": 207,
    "country_code": "ES",
    "latitude": "42.04702750",
    "longitude": "1.61780110",
    "native": null,
    "timezone": null,
    "translations": {}
  },
  {
    "id": 151813,
    "name": "Odèn",
    "state_id": 5104,
    "state_code": "L",
    "country_id": 207,
    "country_code": "ES",
    "latitude": "42.13277130",
    "longitude": "1.45479220",
    "native": null,
    "timezone": null,
    "translations": {}
  },
  {
    "id": 35880,
    "name": "Oliana",
    "state_id": 5104,
    "state_code": "L",
    "country_id": 207,
    "country_code": "ES",
    "latitude": "42.06895000",
    "longitude": "1.31353000",
    "native": null,
    "timezone": null,
    "translations": {}
  },
  {
    "id": 151814,
    "name": "Oliola",
    "state_id": 5104,
    "state_code": "L",
    "country_id": 207,
    "country_code": "ES",
    "latitude": "41.87612830",
    "longitude": "1.17459980",
    "native": null,
    "timezone": null,
    "translations": {}
  },
  {
    "id": 35883,
    "name": "Olius",
    "state_id": 5104,
    "state_code": "L",
    "country_id": 207,
    "country_code": "ES",
    "latitude": "42.01035000",
    "longitude": "1.56460000",
    "native": null,
    "timezone": null,
    "translations": {}
  },
  {
    "id": 151815,
    "name": "Oluges Les",
    "state_id": 5104,
    "state_code": "L",
    "country_id": 207,
    "country_code": "ES",
    "latitude": "41.69729280",
    "longitude": "1.31995360",
    "native": null,
    "timezone": null,
    "translations": {}
  },
  {
    "id": 151816,
    "name": "Omellons Els",
    "state_id": 5104,
    "state_code": "L",
    "country_id": 207,
    "country_code": "ES",
    "latitude": "41.50166250",
    "longitude": "0.95996650",
    "native": null,
    "timezone": null,
    "translations": {}
  },
  {
    "id": 151817,
    "name": "Omells de na Gaia Els",
    "state_id": 5104,
    "state_code": "L",
    "country_id": 207,
    "country_code": "ES",
    "latitude": "41.50063950",
    "longitude": "1.07597580",
    "native": null,
    "timezone": null,
    "translations": {}
  },
  {
    "id": 151818,
    "name": "Organyà",
    "state_id": 5104,
    "state_code": "L",
    "country_id": 207,
    "country_code": "ES",
    "latitude": "42.21194600",
    "longitude": "1.32780620",
    "native": null,
    "timezone": null,
    "translations": {}
  },
  {
    "id": 35968,
    "name": "Os de Balaguer",
    "state_id": 5104,
    "state_code": "L",
    "country_id": 207,
    "country_code": "ES",
    "latitude": "41.87314000",
    "longitude": "0.72017000",
    "native": null,
    "timezone": null,
    "translations": {}
  },
  {
    "id": 35974,
    "name": "Ossó de Sió",
    "state_id": 5104,
    "state_code": "L",
    "country_id": 207,
    "country_code": "ES",
    "latitude": "41.75485000",
    "longitude": "1.15900000",
    "native": null,
    "timezone": null,
    "translations": {}
  },
  {
    "id": 151819,
    "name": "Palau dAnglesola El",
    "state_id": 5104,
    "state_code": "L",
    "country_id": 207,
    "country_code": "ES",
    "latitude": "41.65014680",
    "longitude": "0.88123240",
    "native": null,
    "timezone": null,
    "translations": {}
  },
  {
    "id": 151822,
    "name": "Penelles",
    "state_id": 5104,
    "state_code": "L",
    "country_id": 207,
    "country_code": "ES",
    "latitude": "41.75722390",
    "longitude": "0.96593840",
    "native": null,
    "timezone": null,
    "translations": {}
  },
  {
    "id": 151823,
    "name": "Peramola",
    "state_id": 5104,
    "state_code": "L",
    "country_id": 207,
    "country_code": "ES",
    "latitude": "42.06185880",
    "longitude": "1.27282430",
    "native": null,
    "timezone": null,
    "translations": {}
  },
  {
    "id": 151824,
    "name": "Pinell de Solsonès",
    "state_id": 5104,
    "state_code": "L",
    "country_id": 207,
    "country_code": "ES",
    "latitude": "41.97079940",
    "longitude": "1.40014780",
    "native": null,
    "timezone": null,
    "translations": {}
  },
  {
    "id": 151825,
    "name": "Pinós",
    "state_id": 5104,
    "state_code": "L",
    "country_id": 207,
    "country_code": "ES",
    "latitude": "41.82725430",
    "longitude": "1.54189770",
    "native": null,
    "timezone": null,
    "translations": {}
  },
  {
    "id": 151891,
    "name": "Plans de Sió Els",
    "state_id": 5104,
    "state_code": "L",
    "country_id": 207,
    "country_code": "ES",
    "latitude": "41.74442470",
    "longitude": "1.20252070",
    "native": null,
    "timezone": null,
    "translations": {}
  },
  {
    "id": 151826,
    "name": "Poal El",
    "state_id": 5104,
    "state_code": "L",
    "country_id": 207,
    "country_code": "ES",
    "latitude": "41.67841800",
    "longitude": "0.85619490",
    "native": null,
    "timezone": null,
    "translations": {}
  },
  {
    "id": 151827,
    "name": "Pobla de Cérvoles La",
    "state_id": 5104,
    "state_code": "L",
    "country_id": 207,
    "country_code": "ES",
    "latitude": "41.36696650",
    "longitude": "0.91555230",
    "native": null,
    "timezone": null,
    "translations": {}
  },
  {
    "id": 151829,
    "name": "Pobla de Segur La",
    "state_id": 5104,
    "state_code": "L",
    "country_id": 207,
    "country_code": "ES",
    "latitude": "42.24771930",
    "longitude": "0.96758470",
    "native": null,
    "timezone": null,
    "translations": {}
  },
  {
    "id": 151742,
    "name": "Pont de Bar El",
    "state_id": 5104,
    "state_code": "L",
    "country_id": 207,
    "country_code": "ES",
    "latitude": "42.37203570",
    "longitude": "1.60521700",
    "native": null,
    "timezone": null,
    "translations": {}
  },
  {
    "id": 151830,
    "name": "Pont de Suert El",
    "state_id": 5104,
    "state_code": "L",
    "country_id": 207,
    "country_code": "ES",
    "latitude": "42.40804640",
    "longitude": "0.74080630",
    "native": null,
    "timezone": null,
    "translations": {}
  },
  {
    "id": 36275,
    "name": "Ponts",
    "state_id": 5104,
    "state_code": "L",
    "country_id": 207,
    "country_code": "ES",
    "latitude": "41.91607000",
    "longitude": "1.18515000",
    "native": null,
    "timezone": null,
    "translations": {}
  },
  {
    "id": 151831,
    "name": "Portella La",
    "state_id": 5104,
    "state_code": "L",
    "country_id": 207,
    "country_code": "ES",
    "latitude": "41.73958610",
    "longitude": "0.63996270",
    "native": null,
    "timezone": null,
    "translations": {}
  },
  {
    "id": 151832,
    "name": "Prats i Sansor",
    "state_id": 5104,
    "state_code": "L",
    "country_id": 207,
    "country_code": "ES",
    "latitude": "42.36442280",
    "longitude": "1.83671000",
    "native": null,
    "timezone": null,
    "translations": {}
  },
  {
    "id": 151833,
    "name": "Preixana",
    "state_id": 5104,
    "state_code": "L",
    "country_id": 207,
    "country_code": "ES",
    "latitude": "41.60773800",
    "longitude": "1.03826690",
    "native": null,
    "timezone": null,
    "translations": {}
  },
  {
    "id": 151834,
    "name": "Preixens",
    "state_id": 5104,
    "state_code": "L",
    "country_id": 207,
    "country_code": "ES",
    "latitude": "41.79390950",
    "longitude": "1.05054720",
    "native": null,
    "timezone": null,
    "translations": {}
  },
  {
    "id": 151835,
    "name": "Prullans",
    "state_id": 5104,
    "state_code": "L",
    "country_id": 207,
    "country_code": "ES",
    "latitude": "42.37885600",
    "longitude": "1.73867300",
    "native": null,
    "timezone": null,
    "translations": {}
  },
  {
    "id": 151836,
    "name": "Puiggròs",
    "state_id": 5104,
    "state_code": "L",
    "country_id": 207,
    "country_code": "ES",
    "latitude": "41.56286760",
    "longitude": "0.88181510",
    "native": null,
    "timezone": null,
    "translations": {}
  },
  {
    "id": 151837,
    "name": "Puigverd dAgramunt",
    "state_id": 5104,
    "state_code": "L",
    "country_id": 207,
    "country_code": "ES",
    "latitude": "41.77695910",
    "longitude": "1.12151160",
    "native": null,
    "timezone": null,
    "translations": {}
  },
  {
    "id": 151838,
    "name": "Puigverd de Lleida",
    "state_id": 5104,
    "state_code": "L",
    "country_id": 207,
    "country_code": "ES",
    "latitude": "41.54336390",
    "longitude": "0.73293770",
    "native": null,
    "timezone": null,
    "translations": {}
  },
  {
    "id": 151839,
    "name": "Rialp",
    "state_id": 5104,
    "state_code": "L",
    "country_id": 207,
    "country_code": "ES",
    "latitude": "42.44291960",
    "longitude": "1.13470240",
    "native": null,
    "timezone": null,
    "translations": {}
  },
  {
    "id": 151885,
    "name": "Ribera dOndara",
    "state_id": 5104,
    "state_code": "L",
    "country_id": 207,
    "country_code": "ES",
    "latitude": "41.62358870",
    "longitude": "1.31800420",
    "native": null,
    "timezone": null,
    "translations": {}
  },
  {
    "id": 151840,
    "name": "Ribera dUrgellet",
    "state_id": 5104,
    "state_code": "L",
    "country_id": 207,
    "country_code": "ES",
    "latitude": "42.28658540",
    "longitude": "1.42414260",
    "native": null,
    "timezone": null,
    "translations": {}
  },
  {
    "id": 151841,
    "name": "Riner",
    "state_id": 5104,
    "state_code": "L",
    "country_id": 207,
    "country_code": "ES",
    "latitude": "41.94135350",
    "longitude": "1.56377630",
    "native": null,
    "timezone": null,
    "translations": {}
  },
  {
    "id": 151893,
    "name": "Riu de Cerdanya",
    "state_id": 5104,
    "state_code": "L",
    "country_id": 207,
    "country_code": "ES",
    "latitude": "42.34510940",
    "longitude": "1.82591320",
    "native": null,
    "timezone": null,
    "translations": {}
  },
  {
    "id": 151842,
    "name": "Rosselló",
    "state_id": 5104,
    "state_code": "L",
    "country_id": 207,
    "country_code": "ES",
    "latitude": "41.69383940",
    "longitude": "0.59495710",
    "native": null,
    "timezone": null,
    "translations": {}
  },
  {
    "id": 151843,
    "name": "Salàs de Pallars",
    "state_id": 5104,
    "state_code": "L",
    "country_id": 207,
    "country_code": "ES",
    "latitude": "42.21305040",
    "longitude": "0.93161190",
    "native": null,
    "timezone": null,
    "translations": {}
  },
  {
    "id": 151844,
    "name": "Sanaüja",
    "state_id": 5104,
    "state_code": "L",
    "country_id": 207,
    "country_code": "ES",
    "latitude": "41.87560900",
    "longitude": "1.30953510",
    "native": null,
    "timezone": null,
    "translations": {}
  },
  {
    "id": 151848,
    "name": "Sant Esteve de la Sarga",
    "state_id": 5104,
    "state_code": "L",
    "country_id": 207,
    "country_code": "ES",
    "latitude": "42.07978790",
    "longitude": "0.76421100",
    "native": null,
    "timezone": null,
    "translations": {}
  },
  {
    "id": 151845,
    "name": "Sant Guim de Freixenet",
    "state_id": 5104,
    "state_code": "L",
    "country_id": 207,
    "country_code": "ES",
    "latitude": "41.65602850",
    "longitude": "1.42051990",
    "native": null,
    "timezone": null,
    "translations": {}
  },
  {
    "id": 151849,
    "name": "Sant Guim de la Plana",
    "state_id": 5104,
    "state_code": "L",
    "country_id": 207,
    "country_code": "ES",
    "latitude": "41.76268280",
    "longitude": "1.32432890",
    "native": null,
    "timezone": null,
    "translations": {}
  },
  {
    "id": 151846,
    "name": "Sant Llorenç de Morunys",
    "state_id": 5104,
    "state_code": "L",
    "country_id": 207,
    "country_code": "ES",
    "latitude": "42.13582170",
    "longitude": "1.58809040",
    "native": null,
    "timezone": null,
    "translations": {}
  },
  {
    "id": 151882,
    "name": "Sant Martí de Riucorb",
    "state_id": 5104,
    "state_code": "L",
    "country_id": 207,
    "country_code": "ES",
    "latitude": "41.56628640",
    "longitude": "1.06819180",
    "native": null,
    "timezone": null,
    "translations": {}
  },
  {
    "id": 151847,
    "name": "Sant Ramon",
    "state_id": 5104,
    "state_code": "L",
    "country_id": 207,
    "country_code": "ES",
    "latitude": "41.72582370",
    "longitude": "1.36440700",
    "native": null,
    "timezone": null,
    "translations": {}
  },
  {
    "id": 151851,
    "name": "Sarroca de Bellera",
    "state_id": 5104,
    "state_code": "L",
    "country_id": 207,
    "country_code": "ES",
    "latitude": "42.36003010",
    "longitude": "0.88092110",
    "native": null,
    "timezone": null,
    "translations": {}
  },
  {
    "id": 151850,
    "name": "Sarroca de Lleida",
    "state_id": 5104,
    "state_code": "L",
    "country_id": 207,
    "country_code": "ES",
    "latitude": "41.45928120",
    "longitude": "0.56065250",
    "native": null,
    "timezone": null,
    "translations": {}
  },
  {
    "id": 151852,
    "name": "Senterada",
    "state_id": 5104,
    "state_code": "L",
    "country_id": 207,
    "country_code": "ES",
    "latitude": "42.32436870",
    "longitude": "0.93659270",
    "native": null,
    "timezone": null,
    "translations": {}
  },
  {
    "id": 151746,
    "name": "Sentiu de Sió La",
    "state_id": 5104,
    "state_code": "L",
    "country_id": 207,
    "country_code": "ES",
    "latitude": "41.80517120",
    "longitude": "0.87883520",
    "native": null,
    "timezone": null,
    "translations": {}
  },
  {
    "id": 37227,
    "name": "Seròs",
    "state_id": 5104,
    "state_code": "L",
    "country_id": 207,
    "country_code": "ES",
    "latitude": "41.46667000",
    "longitude": "0.41667000",
    "native": null,
    "timezone": null,
    "translations": {}
  },
  {
    "id": 151853,
    "name": "Seu dUrgell La",
    "state_id": 5104,
    "state_code": "L",
    "country_id": 207,
    "country_code": "ES",
    "latitude": "42.35757840",
    "longitude": "1.45555250",
    "native": null,
    "timezone": null,
    "translations": {}
  },
  {
    "id": 37242,
    "name": "Sidamon",
    "state_id": 5104,
    "state_code": "L",
    "country_id": 207,
    "country_code": "ES",
    "latitude": "41.63333000",
    "longitude": "0.83333000",
    "native": null,
    "timezone": null,
    "translations": {}
  },
  {
    "id": 151854,
    "name": "Soleràs El",
    "state_id": 5104,
    "state_code": "L",
    "country_id": 207,
    "country_code": "ES",
    "latitude": "41.41359070",
    "longitude": "0.68026980",
    "native": null,
    "timezone": null,
    "translations": {}
  },
  {
    "id": 37285,
    "name": "Solsona",
    "state_id": 5104,
    "state_code": "L",
    "country_id": 207,
    "country_code": "ES",
    "latitude": "41.99395000",
    "longitude": "1.51706000",
    "native": null,
    "timezone": null,
    "translations": {}
  },
  {
    "id": 151855,
    "name": "Soriguera",
    "state_id": 5104,
    "state_code": "L",
    "country_id": 207,
    "country_code": "ES",
    "latitude": "42.37040860",
    "longitude": "1.18105300",
    "native": null,
    "timezone": null,
    "translations": {}
  },
  {
    "id": 37304,
    "name": "Sort",
    "state_id": 5104,
    "state_code": "L",
    "country_id": 207,
    "country_code": "ES",
    "latitude": "42.41319000",
    "longitude": "1.13045000",
    "native": null,
    "timezone": null,
    "translations": {}
  },
  {
    "id": 37308,
    "name": "Soses",
    "state_id": 5104,
    "state_code": "L",
    "country_id": 207,
    "country_code": "ES",
    "latitude": "41.53333000",
    "longitude": "0.48333000",
    "native": null,
    "timezone": null,
    "translations": {}
  },
  {
    "id": 151856,
    "name": "Sudanell",
    "state_id": 5104,
    "state_code": "L",
    "country_id": 207,
    "country_code": "ES",
    "latitude": "41.55610310",
    "longitude": "0.56715710",
    "native": null,
    "timezone": null,
    "translations": {}
  },
  {
    "id": 151857,
    "name": "Sunyer",
    "state_id": 5104,
    "state_code": "L",
    "country_id": 207,
    "country_code": "ES",
    "latitude": "41.52351050",
    "longitude": "0.59081920",
    "native": null,
    "timezone": null,
    "translations": {}
  },
  {
    "id": 151858,
    "name": "Talarn",
    "state_id": 5104,
    "state_code": "L",
    "country_id": 207,
    "country_code": "ES",
    "latitude": "42.18615840",
    "longitude": "0.89999730",
    "native": null,
    "timezone": null,
    "translations": {}
  },
  {
    "id": 151859,
    "name": "Talavera",
    "state_id": 5104,
    "state_code": "L",
    "country_id": 207,
    "country_code": "ES",
    "latitude": "41.58188760",
    "longitude": "1.33758360",
    "native": null,
    "timezone": null,
    "translations": {}
  },
  {
    "id": 37661,
    "name": "Tàrrega",
    "state_id": 5104,
    "state_code": "L",
    "country_id": 207,
    "country_code": "ES",
    "latitude": "41.64704000",
    "longitude": "1.13957000",
    "native": null,
    "timezone": null,
    "translations": {}
  },
  {
    "id": 151860,
    "name": "Tarrés",
    "state_id": 5104,
    "state_code": "L",
    "country_id": 207,
    "country_code": "ES",
    "latitude": "41.42267300",
    "longitude": "1.01942540",
    "native": null,
    "timezone": null,
    "translations": {}
  },
  {
    "id": 151861,
    "name": "Tarroja de Segarra",
    "state_id": 5104,
    "state_code": "L",
    "country_id": 207,
    "country_code": "ES",
    "latitude": "41.73150100",
    "longitude": "1.27616490",
    "native": null,
    "timezone": null,
    "translations": {}
  },
  {
    "id": 37665,
    "name": "Térmens",
    "state_id": 5104,
    "state_code": "L",
    "country_id": 207,
    "country_code": "ES",
    "latitude": "41.71667000",
    "longitude": "0.76667000",
    "native": null,
    "timezone": null,
    "translations": {}
  },
  {
    "id": 151862,
    "name": "Tírvia",
    "state_id": 5104,
    "state_code": "L",
    "country_id": 207,
    "country_code": "ES",
    "latitude": "42.51979770",
    "longitude": "1.23617060",
    "native": null,
    "timezone": null,
    "translations": {}
  },
  {
    "id": 37432,
    "name": "Tiurana",
    "state_id": 5104,
    "state_code": "L",
    "country_id": 207,
    "country_code": "ES",
    "latitude": "41.97527000",
    "longitude": "1.25608000",
    "native": null,
    "timezone": null,
    "translations": {}
  },
  {
    "id": 151863,
    "name": "Torà",
    "state_id": 5104,
    "state_code": "L",
    "country_id": 207,
    "country_code": "ES",
    "latitude": "41.81054000",
    "longitude": "1.40361790",
    "native": null,
    "timezone": null,
    "translations": {}
  },
  {
    "id": 151864,
    "name": "Torms Els",
    "state_id": 5104,
    "state_code": "L",
    "country_id": 207,
    "country_code": "ES",
    "latitude": "41.39425410",
    "longitude": "0.72032050",
    "native": null,
    "timezone": null,
    "translations": {}
  },
  {
    "id": 37472,
    "name": "Tornabous",
    "state_id": 5104,
    "state_code": "L",
    "country_id": 207,
    "country_code": "ES",
    "latitude": "41.70117000",
    "longitude": "1.05384000",
    "native": null,
    "timezone": null,
    "translations": {}
  },
  {
    "id": 151866,
    "name": "Torre de Cabdella La",
    "state_id": 5104,
    "state_code": "L",
    "country_id": 207,
    "country_code": "ES",
    "latitude": "42.44878360",
    "longitude": "0.96295230",
    "native": null,
    "timezone": null,
    "translations": {}
  },
  {
    "id": 151869,
    "name": "Torre-serona",
    "state_id": 5104,
    "state_code": "L",
    "country_id": 207,
    "country_code": "ES",
    "latitude": "41.67177410",
    "longitude": "0.62936750",
    "native": null,
    "timezone": null,
    "translations": {}
  },
  {
    "id": 151865,
    "name": "Torrebesses",
    "state_id": 5104,
    "state_code": "L",
    "country_id": 207,
    "country_code": "ES",
    "latitude": "41.42658470",
    "longitude": "0.59377790",
    "native": null,
    "timezone": null,
    "translations": {}
  },
  {
    "id": 37531,
    "name": "Torrefarrera",
    "state_id": 5104,
    "state_code": "L",
    "country_id": 207,
    "country_code": "ES",
    "latitude": "41.67318000",
    "longitude": "0.60671000",
    "native": null,
    "timezone": null,
    "translations": {}
  },
  {
    "id": 151887,
    "name": "Torrefeta i Florejacs",
    "state_id": 5104,
    "state_code": "L",
    "country_id": 207,
    "country_code": "ES",
    "latitude": "41.76371220",
    "longitude": "1.26022280",
    "native": null,
    "timezone": null,
    "translations": {}
  },
  {
    "id": 151867,
    "name": "Torregrossa",
    "state_id": 5104,
    "state_code": "L",
    "country_id": 207,
    "country_code": "ES",
    "latitude": "41.58039170",
    "longitude": "0.82926470",
    "native": null,
    "timezone": null,
    "translations": {}
  },
  {
    "id": 151868,
    "name": "Torrelameu",
    "state_id": 5104,
    "state_code": "L",
    "country_id": 207,
    "country_code": "ES",
    "latitude": "41.70435760",
    "longitude": "0.70399870",
    "native": null,
    "timezone": null,
    "translations": {}
  },
  {
    "id": 37576,
    "name": "Torres de Segre",
    "state_id": 5104,
    "state_code": "L",
    "country_id": 207,
    "country_code": "ES",
    "latitude": "41.53399000",
    "longitude": "0.51420000",
    "native": null,
    "timezone": null,
    "translations": {}
  },
  {
    "id": 37628,
    "name": "Tremp",
    "state_id": 5104,
    "state_code": "L",
    "country_id": 207,
    "country_code": "ES",
    "latitude": "42.16703000",
    "longitude": "0.89487000",
    "native": null,
    "timezone": null,
    "translations": {}
  },
  {
    "id": 151751,
    "name": "Vall de Boí La",
    "state_id": 5104,
    "state_code": "L",
    "country_id": 207,
    "country_code": "ES",
    "latitude": "42.52821620",
    "longitude": "0.84845240",
    "native": null,
    "timezone": null,
    "translations": {}
  },
  {
    "id": 151881,
    "name": "Vall de Cardós",
    "state_id": 5104,
    "state_code": "L",
    "country_id": 207,
    "country_code": "ES",
    "latitude": "42.56244090",
    "longitude": "1.22609730",
    "native": null,
    "timezone": null,
    "translations": {}
  },
  {
    "id": 37840,
    "name": "Vallbona de les Monges",
    "state_id": 5104,
    "state_code": "L",
    "country_id": 207,
    "country_code": "ES",
    "latitude": "41.52631000",
    "longitude": "1.08872000",
    "native": null,
    "timezone": null,
    "translations": {}
  },
  {
    "id": 37858,
    "name": "Vallfogona de Balaguer",
    "state_id": 5104,
    "state_code": "L",
    "country_id": 207,
    "country_code": "ES",
    "latitude": "41.75211000",
    "longitude": "0.81385000",
    "native": null,
    "timezone": null,
    "translations": {}
  },
  {
    "id": 151886,
    "name": "Valls dAguilar Les",
    "state_id": 5104,
    "state_code": "L",
    "country_id": 207,
    "country_code": "ES",
    "latitude": "42.28880950",
    "longitude": "1.23136180",
    "native": null,
    "timezone": null,
    "translations": {}
  },
  {
    "id": 151870,
    "name": "Valls de Valira Les",
    "state_id": 5104,
    "state_code": "L",
    "country_id": 207,
    "country_code": "ES",
    "latitude": "42.40420420",
    "longitude": "1.46280420",
    "native": null,
    "timezone": null,
    "translations": {}
  },
  {
    "id": 151889,
    "name": "Vansa i Fórnols La",
    "state_id": 5104,
    "state_code": "L",
    "country_id": 207,
    "country_code": "ES",
    "latitude": "42.24617550",
    "longitude": "1.50150090",
    "native": null,
    "timezone": null,
    "translations": {}
  },
  {
    "id": 37950,
    "name": "Verdú",
    "state_id": 5104,
    "state_code": "L",
    "country_id": 207,
    "country_code": "ES",
    "latitude": "41.61057000",
    "longitude": "1.14284000",
    "native": null,
    "timezone": null,
    "translations": {}
  },
  {
    "id": 151871,
    "name": "Vielha e Mijaran",
    "state_id": 5104,
    "state_code": "L",
    "country_id": 207,
    "country_code": "ES",
    "latitude": "42.72456430",
    "longitude": "0.77229740",
    "native": null,
    "timezone": null,
    "translations": {}
  },
  {
    "id": 151878,
    "name": "Vila-sana",
    "state_id": 5104,
    "state_code": "L",
    "country_id": 207,
    "country_code": "ES",
    "latitude": "41.66332020",
    "longitude": "0.92827890",
    "native": null,
    "timezone": null,
    "translations": {}
  },
  {
    "id": 151872,
    "name": "Vilagrassa",
    "state_id": 5104,
    "state_code": "L",
    "country_id": 207,
    "country_code": "ES",
    "latitude": "41.64888000",
    "longitude": "1.10592800",
    "native": null,
    "timezone": null,
    "translations": {}
  },
  {
    "id": 151873,
    "name": "Vilaller",
    "state_id": 5104,
    "state_code": "L",
    "country_id": 207,
    "country_code": "ES",
    "latitude": "42.47697390",
    "longitude": "0.71705560",
    "native": null,
    "timezone": null,
    "translations": {}
  },
  {
    "id": 151874,
    "name": "Vilamòs",
    "state_id": 5104,
    "state_code": "L",
    "country_id": 207,
    "country_code": "ES",
    "latitude": "42.74769610",
    "longitude": "0.72636090",
    "native": null,
    "timezone": null,
    "translations": {}
  },
  {
    "id": 37995,
    "name": "Vilanova de Bellpuig",
    "state_id": 5104,
    "state_code": "L",
    "country_id": 207,
    "country_code": "ES",
    "latitude": "41.61379000",
    "longitude": "0.96432000",
    "native": null,
    "timezone": null,
    "translations": {}
  },
  {
    "id": 151880,
    "name": "Vilanova de la Barca",
    "state_id": 5104,
    "state_code": "L",
    "country_id": 207,
    "country_code": "ES",
    "latitude": "41.68988450",
    "longitude": "0.72833540",
    "native": null,
    "timezone": null,
    "translations": {}
  },
  {
    "id": 151875,
    "name": "Vilanova de lAguda",
    "state_id": 5104,
    "state_code": "L",
    "country_id": 207,
    "country_code": "ES",
    "latitude": "41.91005460",
    "longitude": "1.25210360",
    "native": null,
    "timezone": null,
    "translations": {}
  },
  {
    "id": 151876,
    "name": "Vilanova de Meià",
    "state_id": 5104,
    "state_code": "L",
    "country_id": 207,
    "country_code": "ES",
    "latitude": "41.99384010",
    "longitude": "1.01972440",
    "native": null,
    "timezone": null,
    "translations": {}
  },
  {
    "id": 151877,
    "name": "Vilanova de Segrià",
    "state_id": 5104,
    "state_code": "L",
    "country_id": 207,
    "country_code": "ES",
    "latitude": "41.71238040",
    "longitude": "0.61679220",
    "native": null,
    "timezone": null,
    "translations": {}
  },
  {
    "id": 151879,
    "name": "Vilosell El",
    "state_id": 5104,
    "state_code": "L",
    "country_id": 207,
    "country_code": "ES",
    "latitude": "41.38259790",
    "longitude": "0.94712990",
    "native": null,
    "timezone": null,
    "translations": {}
  },
  {
    "id": 38389,
    "name": "Vinaixa",
    "state_id": 5104,
    "state_code": "L",
    "country_id": 207,
    "country_code": "ES",
    "latitude": "41.43333000",
    "longitude": "0.98333000",
    "native": null,
    "timezone": null,
    "translations": {}
  }
]