[
  {
    "id": 55291,
    "name": "Báta",
    "state_id": 1038,
    "state_code": "TO",
    "country_id": 99,
    "country_code": "HU",
    "latitude": "46.12864000",
    "longitude": "18.77027000",
    "native": null,
    "timezone": null,
    "translations": {}
  },
  {
    "id": 55292,
    "name": "Bátaszék",
    "state_id": 1038,
    "state_code": "TO",
    "country_id": 99,
    "country_code": "HU",
    "latitude": "46.19373000",
    "longitude": "18.72307000",
    "native": null,
    "timezone": null,
    "translations": {}
  },
  {
    "id": 55251,
    "name": "Bogyiszló",
    "state_id": 1038,
    "state_code": "TO",
    "country_id": 99,
    "country_code": "HU",
    "latitude": "46.38638000",
    "longitude": "18.82962000",
    "native": null,
    "timezone": null,
    "translations": {}
  },
  {
    "id": 55308,
    "name": "Bölcske",
    "state_id": 1038,
    "state_code": "TO",
    "country_id": 99,
    "country_code": "HU",
    "latitude": "46.74102000",
    "longitude": "18.96736000",
    "native": null,
    "timezone": null,
    "translations": {}
  },
  {
    "id": 55255,
    "name": "Bonyhád",
    "state_id": 1038,
    "state_code": "TO",
    "country_id": 99,
    "country_code": "HU",
    "latitude": "46.29921000",
    "longitude": "18.53024000",
    "native": null,
    "timezone": null,
    "translations": {}
  },
  {
    "id": 55256,
    "name": "Bonyhádi Járás",
    "state_id": 1038,
    "state_code": "TO",
    "country_id": 99,
    "country_code": "HU",
    "latitude": "46.33998000",
    "longitude": "18.49739000",
    "native": null,
    "timezone": null,
    "translations": {}
  },
  {
    "id": 55355,
    "name": "Decs",
    "state_id": 1038,
    "state_code": "TO",
    "country_id": 99,
    "country_code": "HU",
    "latitude": "46.28428000",
    "longitude": "18.76000000",
    "native": null,
    "timezone": null,
    "translations": {}
  },
  {
    "id": 55390,
    "name": "Döbrököz",
    "state_id": 1038,
    "state_code": "TO",
    "country_id": 99,
    "country_code": "HU",
    "latitude": "46.42178000",
    "longitude": "18.23953000",
    "native": null,
    "timezone": null,
    "translations": {}
  },
  {
    "id": 55368,
    "name": "Dombóvár",
    "state_id": 1038,
    "state_code": "TO",
    "country_id": 99,
    "country_code": "HU",
    "latitude": "46.37657000",
    "longitude": "18.13696000",
    "native": null,
    "timezone": null,
    "translations": {}
  },
  {
    "id": 55369,
    "name": "Dombóvári Járás",
    "state_id": 1038,
    "state_code": "TO",
    "country_id": 99,
    "country_code": "HU",
    "latitude": "46.45592000",
    "longitude": "18.19076000",
    "native": null,
    "timezone": null,
    "translations": {}
  },
  {
    "id": 55373,
    "name": "Dunaföldvár",
    "state_id": 1038,
    "state_code": "TO",
    "country_id": 99,
    "country_code": "HU",
    "latitude": "46.80713000",
    "longitude": "18.92763000",
    "native": null,
    "timezone": null,
    "translations": {}
  },
  {
    "id": 55379,
    "name": "Dunaszentgyörgy",
    "state_id": 1038,
    "state_code": "TO",
    "country_id": 99,
    "country_code": "HU",
    "latitude": "46.52852000",
    "longitude": "18.81771000",
    "native": null,
    "timezone": null,
    "translations": {}
  },
  {
    "id": 55415,
    "name": "Fadd",
    "state_id": 1038,
    "state_code": "TO",
    "country_id": 99,
    "country_code": "HU",
    "latitude": "46.46476000",
    "longitude": "18.81925000",
    "native": null,
    "timezone": null,
    "translations": {}
  },
  {
    "id": 55465,
    "name": "Gyönk",
    "state_id": 1038,
    "state_code": "TO",
    "country_id": 99,
    "country_code": "HU",
    "latitude": "46.55603000",
    "longitude": "18.47694000",
    "native": null,
    "timezone": null,
    "translations": {}
  },
  {
    "id": 55523,
    "name": "Hőgyész",
    "state_id": 1038,
    "state_code": "TO",
    "country_id": 99,
    "country_code": "HU",
    "latitude": "46.49697000",
    "longitude": "18.41841000",
    "native": null,
    "timezone": null,
    "translations": {}
  },
  {
    "id": 55528,
    "name": "Iregszemcse",
    "state_id": 1038,
    "state_code": "TO",
    "country_id": 99,
    "country_code": "HU",
    "latitude": "46.69286000",
    "longitude": "18.18581000",
    "native": null,
    "timezone": null,
    "translations": {}
  },
  {
    "id": 55673,
    "name": "Madocsa",
    "state_id": 1038,
    "state_code": "TO",
    "country_id": 99,
    "country_code": "HU",
    "latitude": "46.68790000",
    "longitude": "18.95791000",
    "native": null,
    "timezone": null,
    "translations": {}
  },
  {
    "id": 55745,
    "name": "Nagydorog",
    "state_id": 1038,
    "state_code": "TO",
    "country_id": 99,
    "country_code": "HU",
    "latitude": "46.62749000",
    "longitude": "18.65565000",
    "native": null,
    "timezone": null,
    "translations": {}
  },
  {
    "id": 55758,
    "name": "Nagymányok",
    "state_id": 1038,
    "state_code": "TO",
    "country_id": 99,
    "country_code": "HU",
    "latitude": "46.27911000",
    "longitude": "18.45489000",
    "native": null,
    "timezone": null,
    "translations": {}
  },
  {
    "id": 55795,
    "name": "Németkér",
    "state_id": 1038,
    "state_code": "TO",
    "country_id": 99,
    "country_code": "HU",
    "latitude": "46.71637000",
    "longitude": "18.76311000",
    "native": null,
    "timezone": null,
    "translations": {}
  },
  {
    "id": 56170,
    "name": "Őcsény",
    "state_id": 1038,
    "state_code": "TO",
    "country_id": 99,
    "country_code": "HU",
    "latitude": "46.31370000",
    "longitude": "18.75749000",
    "native": null,
    "timezone": null,
    "translations": {}
  },
  {
    "id": 55803,
    "name": "Ozora",
    "state_id": 1038,
    "state_code": "TO",
    "country_id": 99,
    "country_code": "HU",
    "latitude": "46.75133000",
    "longitude": "18.40010000",
    "native": null,
    "timezone": null,
    "translations": {}
  },
  {
    "id": 55805,
    "name": "Paks",
    "state_id": 1038,
    "state_code": "TO",
    "country_id": 99,
    "country_code": "HU",
    "latitude": "46.62210000",
    "longitude": "18.85569000",
    "native": null,
    "timezone": null,
    "translations": {}
  },
  {
    "id": 55806,
    "name": "Paksi Járás",
    "state_id": 1038,
    "state_code": "TO",
    "country_id": 99,
    "country_code": "HU",
    "latitude": "46.66035000",
    "longitude": "18.78572000",
    "native": null,
    "timezone": null,
    "translations": {}
  },
  {
    "id": 55825,
    "name": "Pincehely",
    "state_id": 1038,
    "state_code": "TO",
    "country_id": 99,
    "country_code": "HU",
    "latitude": "46.68095000",
    "longitude": "18.43935000",
    "native": null,
    "timezone": null,
    "translations": {}
  },
  {
    "id": 55899,
    "name": "Simontornya",
    "state_id": 1038,
    "state_code": "TO",
    "country_id": 99,
    "country_code": "HU",
    "latitude": "46.75462000",
    "longitude": "18.55490000",
    "native": null,
    "timezone": null,
    "translations": {}
  },
  {
    "id": 55924,
    "name": "Szedres",
    "state_id": 1038,
    "state_code": "TO",
    "country_id": 99,
    "country_code": "HU",
    "latitude": "46.47551000",
    "longitude": "18.68305000",
    "native": null,
    "timezone": null,
    "translations": {}
  },
  {
    "id": 55930,
    "name": "Szekszárd",
    "state_id": 1038,
    "state_code": "TO",
    "country_id": 99,
    "country_code": "HU",
    "latitude": "46.35014000",
    "longitude": "18.70905000",
    "native": null,
    "timezone": null,
    "translations": {}
  },
  {
    "id": 55931,
    "name": "Szekszárdi Járás",
    "state_id": 1038,
    "state_code": "TO",
    "country_id": 99,
    "country_code": "HU",
    "latitude": "46.33998000",
    "longitude": "18.67893000",
    "native": null,
    "timezone": null,
    "translations": {}
  },
  {
    "id": 55940,
    "name": "Szentgálpuszta",
    "state_id": 1038,
    "state_code": "TO",
    "country_id": 99,
    "country_code": "HU",
    "latitude": "46.37479000",
    "longitude": "18.62601000",
    "native": null,
    "timezone": null,
    "translations": {}
  },
  {
    "id": 56007,
    "name": "Tamási",
    "state_id": 1038,
    "state_code": "TO",
    "country_id": 99,
    "country_code": "HU",
    "latitude": "46.63333000",
    "longitude": "18.28333000",
    "native": null,
    "timezone": null,
    "translations": {}
  },
  {
    "id": 56008,
    "name": "Tamási Járás",
    "state_id": 1038,
    "state_code": "TO",
    "country_id": 99,
    "country_code": "HU",
    "latitude": "46.65424000",
    "longitude": "18.35857000",
    "native": null,
    "timezone": null,
    "translations": {}
  },
  {
    "id": 56019,
    "name": "Tengelic",
    "state_id": 1038,
    "state_code": "TO",
    "country_id": 99,
    "country_code": "HU",
    "latitude": "46.52878000",
    "longitude": "18.71117000",
    "native": null,
    "timezone": null,
    "translations": {}
  },
  {
    "id": 56053,
    "name": "Tolna",
    "state_id": 1038,
    "state_code": "TO",
    "country_id": 99,
    "country_code": "HU",
    "latitude": "46.42677000",
    "longitude": "18.78248000",
    "native": null,
    "timezone": null,
    "translations": {}
  },
  {
    "id": 56054,
    "name": "Tolnai Járás",
    "state_id": 1038,
    "state_code": "TO",
    "country_id": 99,
    "country_code": "HU",
    "latitude": "46.42541000",
    "longitude": "18.82691000",
    "native": null,
    "timezone": null,
    "translations": {}
  },
  {
    "id": 56129,
    "name": "Zomba",
    "state_id": 1038,
    "state_code": "TO",
    "country_id": 99,
    "country_code": "HU",
    "latitude": "46.41084000",
    "longitude": "18.56577000",
    "native": null,
    "timezone": null,
    "translations": {}
  }
]