[
  {
    "id": 3077,
    "name": "Alibori",
    "country_id": 24,
    "country_code": "BJ",
    "fips_code": null,
    "iso2": "AL",
    "type": "department",
    "latitude": "11.46494820",
    "longitude": "2.79387980",
    "native": "Alibori",
    "timezone": "Africa/Porto-Novo",
    "translations": {}
  },
  {
    "id": 3076,
    "name": "Atakora",
    "country_id": 24,
    "country_code": "BJ",
    "fips_code": null,
    "iso2": "AK",
    "type": "department",
    "latitude": "10.71605150",
    "longitude": "1.53315270",
    "native": "Atakora",
    "timezone": "Africa/Porto-Novo",
    "translations": {}
  },
  {
    "id": 3079,
    "name": "Atlantique",
    "country_id": 24,
    "country_code": "BJ",
    "fips_code": null,
    "iso2": "AQ",
    "type": "department",
    "latitude": "6.54082900",
    "longitude": "2.22309500",
    "native": "Atlantique",
    "timezone": "Africa/Porto-Novo",
    "translations": {}
  },
  {
    "id": 3078,
    "name": "Borgou",
    "country_id": 24,
    "country_code": "BJ",
    "fips_code": null,
    "iso2": "BO",
    "type": "department",
    "latitude": "9.70974530",
    "longitude": "2.74226480",
    "native": "Borgou",
    "timezone": "Africa/Porto-Novo",
    "translations": {}
  },
  {
    "id": 3070,
    "name": "Collines",
    "country_id": 24,
    "country_code": "BJ",
    "fips_code": null,
    "iso2": "CO",
    "type": "department",
    "latitude": "8.10854790",
    "longitude": "2.18531010",
    "native": "Collines",
    "timezone": "Africa/Porto-Novo",
    "translations": {}
  },
  {
    "id": 3072,
    "name": "Donga",
    "country_id": 24,
    "country_code": "BJ",
    "fips_code": null,
    "iso2": "DO",
    "type": "department",
    "latitude": "9.26798060",
    "longitude": "1.71706840",
    "native": "Donga",
    "timezone": "Africa/Porto-Novo",
    "translations": {}
  },
  {
    "id": 3071,
    "name": "Kouffo",
    "country_id": 24,
    "country_code": "BJ",
    "fips_code": null,
    "iso2": "KO",
    "type": "department",
    "latitude": "7.13126620",
    "longitude": "1.75673940",
    "native": "Kouffo",
    "timezone": "Africa/Porto-Novo",
    "translations": {}
  },
  {
    "id": 3081,
    "name": "Littoral",
    "country_id": 24,
    "country_code": "BJ",
    "fips_code": null,
    "iso2": "LI",
    "type": "department",
    "latitude": "6.36631950",
    "longitude": "2.41706080",
    "native": "Littoral",
    "timezone": "Africa/Porto-Novo",
    "translations": {}
  },
  {
    "id": 3075,
    "name": "Mono",
    "country_id": 24,
    "country_code": "BJ",
    "fips_code": null,
    "iso2": "MO",
    "type": "department",
    "latitude": "6.45762400",
    "longitude": "1.86740800",
    "native": "Mono",
    "timezone": "Africa/Porto-Novo",
    "translations": {}
  },
  {
    "id": 3080,
    "name": "Ouémé",
    "country_id": 24,
    "country_code": "BJ",
    "fips_code": null,
    "iso2": "OU",
    "type": "department",
    "latitude": "6.60135310",
    "longitude": "2.55056600",
    "native": "Ouémé",
    "timezone": "Africa/Porto-Novo",
    "translations": {}
  },
  {
    "id": 3074,
    "name": "Plateau",
    "country_id": 24,
    "country_code": "BJ",
    "fips_code": null,
    "iso2": "PL",
    "type": "department",
    "latitude": "7.10026020",
    "longitude": "2.64091440",
    "native": "Plateau",
    "timezone": "Africa/Porto-Novo",
    "translations": {}
  },
  {
    "id": 3073,
    "name": "Zou",
    "country_id": 24,
    "country_code": "BJ",
    "fips_code": null,
    "iso2": "ZO",
    "type": "department",
    "latitude": "7.28343350",
    "longitude": "2.12276040",
    "native": "Serait",
    "timezone": "Africa/Porto-Novo",
    "translations": {}
  }
]