[
  {
    "id": 129769,
    "name": "‘Āhuimanu",
    "state_id": 1411,
    "state_code": "HI",
    "country_id": 233,
    "country_code": "US",
    "latitude": "21.44472000",
    "longitude": "-157.83778000",
    "native": null,
    "timezone": null,
    "translations": {}
  },
  {
    "id": 129764,
    "name": "‘Aiea",
    "state_id": 1411,
    "state_code": "HI",
    "country_id": 233,
    "country_code": "US",
    "latitude": "21.38222000",
    "longitude": "-157.93361000",
    "native": null,
    "timezone": null,
    "translations": {}
  },
  {
    "id": 129765,
    "name": "‘Ele‘ele",
    "state_id": 1411,
    "state_code": "HI",
    "country_id": 233,
    "country_code": "US",
    "latitude": "21.90738000",
    "longitude": "-159.58322000",
    "native": null,
    "timezone": null,
    "translations": {}
  },
  {
    "id": 129766,
    "name": "‘Ewa Beach",
    "state_id": 1411,
    "state_code": "HI",
    "country_id": 233,
    "country_code": "US",
    "latitude": "21.31556000",
    "longitude": "-158.00722000",
    "native": null,
    "timezone": null,
    "translations": {}
  },
  {
    "id": 129767,
    "name": "‘Ewa Gentry",
    "state_id": 1411,
    "state_code": "HI",
    "country_id": 233,
    "country_code": "US",
    "latitude": "21.33999000",
    "longitude": "-158.03039000",
    "native": null,
    "timezone": null,
    "translations": {}
  },
  {
    "id": 129768,
    "name": "‘Ewa Villages",
    "state_id": 1411,
    "state_code": "HI",
    "country_id": 233,
    "country_code": "US",
    "latitude": "21.34127000",
    "longitude": "-158.03970000",
    "native": null,
    "timezone": null,
    "translations": {}
  },
  {
    "id": 129770,
    "name": "‘Ōma‘o",
    "state_id": 1411,
    "state_code": "HI",
    "country_id": 233,
    "country_code": "US",
    "latitude": "21.92581000",
    "longitude": "-159.48818000",
    "native": null,
    "timezone": null,
    "translations": {}
  },
  {
    "id": 111068,
    "name": "Ainaloa",
    "state_id": 1411,
    "state_code": "HI",
    "country_id": 233,
    "country_code": "US",
    "latitude": "19.52694000",
    "longitude": "-154.99306000",
    "native": null,
    "timezone": null,
    "translations": {}
  },
  {
    "id": 111300,
    "name": "Anahola",
    "state_id": 1411,
    "state_code": "HI",
    "country_id": 233,
    "country_code": "US",
    "latitude": "22.14226000",
    "longitude": "-159.31388000",
    "native": null,
    "timezone": null,
    "translations": {}
  },
  {
    "id": 113378,
    "name": "Captain Cook",
    "state_id": 1411,
    "state_code": "HI",
    "country_id": 233,
    "country_code": "US",
    "latitude": "19.49694000",
    "longitude": "-155.92167000",
    "native": null,
    "timezone": null,
    "translations": {}
  },
  {
    "id": 115693,
    "name": "East Honolulu",
    "state_id": 1411,
    "state_code": "HI",
    "country_id": 233,
    "country_code": "US",
    "latitude": "21.28906000",
    "longitude": "-157.71734000",
    "native": null,
    "timezone": null,
    "translations": {}
  },
  {
    "id": 116481,
    "name": "Fern Acres",
    "state_id": 1411,
    "state_code": "HI",
    "country_id": 233,
    "country_code": "US",
    "latitude": "19.51222000",
    "longitude": "-155.08028000",
    "native": null,
    "timezone": null,
    "translations": {}
  },
  {
    "id": 117841,
    "name": "Haiku-Pauwela",
    "state_id": 1411,
    "state_code": "HI",
    "country_id": 233,
    "country_code": "US",
    "latitude": "20.92187000",
    "longitude": "-156.30508000",
    "native": null,
    "timezone": null,
    "translations": {}
  },
  {
    "id": 118859,
    "name": "Hālawa",
    "state_id": 1411,
    "state_code": "HI",
    "country_id": 233,
    "country_code": "US",
    "latitude": "21.37944000",
    "longitude": "-157.92167000",
    "native": null,
    "timezone": null,
    "translations": {}
  },
  {
    "id": 118860,
    "name": "Hālawa Heights",
    "state_id": 1411,
    "state_code": "HI",
    "country_id": 233,
    "country_code": "US",
    "latitude": "21.37848000",
    "longitude": "-157.91388000",
    "native": null,
    "timezone": null,
    "translations": {}
  },
  {
    "id": 117854,
    "name": "Hale‘iwa",
    "state_id": 1411,
    "state_code": "HI",
    "country_id": 233,
    "country_code": "US",
    "latitude": "21.59284000",
    "longitude": "-158.10339000",
    "native": null,
    "timezone": null,
    "translations": {}
  },
  {
    "id": 117941,
    "name": "Hana",
    "state_id": 1411,
    "state_code": "HI",
    "country_id": 233,
    "country_code": "US",
    "latitude": "20.75806000",
    "longitude": "-155.99028000",
    "native": null,
    "timezone": null,
    "translations": {}
  },
  {
    "id": 117943,
    "name": "Hanamā‘ulu",
    "state_id": 1411,
    "state_code": "HI",
    "country_id": 233,
    "country_code": "US",
    "latitude": "21.99773000",
    "longitude": "-159.35918000",
    "native": null,
    "timezone": null,
    "translations": {}
  },
  {
    "id": 117944,
    "name": "Hanapēpē",
    "state_id": 1411,
    "state_code": "HI",
    "country_id": 233,
    "country_code": "US",
    "latitude": "21.90733000",
    "longitude": "-159.59440000",
    "native": null,
    "timezone": null,
    "translations": {}
  },
  {
    "id": 117945,
    "name": "Hanapēpē Heights",
    "state_id": 1411,
    "state_code": "HI",
    "country_id": 233,
    "country_code": "US",
    "latitude": "21.91633000",
    "longitude": "-159.58995000",
    "native": null,
    "timezone": null,
    "translations": {}
  },
  {
    "id": 118144,
    "name": "Hau‘ula",
    "state_id": 1411,
    "state_code": "HI",
    "country_id": 233,
    "country_code": "US",
    "latitude": "21.60760000",
    "longitude": "-157.90868000",
    "native": null,
    "timezone": null,
    "translations": {}
  },
  {
    "id": 118157,
    "name": "Hawaii County",
    "state_id": 1411,
    "state_code": "HI",
    "country_id": 233,
    "country_code": "US",
    "latitude": "19.60240000",
    "longitude": "-155.52289000",
    "native": null,
    "timezone": null,
    "translations": {}
  },
  {
    "id": 118158,
    "name": "Hawaiian Acres",
    "state_id": 1411,
    "state_code": "HI",
    "country_id": 233,
    "country_code": "US",
    "latitude": "19.53806000",
    "longitude": "-155.05222000",
    "native": null,
    "timezone": null,
    "translations": {}
  },
  {
    "id": 118159,
    "name": "Hawaiian Beaches",
    "state_id": 1411,
    "state_code": "HI",
    "country_id": 233,
    "country_code": "US",
    "latitude": "19.54306000",
    "longitude": "-154.91583000",
    "native": null,
    "timezone": null,
    "translations": {}
  },
  {
    "id": 118161,
    "name": "Hawaiian Ocean View",
    "state_id": 1411,
    "state_code": "HI",
    "country_id": 233,
    "country_code": "US",
    "latitude": "19.06861000",
    "longitude": "-155.76500000",
    "native": null,
    "timezone": null,
    "translations": {}
  },
  {
    "id": 118162,
    "name": "Hawaiian Paradise Park",
    "state_id": 1411,
    "state_code": "HI",
    "country_id": 233,
    "country_code": "US",
    "latitude": "19.59333000",
    "longitude": "-154.97306000",
    "native": null,
    "timezone": null,
    "translations": {}
  },
  {
    "id": 118861,
    "name": "Hāwī",
    "state_id": 1411,
    "state_code": "HI",
    "country_id": 233,
    "country_code": "US",
    "latitude": "20.24122000",
    "longitude": "-155.83351000",
    "native": null,
    "timezone": null,
    "translations": {}
  },
  {
    "id": 118353,
    "name": "He‘eia",
    "state_id": 1411,
    "state_code": "HI",
    "country_id": 233,
    "country_code": "US",
    "latitude": "21.43054000",
    "longitude": "-157.81611000",
    "native": null,
    "timezone": null,
    "translations": {}
  },
  {
    "id": 118360,
    "name": "Hickam Field",
    "state_id": 1411,
    "state_code": "HI",
    "country_id": 233,
    "country_code": "US",
    "latitude": "21.33967000",
    "longitude": "-157.96018000",
    "native": null,
    "timezone": null,
    "translations": {}
  },
  {
    "id": 118472,
    "name": "Hilo",
    "state_id": 1411,
    "state_code": "HI",
    "country_id": 233,
    "country_code": "US",
    "latitude": "19.72991000",
    "longitude": "-155.09073000",
    "native": null,
    "timezone": null,
    "translations": {}
  },
  {
    "id": 118862,
    "name": "Hōlualoa",
    "state_id": 1411,
    "state_code": "HI",
    "country_id": 233,
    "country_code": "US",
    "latitude": "19.61979000",
    "longitude": "-155.94831000",
    "native": null,
    "timezone": null,
    "translations": {}
  },
  {
    "id": 118613,
    "name": "Honalo",
    "state_id": 1411,
    "state_code": "HI",
    "country_id": 233,
    "country_code": "US",
    "latitude": "19.54639000",
    "longitude": "-155.93194000",
    "native": null,
    "timezone": null,
    "translations": {}
  },
  {
    "id": 118614,
    "name": "Honaunau-Napoopoo",
    "state_id": 1411,
    "state_code": "HI",
    "country_id": 233,
    "country_code": "US",
    "latitude": "19.45627000",
    "longitude": "-155.86466000",
    "native": null,
    "timezone": null,
    "translations": {}
  },
  {
    "id": 118622,
    "name": "Honoka‘a",
    "state_id": 1411,
    "state_code": "HI",
    "country_id": 233,
    "country_code": "US",
    "latitude": "20.07931000",
    "longitude": "-155.46691000",
    "native": null,
    "timezone": null,
    "translations": {}
  },
  {
    "id": 118623,
    "name": "Honolulu",
    "state_id": 1411,
    "state_code": "HI",
    "country_id": 233,
    "country_code": "US",
    "latitude": "21.30694000",
    "longitude": "-157.85833000",
    "native": null,
    "timezone": null,
    "translations": {}
  },
  {
    "id": 118624,
    "name": "Honolulu County",
    "state_id": 1411,
    "state_code": "HI",
    "country_id": 233,
    "country_code": "US",
    "latitude": "21.45543000",
    "longitude": "-157.96138000",
    "native": null,
    "timezone": null,
    "translations": {}
  },
  {
    "id": 119001,
    "name": "Iroquois Point",
    "state_id": 1411,
    "state_code": "HI",
    "country_id": 233,
    "country_code": "US",
    "latitude": "21.32776000",
    "longitude": "-157.98301000",
    "native": null,
    "timezone": null,
    "translations": {}
  },
  {
    "id": 119404,
    "name": "Ka‘a‘awa",
    "state_id": 1411,
    "state_code": "HI",
    "country_id": 233,
    "country_code": "US",
    "latitude": "21.55445000",
    "longitude": "-157.85103000",
    "native": null,
    "timezone": null,
    "translations": {}
  },
  {
    "id": 119730,
    "name": "Kā‘anapali",
    "state_id": 1411,
    "state_code": "HI",
    "country_id": 233,
    "country_code": "US",
    "latitude": "20.92881000",
    "longitude": "-156.69422000",
    "native": null,
    "timezone": null,
    "translations": {}
  },
  {
    "id": 119348,
    "name": "Kaanapali Landing",
    "state_id": 1411,
    "state_code": "HI",
    "country_id": 233,
    "country_code": "US",
    "latitude": "20.93090000",
    "longitude": "-156.68778000",
    "native": null,
    "timezone": null,
    "translations": {}
  },
  {
    "id": 119352,
    "name": "Kahalu‘u",
    "state_id": 1411,
    "state_code": "HI",
    "country_id": 233,
    "country_code": "US",
    "latitude": "21.45759000",
    "longitude": "-157.84431000",
    "native": null,
    "timezone": null,
    "translations": {}
  },
  {
    "id": 119351,
    "name": "Kahaluu-Keauhou",
    "state_id": 1411,
    "state_code": "HI",
    "country_id": 233,
    "country_code": "US",
    "latitude": "19.57181000",
    "longitude": "-155.96172000",
    "native": null,
    "timezone": null,
    "translations": {}
  },
  {
    "id": 119354,
    "name": "Kahuku",
    "state_id": 1411,
    "state_code": "HI",
    "country_id": 233,
    "country_code": "US",
    "latitude": "21.68048000",
    "longitude": "-157.95237000",
    "native": null,
    "timezone": null,
    "translations": {}
  },
  {
    "id": 119355,
    "name": "Kahului",
    "state_id": 1411,
    "state_code": "HI",
    "country_id": 233,
    "country_code": "US",
    "latitude": "20.88953000",
    "longitude": "-156.47432000",
    "native": null,
    "timezone": null,
    "translations": {}
  },
  {
    "id": 119357,
    "name": "Kailua",
    "state_id": 1411,
    "state_code": "HI",
    "country_id": 233,
    "country_code": "US",
    "latitude": "21.40241000",
    "longitude": "-157.74054000",
    "native": null,
    "timezone": null,
    "translations": {}
  },
  {
    "id": 119358,
    "name": "Kailua-Kona",
    "state_id": 1411,
    "state_code": "HI",
    "country_id": 233,
    "country_code": "US",
    "latitude": "19.64016000",
    "longitude": "-155.99912000",
    "native": null,
    "timezone": null,
    "translations": {}
  },
  {
    "id": 119369,
    "name": "Kalāheo",
    "state_id": 1411,
    "state_code": "HI",
    "country_id": 233,
    "country_code": "US",
    "latitude": "21.92416000",
    "longitude": "-159.52686000",
    "native": null,
    "timezone": null,
    "translations": {}
  },
  {
    "id": 119362,
    "name": "Kalaoa",
    "state_id": 1411,
    "state_code": "HI",
    "country_id": 233,
    "country_code": "US",
    "latitude": "19.72861000",
    "longitude": "-155.98167000",
    "native": null,
    "timezone": null,
    "translations": {}
  },
  {
    "id": 119363,
    "name": "Kalawao County",
    "state_id": 1411,
    "state_code": "HI",
    "country_id": 233,
    "country_code": "US",
    "latitude": "21.18569000",
    "longitude": "-156.95944000",
    "native": null,
    "timezone": null,
    "translations": {}
  },
  {
    "id": 119379,
    "name": "Kaneohe",
    "state_id": 1411,
    "state_code": "HI",
    "country_id": 233,
    "country_code": "US",
    "latitude": "21.39994000",
    "longitude": "-157.79895000",
    "native": null,
    "timezone": null,
    "translations": {}
  },
  {
    "id": 119386,
    "name": "Kapa‘a",
    "state_id": 1411,
    "state_code": "HI",
    "country_id": 233,
    "country_code": "US",
    "latitude": "22.07521000",
    "longitude": "-159.31895000",
    "native": null,
    "timezone": null,
    "translations": {}
  },
  {
    "id": 119385,
    "name": "Kapaau",
    "state_id": 1411,
    "state_code": "HI",
    "country_id": 233,
    "country_code": "US",
    "latitude": "20.23389000",
    "longitude": "-155.80194000",
    "native": null,
    "timezone": null,
    "translations": {}
  },
  {
    "id": 119388,
    "name": "Kapolei",
    "state_id": 1411,
    "state_code": "HI",
    "country_id": 233,
    "country_code": "US",
    "latitude": "21.33555000",
    "longitude": "-158.05820000",
    "native": null,
    "timezone": null,
    "translations": {}
  },
  {
    "id": 119396,
    "name": "Kauai County",
    "state_id": 1411,
    "state_code": "HI",
    "country_id": 233,
    "country_code": "US",
    "latitude": "22.01108000",
    "longitude": "-159.70544000",
    "native": null,
    "timezone": null,
    "translations": {}
  },
  {
    "id": 119400,
    "name": "Kaunakakai",
    "state_id": 1411,
    "state_code": "HI",
    "country_id": 233,
    "country_code": "US",
    "latitude": "21.09363000",
    "longitude": "-157.02613000",
    "native": null,
    "timezone": null,
    "translations": {}
  },
  {
    "id": 119415,
    "name": "Kea‘au",
    "state_id": 1411,
    "state_code": "HI",
    "country_id": 233,
    "country_code": "US",
    "latitude": "19.62265000",
    "longitude": "-155.03744000",
    "native": null,
    "timezone": null,
    "translations": {}
  },
  {
    "id": 119405,
    "name": "Kealakekua",
    "state_id": 1411,
    "state_code": "HI",
    "country_id": 233,
    "country_code": "US",
    "latitude": "19.52083000",
    "longitude": "-155.92250000",
    "native": null,
    "timezone": null,
    "translations": {}
  },
  {
    "id": 119427,
    "name": "Kekaha",
    "state_id": 1411,
    "state_code": "HI",
    "country_id": 233,
    "country_code": "US",
    "latitude": "21.96686000",
    "longitude": "-159.71186000",
    "native": null,
    "timezone": null,
    "translations": {}
  },
  {
    "id": 119731,
    "name": "Kēōkea",
    "state_id": 1411,
    "state_code": "HI",
    "country_id": 233,
    "country_code": "US",
    "latitude": "20.70711000",
    "longitude": "-156.35446000",
    "native": null,
    "timezone": null,
    "translations": {}
  },
  {
    "id": 119732,
    "name": "Kīhei",
    "state_id": 1411,
    "state_code": "HI",
    "country_id": 233,
    "country_code": "US",
    "latitude": "20.76462000",
    "longitude": "-156.44578000",
    "native": null,
    "timezone": null,
    "translations": {}
  },
  {
    "id": 119733,
    "name": "Kīlauea",
    "state_id": 1411,
    "state_code": "HI",
    "country_id": 233,
    "country_code": "US",
    "latitude": "22.21208000",
    "longitude": "-159.41342000",
    "native": null,
    "timezone": null,
    "translations": {}
  },
  {
    "id": 119697,
    "name": "Ko Olina",
    "state_id": 1411,
    "state_code": "HI",
    "country_id": 233,
    "country_code": "US",
    "latitude": "21.33993000",
    "longitude": "-158.12562000",
    "native": null,
    "timezone": null,
    "translations": {}
  },
  {
    "id": 119703,
    "name": "Koloa",
    "state_id": 1411,
    "state_code": "HI",
    "country_id": 233,
    "country_code": "US",
    "latitude": "21.90690000",
    "longitude": "-159.46994000",
    "native": null,
    "timezone": null,
    "translations": {}
  },
  {
    "id": 119721,
    "name": "Kualapu‘u",
    "state_id": 1411,
    "state_code": "HI",
    "country_id": 233,
    "country_code": "US",
    "latitude": "21.15306000",
    "longitude": "-157.03677000",
    "native": null,
    "timezone": null,
    "translations": {}
  },
  {
    "id": 119722,
    "name": "Kula",
    "state_id": 1411,
    "state_code": "HI",
    "country_id": 233,
    "country_code": "US",
    "latitude": "20.79094000",
    "longitude": "-156.32695000",
    "native": null,
    "timezone": null,
    "translations": {}
  },
  {
    "id": 119727,
    "name": "Kurtistown",
    "state_id": 1411,
    "state_code": "HI",
    "country_id": 233,
    "country_code": "US",
    "latitude": "19.60361000",
    "longitude": "-155.05722000",
    "native": null,
    "timezone": null,
    "translations": {}
  },
  {
    "id": 120947,
    "name": "Lā‘ie",
    "state_id": 1411,
    "state_code": "HI",
    "country_id": 233,
    "country_code": "US",
    "latitude": "21.64547000",
    "longitude": "-157.92250000",
    "native": null,
    "timezone": null,
    "translations": {}
  },
  {
    "id": 119860,
    "name": "Lahaina",
    "state_id": 1411,
    "state_code": "HI",
    "country_id": 233,
    "country_code": "US",
    "latitude": "20.87429000",
    "longitude": "-156.67663000",
    "native": null,
    "timezone": null,
    "translations": {}
  },
  {
    "id": 120078,
    "name": "Lanai City",
    "state_id": 1411,
    "state_code": "HI",
    "country_id": 233,
    "country_code": "US",
    "latitude": "20.82757000",
    "longitude": "-156.92399000",
    "native": null,
    "timezone": null,
    "translations": {}
  },
  {
    "id": 120221,
    "name": "Lawai",
    "state_id": 1411,
    "state_code": "HI",
    "country_id": 233,
    "country_code": "US",
    "latitude": "21.92159000",
    "longitude": "-159.50376000",
    "native": null,
    "timezone": null,
    "translations": {}
  },
  {
    "id": 120339,
    "name": "Leilani Estates",
    "state_id": 1411,
    "state_code": "HI",
    "country_id": 233,
    "country_code": "US",
    "latitude": "19.46972000",
    "longitude": "-154.91778000",
    "native": null,
    "timezone": null,
    "translations": {}
  },
  {
    "id": 120483,
    "name": "Lihue",
    "state_id": 1411,
    "state_code": "HI",
    "country_id": 233,
    "country_code": "US",
    "latitude": "21.98121000",
    "longitude": "-159.37210000",
    "native": null,
    "timezone": null,
    "translations": {}
  },
  {
    "id": 122530,
    "name": "Mā‘ili",
    "state_id": 1411,
    "state_code": "HI",
    "country_id": 233,
    "country_code": "US",
    "latitude": "21.41629000",
    "longitude": "-158.17531000",
    "native": null,
    "timezone": null,
    "translations": {}
  },
  {
    "id": 122528,
    "name": "Mākaha",
    "state_id": 1411,
    "state_code": "HI",
    "country_id": 233,
    "country_code": "US",
    "latitude": "21.46627000",
    "longitude": "-158.21037000",
    "native": null,
    "timezone": null,
    "translations": {}
  },
  {
    "id": 122529,
    "name": "Mākaha Valley",
    "state_id": 1411,
    "state_code": "HI",
    "country_id": 233,
    "country_code": "US",
    "latitude": "21.47583000",
    "longitude": "-158.19918000",
    "native": null,
    "timezone": null,
    "translations": {}
  },
  {
    "id": 121054,
    "name": "Makakilo City",
    "state_id": 1411,
    "state_code": "HI",
    "country_id": 233,
    "country_code": "US",
    "latitude": "21.34694000",
    "longitude": "-158.08583000",
    "native": null,
    "timezone": null,
    "translations": {}
  },
  {
    "id": 121055,
    "name": "Makawao",
    "state_id": 1411,
    "state_code": "HI",
    "country_id": 233,
    "country_code": "US",
    "latitude": "20.85694000",
    "longitude": "-156.31306000",
    "native": null,
    "timezone": null,
    "translations": {}
  },
  {
    "id": 121226,
    "name": "Marine Corps Base Hawaii - MCBH",
    "state_id": 1411,
    "state_code": "HI",
    "country_id": 233,
    "country_code": "US",
    "latitude": "21.44336000",
    "longitude": "-157.74981000",
    "native": null,
    "timezone": null,
    "translations": {}
  },
  {
    "id": 121419,
    "name": "Maui",
    "state_id": 1411,
    "state_code": "HI",
    "country_id": 233,
    "country_code": "US",
    "latitude": "20.80332290",
    "longitude": "-156.66763530",
    "native": null,
    "timezone": null,
    "translations": {}
  },
  {
    "id": 121422,
    "name": "Maunawili",
    "state_id": 1411,
    "state_code": "HI",
    "country_id": 233,
    "country_code": "US",
    "latitude": "21.37278000",
    "longitude": "-157.77056000",
    "native": null,
    "timezone": null,
    "translations": {}
  },
  {
    "id": 121861,
    "name": "Mililani Town",
    "state_id": 1411,
    "state_code": "HI",
    "country_id": 233,
    "country_code": "US",
    "latitude": "21.45000000",
    "longitude": "-158.00111000",
    "native": null,
    "timezone": null,
    "translations": {}
  },
  {
    "id": 122025,
    "name": "Mokulēia",
    "state_id": 1411,
    "state_code": "HI",
    "country_id": 233,
    "country_code": "US",
    "latitude": "21.57967000",
    "longitude": "-158.15313000",
    "native": null,
    "timezone": null,
    "translations": {}
  },
  {
    "id": 122432,
    "name": "Mountain View",
    "state_id": 1411,
    "state_code": "HI",
    "country_id": 233,
    "country_code": "US",
    "latitude": "19.55583000",
    "longitude": "-155.10806000",
    "native": null,
    "timezone": null,
    "translations": {}
  },
  {
    "id": 123224,
    "name": "Nānākuli",
    "state_id": 1411,
    "state_code": "HI",
    "country_id": 233,
    "country_code": "US",
    "latitude": "21.39362000",
    "longitude": "-158.15429000",
    "native": null,
    "timezone": null,
    "translations": {}
  },
  {
    "id": 122539,
    "name": "Nanawale Estates",
    "state_id": 1411,
    "state_code": "HI",
    "country_id": 233,
    "country_code": "US",
    "latitude": "19.50611000",
    "longitude": "-154.91194000",
    "native": null,
    "timezone": null,
    "translations": {}
  },
  {
    "id": 122551,
    "name": "Napili-Honokowai",
    "state_id": 1411,
    "state_code": "HI",
    "country_id": 233,
    "country_code": "US",
    "latitude": "20.97533000",
    "longitude": "-156.67826000",
    "native": null,
    "timezone": null,
    "translations": {}
  },
  {
    "id": 123334,
    "name": "Ocean Pointe",
    "state_id": 1411,
    "state_code": "HI",
    "country_id": 233,
    "country_code": "US",
    "latitude": "21.31066000",
    "longitude": "-158.03638000",
    "native": null,
    "timezone": null,
    "translations": {}
  },
  {
    "id": 123540,
    "name": "Orchidlands Estates",
    "state_id": 1411,
    "state_code": "HI",
    "country_id": 233,
    "country_code": "US",
    "latitude": "19.56084000",
    "longitude": "-155.01527000",
    "native": null,
    "timezone": null,
    "translations": {}
  },
  {
    "id": 124773,
    "name": "Pāhala",
    "state_id": 1411,
    "state_code": "HI",
    "country_id": 233,
    "country_code": "US",
    "latitude": "19.20297000",
    "longitude": "-155.47860000",
    "native": null,
    "timezone": null,
    "translations": {}
  },
  {
    "id": 123725,
    "name": "Paia",
    "state_id": 1411,
    "state_code": "HI",
    "country_id": 233,
    "country_code": "US",
    "latitude": "20.90333000",
    "longitude": "-156.36944000",
    "native": null,
    "timezone": null,
    "translations": {}
  },
  {
    "id": 124774,
    "name": "Pāpa‘ikou",
    "state_id": 1411,
    "state_code": "HI",
    "country_id": 233,
    "country_code": "US",
    "latitude": "19.78718000",
    "longitude": "-155.09326000",
    "native": null,
    "timezone": null,
    "translations": {}
  },
  {
    "id": 123965,
    "name": "Pearl City",
    "state_id": 1411,
    "state_code": "HI",
    "country_id": 233,
    "country_code": "US",
    "latitude": "21.39734000",
    "longitude": "-157.97516000",
    "native": null,
    "timezone": null,
    "translations": {}
  },
  {
    "id": 124052,
    "name": "Pepeekeo",
    "state_id": 1411,
    "state_code": "HI",
    "country_id": 233,
    "country_code": "US",
    "latitude": "19.83361000",
    "longitude": "-155.10722000",
    "native": null,
    "timezone": null,
    "translations": {}
  },
  {
    "id": 124696,
    "name": "Princeville",
    "state_id": 1411,
    "state_code": "HI",
    "country_id": 233,
    "country_code": "US",
    "latitude": "22.21758000",
    "longitude": "-159.47888000",
    "native": null,
    "timezone": null,
    "translations": {}
  },
  {
    "id": 124731,
    "name": "Puhi",
    "state_id": 1411,
    "state_code": "HI",
    "country_id": 233,
    "country_code": "US",
    "latitude": "21.96888000",
    "longitude": "-159.40012000",
    "native": null,
    "timezone": null,
    "translations": {}
  },
  {
    "id": 124732,
    "name": "Pukalani",
    "state_id": 1411,
    "state_code": "HI",
    "country_id": 233,
    "country_code": "US",
    "latitude": "20.83667000",
    "longitude": "-156.33667000",
    "native": null,
    "timezone": null,
    "translations": {}
  },
  {
    "id": 124747,
    "name": "Punalu‘u",
    "state_id": 1411,
    "state_code": "HI",
    "country_id": 233,
    "country_code": "US",
    "latitude": "21.57045000",
    "longitude": "-157.87557000",
    "native": null,
    "timezone": null,
    "translations": {}
  },
  {
    "id": 124752,
    "name": "Pupukea",
    "state_id": 1411,
    "state_code": "HI",
    "country_id": 233,
    "country_code": "US",
    "latitude": "21.65456000",
    "longitude": "-158.06065000",
    "native": null,
    "timezone": null,
    "translations": {}
  },
  {
    "id": 125489,
    "name": "Royal Kunia",
    "state_id": 1411,
    "state_code": "HI",
    "country_id": 233,
    "country_code": "US",
    "latitude": "21.39392000",
    "longitude": "-158.02670000",
    "native": null,
    "timezone": null,
    "translations": {}
  },
  {
    "id": 126014,
    "name": "Schofield Barracks",
    "state_id": 1411,
    "state_code": "HI",
    "country_id": 233,
    "country_code": "US",
    "latitude": "21.49837000",
    "longitude": "-158.06515000",
    "native": null,
    "timezone": null,
    "translations": {}
  },
  {
    "id": 128249,
    "name": "Village Park",
    "state_id": 1411,
    "state_code": "HI",
    "country_id": 233,
    "country_code": "US",
    "latitude": "21.39806000",
    "longitude": "-158.03028000",
    "native": null,
    "timezone": null,
    "translations": {}
  },
  {
    "id": 128299,
    "name": "Volcano",
    "state_id": 1411,
    "state_code": "HI",
    "country_id": 233,
    "country_code": "US",
    "latitude": "19.44276000",
    "longitude": "-155.23398000",
    "native": null,
    "timezone": null,
    "translations": {}
  },
  {
    "id": 128331,
    "name": "Wahiawā",
    "state_id": 1411,
    "state_code": "HI",
    "country_id": 233,
    "country_code": "US",
    "latitude": "21.50279000",
    "longitude": "-158.02464000",
    "native": null,
    "timezone": null,
    "translations": {}
  },
  {
    "id": 128336,
    "name": "Waialua",
    "state_id": 1411,
    "state_code": "HI",
    "country_id": 233,
    "country_code": "US",
    "latitude": "21.57688000",
    "longitude": "-158.13154000",
    "native": null,
    "timezone": null,
    "translations": {}
  },
  {
    "id": 128337,
    "name": "Waianae",
    "state_id": 1411,
    "state_code": "HI",
    "country_id": 233,
    "country_code": "US",
    "latitude": "21.43785000",
    "longitude": "-158.18555000",
    "native": null,
    "timezone": null,
    "translations": {}
  },
  {
    "id": 128338,
    "name": "Waihee-Waiehu",
    "state_id": 1411,
    "state_code": "HI",
    "country_id": 233,
    "country_code": "US",
    "latitude": "20.93022000",
    "longitude": "-156.50458000",
    "native": null,
    "timezone": null,
    "translations": {}
  },
  {
    "id": 128339,
    "name": "Waikapū",
    "state_id": 1411,
    "state_code": "HI",
    "country_id": 233,
    "country_code": "US",
    "latitude": "20.85806000",
    "longitude": "-156.50694000",
    "native": null,
    "timezone": null,
    "translations": {}
  },
  {
    "id": 128340,
    "name": "Waikoloa",
    "state_id": 1411,
    "state_code": "HI",
    "country_id": 233,
    "country_code": "US",
    "latitude": "19.93942000",
    "longitude": "-155.78931000",
    "native": null,
    "timezone": null,
    "translations": {}
  },
  {
    "id": 128341,
    "name": "Wailea",
    "state_id": 1411,
    "state_code": "HI",
    "country_id": 233,
    "country_code": "US",
    "latitude": "20.68973000",
    "longitude": "-156.44190000",
    "native": null,
    "timezone": null,
    "translations": {}
  },
  {
    "id": 128342,
    "name": "Wailua",
    "state_id": 1411,
    "state_code": "HI",
    "country_id": 233,
    "country_code": "US",
    "latitude": "22.05271000",
    "longitude": "-159.33781000",
    "native": null,
    "timezone": null,
    "translations": {}
  },
  {
    "id": 128343,
    "name": "Wailua Homesteads",
    "state_id": 1411,
    "state_code": "HI",
    "country_id": 233,
    "country_code": "US",
    "latitude": "22.07244000",
    "longitude": "-159.37677000",
    "native": null,
    "timezone": null,
    "translations": {}
  },
  {
    "id": 128344,
    "name": "Wailuku",
    "state_id": 1411,
    "state_code": "HI",
    "country_id": 233,
    "country_code": "US",
    "latitude": "20.89133000",
    "longitude": "-156.50604000",
    "native": null,
    "timezone": null,
    "translations": {}
  },
  {
    "id": 128345,
    "name": "Waimalu",
    "state_id": 1411,
    "state_code": "HI",
    "country_id": 233,
    "country_code": "US",
    "latitude": "21.40472000",
    "longitude": "-157.94333000",
    "native": null,
    "timezone": null,
    "translations": {}
  },
  {
    "id": 128346,
    "name": "Waimanalo",
    "state_id": 1411,
    "state_code": "HI",
    "country_id": 233,
    "country_code": "US",
    "latitude": "21.34614000",
    "longitude": "-157.72380000",
    "native": null,
    "timezone": null,
    "translations": {}
  },
  {
    "id": 128348,
    "name": "Waimānalo Beach",
    "state_id": 1411,
    "state_code": "HI",
    "country_id": 233,
    "country_code": "US",
    "latitude": "21.33407000",
    "longitude": "-157.70003000",
    "native": null,
    "timezone": null,
    "translations": {}
  },
  {
    "id": 128347,
    "name": "Waimea",
    "state_id": 1411,
    "state_code": "HI",
    "country_id": 233,
    "country_code": "US",
    "latitude": "20.02323000",
    "longitude": "-155.67288000",
    "native": null,
    "timezone": null,
    "translations": {}
  },
  {
    "id": 128349,
    "name": "Wainaku",
    "state_id": 1411,
    "state_code": "HI",
    "country_id": 233,
    "country_code": "US",
    "latitude": "19.74472000",
    "longitude": "-155.09500000",
    "native": null,
    "timezone": null,
    "translations": {}
  },
  {
    "id": 128350,
    "name": "Waipahu",
    "state_id": 1411,
    "state_code": "HI",
    "country_id": 233,
    "country_code": "US",
    "latitude": "21.38667000",
    "longitude": "-158.00917000",
    "native": null,
    "timezone": null,
    "translations": {}
  },
  {
    "id": 128352,
    "name": "Waipi‘o Acres",
    "state_id": 1411,
    "state_code": "HI",
    "country_id": 233,
    "country_code": "US",
    "latitude": "21.46485000",
    "longitude": "-158.01331000",
    "native": null,
    "timezone": null,
    "translations": {}
  },
  {
    "id": 128351,
    "name": "Waipio",
    "state_id": 1411,
    "state_code": "HI",
    "country_id": 233,
    "country_code": "US",
    "latitude": "21.41823000",
    "longitude": "-157.99906000",
    "native": null,
    "timezone": null,
    "translations": {}
  },
  {
    "id": 129207,
    "name": "Whitmore Village",
    "state_id": 1411,
    "state_code": "HI",
    "country_id": 233,
    "country_code": "US",
    "latitude": "21.51429000",
    "longitude": "-158.02464000",
    "native": null,
    "timezone": null,
    "translations": {}
  }
]