[
  {
    "id": 52424,
    "name": "Agía Triáda",
    "state_id": 2127,
    "state_code": "23",
    "country_id": 85,
    "country_code": "GR",
    "latitude": "39.46361000",
    "longitude": "21.89848000",
    "native": null,
    "timezone": null,
    "translations": {}
  },
  {
    "id": 52412,
    "name": "Agnanteró",
    "state_id": 2127,
    "state_code": "23",
    "country_id": 85,
    "country_code": "GR",
    "latitude": "39.48586000",
    "longitude": "21.84789000",
    "native": null,
    "timezone": null,
    "translations": {}
  },
  {
    "id": 52477,
    "name": "Anávra",
    "state_id": 2127,
    "state_code": "23",
    "country_id": 85,
    "country_code": "GR",
    "latitude": "39.18996000",
    "longitude": "22.09308000",
    "native": null,
    "timezone": null,
    "translations": {}
  },
  {
    "id": 52469,
    "name": "Anthiró",
    "state_id": 2127,
    "state_code": "23",
    "country_id": 85,
    "country_code": "GR",
    "latitude": "39.34722000",
    "longitude": "21.45833000",
    "native": null,
    "timezone": null,
    "translations": {}
  },
  {
    "id": 52499,
    "name": "Artesianó",
    "state_id": 2127,
    "state_code": "23",
    "country_id": 85,
    "country_code": "GR",
    "latitude": "39.40194000",
    "longitude": "21.89649000",
    "native": null,
    "timezone": null,
    "translations": {}
  },
  {
    "id": 52670,
    "name": "Itéa",
    "state_id": 2127,
    "state_code": "23",
    "country_id": 85,
    "country_code": "GR",
    "latitude": "39.45669000",
    "longitude": "22.16577000",
    "native": null,
    "timezone": null,
    "translations": {}
  },
  {
    "id": 52680,
    "name": "Kallifóni",
    "state_id": 2127,
    "state_code": "23",
    "country_id": 85,
    "country_code": "GR",
    "latitude": "39.27712000",
    "longitude": "21.96128000",
    "native": null,
    "timezone": null,
    "translations": {}
  },
  {
    "id": 52684,
    "name": "Kallíthiro",
    "state_id": 2127,
    "state_code": "23",
    "country_id": 85,
    "country_code": "GR",
    "latitude": "39.28099000",
    "longitude": "21.90491000",
    "native": null,
    "timezone": null,
    "translations": {}
  },
  {
    "id": 52713,
    "name": "Kardítsa",
    "state_id": 2127,
    "state_code": "23",
    "country_id": 85,
    "country_code": "GR",
    "latitude": "39.36485000",
    "longitude": "21.92191000",
    "native": null,
    "timezone": null,
    "translations": {}
  },
  {
    "id": 52710,
    "name": "Karditsomagoúla",
    "state_id": 2127,
    "state_code": "23",
    "country_id": 85,
    "country_code": "GR",
    "latitude": "39.39061000",
    "longitude": "21.92330000",
    "native": null,
    "timezone": null,
    "translations": {}
  },
  {
    "id": 52717,
    "name": "Karpochóri",
    "state_id": 2127,
    "state_code": "23",
    "country_id": 85,
    "country_code": "GR",
    "latitude": "39.33575000",
    "longitude": "22.01129000",
    "native": null,
    "timezone": null,
    "translations": {}
  },
  {
    "id": 52884,
    "name": "Magoúla",
    "state_id": 2127,
    "state_code": "23",
    "country_id": 85,
    "country_code": "GR",
    "latitude": "39.45395000",
    "longitude": "21.80351000",
    "native": null,
    "timezone": null,
    "translations": {}
  },
  {
    "id": 52889,
    "name": "Makrychóri",
    "state_id": 2127,
    "state_code": "23",
    "country_id": 85,
    "country_code": "GR",
    "latitude": "39.43978000",
    "longitude": "21.96582000",
    "native": null,
    "timezone": null,
    "translations": {}
  },
  {
    "id": 52907,
    "name": "Mavrommáti",
    "state_id": 2127,
    "state_code": "23",
    "country_id": 85,
    "country_code": "GR",
    "latitude": "39.42386000",
    "longitude": "21.69379000",
    "native": null,
    "timezone": null,
    "translations": {}
  },
  {
    "id": 52938,
    "name": "Mitrópoli",
    "state_id": 2127,
    "state_code": "23",
    "country_id": 85,
    "country_code": "GR",
    "latitude": "39.33933000",
    "longitude": "21.83751000",
    "native": null,
    "timezone": null,
    "translations": {}
  },
  {
    "id": 52942,
    "name": "Morfovoúni",
    "state_id": 2127,
    "state_code": "23",
    "country_id": 85,
    "country_code": "GR",
    "latitude": "39.35250000",
    "longitude": "21.75000000",
    "native": null,
    "timezone": null,
    "translations": {}
  },
  {
    "id": 52947,
    "name": "Mouzáki",
    "state_id": 2127,
    "state_code": "23",
    "country_id": 85,
    "country_code": "GR",
    "latitude": "39.42972000",
    "longitude": "21.66361000",
    "native": null,
    "timezone": null,
    "translations": {}
  },
  {
    "id": 53081,
    "name": "Palamás",
    "state_id": 2127,
    "state_code": "23",
    "country_id": 85,
    "country_code": "GR",
    "latitude": "39.46667000",
    "longitude": "22.08333000",
    "native": null,
    "timezone": null,
    "translations": {}
  },
  {
    "id": 53147,
    "name": "Proástio",
    "state_id": 2127,
    "state_code": "23",
    "country_id": 85,
    "country_code": "GR",
    "latitude": "39.48682000",
    "longitude": "21.90288000",
    "native": null,
    "timezone": null,
    "translations": {}
  },
  {
    "id": 53233,
    "name": "Sofádes",
    "state_id": 2127,
    "state_code": "23",
    "country_id": 85,
    "country_code": "GR",
    "latitude": "39.33333000",
    "longitude": "22.10000000",
    "native": null,
    "timezone": null,
    "translations": {}
  }
]