[
  {
    "id": 3901,
    "name": "Badakhshan",
    "country_id": 1,
    "country_code": "AF",
    "fips_code": null,
    "iso2": "BDS",
    "type": "province",
    "latitude": "36.80402540",
    "longitude": "71.36765800",
    "native": "Badakhshan",
    "timezone": "Asia/Kabul",
    "translations": {}
  },
  {
    "id": 3871,
    "name": "Badghis",
    "country_id": 1,
    "country_code": "AF",
    "fips_code": null,
    "iso2": "BDG",
    "type": "province",
    "latitude": "35.00000000",
    "longitude": "63.75000000",
    "native": "بادغیس",
    "timezone": "Asia/Kabul",
    "translations": {}
  },
  {
    "id": 3875,
    "name": "Baghlan",
    "country_id": 1,
    "country_code": "AF",
    "fips_code": null,
    "iso2": "BGL",
    "type": "province",
    "latitude": "36.17890260",
    "longitude": "68.74530640",
    "native": "بغلان",
    "timezone": "Asia/Kabul",
    "translations": {}
  },
  {
    "id": 3884,
    "name": "Balkh",
    "country_id": 1,
    "country_code": "AF",
    "fips_code": null,
    "iso2": "BAL",
    "type": "province",
    "latitude": "36.75506030",
    "longitude": "66.89753720",
    "native": "بلخ",
    "timezone": "Asia/Kabul",
    "translations": {}
  },
  {
    "id": 3872,
    "name": "Bamyan",
    "country_id": 1,
    "country_code": "AF",
    "fips_code": null,
    "iso2": "BAM",
    "type": "province",
    "latitude": "34.79463100",
    "longitude": "67.68433400",
    "native": "بامیان",
    "timezone": "Asia/Kabul",
    "translations": {}
  },
  {
    "id": 3892,
    "name": "Daykundi",
    "country_id": 1,
    "country_code": "AF",
    "fips_code": null,
    "iso2": "DAY",
    "type": "province",
    "latitude": "33.72511300",
    "longitude": "66.21965540",
    "native": "دیوکونډي",
    "timezone": "Asia/Kabul",
    "translations": {}
  },
  {
    "id": 3899,
    "name": "Farah",
    "country_id": 1,
    "country_code": "AF",
    "fips_code": null,
    "iso2": "FRA",
    "type": "province",
    "latitude": "32.37409070",
    "longitude": "62.11462660",
    "native": "فراه",
    "timezone": "Asia/Kabul",
    "translations": {}
  },
  {
    "id": 3889,
    "name": "Faryab",
    "country_id": 1,
    "country_code": "AF",
    "fips_code": null,
    "iso2": "FYB",
    "type": "province",
    "latitude": "35.92617840",
    "longitude": "64.62377580",
    "native": "د فارماب",
    "timezone": "Asia/Kabul",
    "translations": {}
  },
  {
    "id": 3870,
    "name": "Ghazni",
    "country_id": 1,
    "country_code": "AF",
    "fips_code": null,
    "iso2": "GHA",
    "type": "province",
    "latitude": "33.54505870",
    "longitude": "68.41739720",
    "native": "جمع",
    "timezone": "Asia/Kabul",
    "translations": {}
  },
  {
    "id": 3888,
    "name": "Ghōr",
    "country_id": 1,
    "country_code": "AF",
    "fips_code": null,
    "iso2": "GHO",
    "type": "province",
    "latitude": "34.16052570",
    "longitude": "64.92019490",
    "native": "Ghōr",
    "timezone": "Asia/Kabul",
    "translations": {}
  },
  {
    "id": 3873,
    "name": "Helmand",
    "country_id": 1,
    "country_code": "AF",
    "fips_code": null,
    "iso2": "HEL",
    "type": "province",
    "latitude": "31.00000000",
    "longitude": "64.00000000",
    "native": "Helmand",
    "timezone": "Asia/Kabul",
    "translations": {}
  },
  {
    "id": 3887,
    "name": "Herat",
    "country_id": 1,
    "country_code": "AF",
    "fips_code": null,
    "iso2": "HER",
    "type": "province",
    "latitude": "34.34914430",
    "longitude": "62.21632520",
    "native": "هرات",
    "timezone": "Asia/Kabul",
    "translations": {}
  },
  {
    "id": 3886,
    "name": "Jowzjan",
    "country_id": 1,
    "country_code": "AF",
    "fips_code": null,
    "iso2": "JOW",
    "type": "province",
    "latitude": "36.96657060",
    "longitude": "65.95602320",
    "native": "جوزجان",
    "timezone": "Asia/Kabul",
    "translations": {}
  },
  {
    "id": 3902,
    "name": "Kabul",
    "country_id": 1,
    "country_code": "AF",
    "fips_code": null,
    "iso2": "KAB",
    "type": "province",
    "latitude": "34.52664310",
    "longitude": "69.18490820",
    "native": "کابل",
    "timezone": "Asia/Kabul",
    "translations": {}
  },
  {
    "id": 3890,
    "name": "Kandahar",
    "country_id": 1,
    "country_code": "AF",
    "fips_code": null,
    "iso2": "KAN",
    "type": "province",
    "latitude": "31.62057380",
    "longitude": "65.71575730",
    "native": "کندهار",
    "timezone": "Asia/Kabul",
    "translations": {}
  },
  {
    "id": 3879,
    "name": "Kapisa",
    "country_id": 1,
    "country_code": "AF",
    "fips_code": null,
    "iso2": "KAP",
    "type": "province",
    "latitude": "34.90555600",
    "longitude": "69.74166700",
    "native": "کیپټن",
    "timezone": "Asia/Kabul",
    "translations": {}
  },
  {
    "id": 3878,
    "name": "Khost",
    "country_id": 1,
    "country_code": "AF",
    "fips_code": null,
    "iso2": "KHO",
    "type": "province",
    "latitude": "33.33914020",
    "longitude": "69.92063590",
    "native": "خوست",
    "timezone": "Asia/Kabul",
    "translations": {}
  },
  {
    "id": 3876,
    "name": "Kunar",
    "country_id": 1,
    "country_code": "AF",
    "fips_code": null,
    "iso2": "KNR",
    "type": "province",
    "latitude": "34.95000000",
    "longitude": "71.13333300",
    "native": "دری برابره",
    "timezone": "Asia/Kabul",
    "translations": {}
  },
  {
    "id": 3900,
    "name": "Kunduz Province",
    "country_id": 1,
    "country_code": "AF",
    "fips_code": null,
    "iso2": "KDZ",
    "type": "province",
    "latitude": "36.87071870",
    "longitude": "68.75635280",
    "native": "کندز ولایت",
    "timezone": "Asia/Kabul",
    "translations": {}
  },
  {
    "id": 3891,
    "name": "Laghman",
    "country_id": 1,
    "country_code": "AF",
    "fips_code": null,
    "iso2": "LAG",
    "type": "province",
    "latitude": "34.78333300",
    "longitude": "70.18333300",
    "native": "لغمان",
    "timezone": "Asia/Kabul",
    "translations": {}
  },
  {
    "id": 3897,
    "name": "Logar",
    "country_id": 1,
    "country_code": "AF",
    "fips_code": null,
    "iso2": "LOG",
    "type": "province",
    "latitude": "34.06535950",
    "longitude": "69.16017200",
    "native": "لوګر",
    "timezone": "Asia/Kabul",
    "translations": {}
  },
  {
    "id": 3882,
    "name": "Nangarhar",
    "country_id": 1,
    "country_code": "AF",
    "fips_code": null,
    "iso2": "NAN",
    "type": "province",
    "latitude": "34.22038900",
    "longitude": "70.38003140",
    "native": "Nangarhar",
    "timezone": "Asia/Kabul",
    "translations": {}
  },
  {
    "id": 3896,
    "name": "Nimruz",
    "country_id": 1,
    "country_code": "AF",
    "fips_code": null,
    "iso2": "NIM",
    "type": "province",
    "latitude": "30.77538110",
    "longitude": "62.47930880",
    "native": "نیمروز",
    "timezone": "Asia/Kabul",
    "translations": {}
  },
  {
    "id": 3880,
    "name": "Nuristan",
    "country_id": 1,
    "country_code": "AF",
    "fips_code": null,
    "iso2": "NUR",
    "type": "province",
    "latitude": "35.30000000",
    "longitude": "70.83333300",
    "native": "نورستان",
    "timezone": "Asia/Kabul",
    "translations": {}
  },
  {
    "id": 3894,
    "name": "Paktia",
    "country_id": 1,
    "country_code": "AF",
    "fips_code": null,
    "iso2": "PIA",
    "type": "province",
    "latitude": "33.70572400",
    "longitude": "69.40835550",
    "native": "بسته",
    "timezone": "Asia/Kabul",
    "translations": {}
  },
  {
    "id": 3877,
    "name": "Paktika",
    "country_id": 1,
    "country_code": "AF",
    "fips_code": null,
    "iso2": "PKA",
    "type": "province",
    "latitude": "32.39362310",
    "longitude": "68.70365140",
    "native": "بسته",
    "timezone": "Asia/Kabul",
    "translations": {}
  },
  {
    "id": 3881,
    "name": "Panjshir",
    "country_id": 1,
    "country_code": "AF",
    "fips_code": null,
    "iso2": "PAN",
    "type": "province",
    "latitude": "35.69735560",
    "longitude": "70.09996040",
    "native": "پنجشیر",
    "timezone": "Asia/Kabul",
    "translations": {}
  },
  {
    "id": 3895,
    "name": "Parwan",
    "country_id": 1,
    "country_code": "AF",
    "fips_code": null,
    "iso2": "PAR",
    "type": "province",
    "latitude": "34.97970140",
    "longitude": "68.91467030",
    "native": "ایوان",
    "timezone": "Asia/Kabul",
    "translations": {}
  },
  {
    "id": 3883,
    "name": "Samangan",
    "country_id": 1,
    "country_code": "AF",
    "fips_code": null,
    "iso2": "SAM",
    "type": "province",
    "latitude": "36.26749380",
    "longitude": "68.02153740",
    "native": "خدايه",
    "timezone": "Asia/Kabul",
    "translations": {}
  },
  {
    "id": 3885,
    "name": "Sar-e Pol",
    "country_id": 1,
    "country_code": "AF",
    "fips_code": null,
    "iso2": "SAR",
    "type": "province",
    "latitude": "36.21662800",
    "longitude": "65.93336000",
    "native": "سرپل پول",
    "timezone": "Asia/Kabul",
    "translations": {}
  },
  {
    "id": 3893,
    "name": "Takhar",
    "country_id": 1,
    "country_code": "AF",
    "fips_code": null,
    "iso2": "TAK",
    "type": "province",
    "latitude": "36.59407320",
    "longitude": "69.79389960",
    "native": "Takhar",
    "timezone": "Asia/Kabul",
    "translations": {}
  },
  {
    "id": 3898,
    "name": "Urozgan",
    "country_id": 1,
    "country_code": "AF",
    "fips_code": null,
    "iso2": "URU",
    "type": "province",
    "latitude": "32.81296810",
    "longitude": "66.01831850",
    "native": "ارزګان",
    "timezone": "Asia/Kabul",
    "translations": {}
  },
  {
    "id": 3874,
    "name": "Zabul",
    "country_id": 1,
    "country_code": "AF",
    "fips_code": null,
    "iso2": "ZAB",
    "type": "province",
    "latitude": "32.30689420",
    "longitude": "67.12990400",
    "native": "زابل",
    "timezone": "Asia/Kabul",
    "translations": {}
  }
]