[
  {
    "id": 97143,
    "name": "Aleksandrovo",
    "state_id": 3722,
    "state_code": "20",
    "country_id": 196,
    "country_code": "RS",
    "latitude": "45.63755000",
    "longitude": "20.59288000",
    "native": null,
    "timezone": null,
    "translations": {}
  },
  {
    "id": 155057,
    "name": "Aleksinac",
    "state_id": 3722,
    "state_code": "20",
    "country_id": 196,
    "country_code": "RS",
    "latitude": "43.55255480",
    "longitude": "21.63113320",
    "native": null,
    "timezone": null,
    "translations": {}
  },
  {
    "id": 155059,
    "name": "Doljevac",
    "state_id": 3722,
    "state_code": "20",
    "country_id": 196,
    "country_code": "RS",
    "latitude": "43.22262650",
    "longitude": "21.76288330",
    "native": null,
    "timezone": null,
    "translations": {}
  },
  {
    "id": 155058,
    "name": "Gadžin Han",
    "state_id": 3722,
    "state_code": "20",
    "country_id": 196,
    "country_code": "RS",
    "latitude": "43.23053490",
    "longitude": "22.01312530",
    "native": null,
    "timezone": null,
    "translations": {}
  },
  {
    "id": 155060,
    "name": "Merošina",
    "state_id": 3722,
    "state_code": "20",
    "country_id": 196,
    "country_code": "RS",
    "latitude": "43.30158010",
    "longitude": "21.52993050",
    "native": null,
    "timezone": null,
    "translations": {}
  },
  {
    "id": 97305,
    "name": "Niš",
    "state_id": 3722,
    "state_code": "20",
    "country_id": 196,
    "country_code": "RS",
    "latitude": "43.32472000",
    "longitude": "21.90333000",
    "native": null,
    "timezone": null,
    "translations": {}
  },
  {
    "id": 155061,
    "name": "Ražanj",
    "state_id": 3722,
    "state_code": "20",
    "country_id": 196,
    "country_code": "RS",
    "latitude": "43.70924730",
    "longitude": "21.41131260",
    "native": null,
    "timezone": null,
    "translations": {}
  },
  {
    "id": 155062,
    "name": "Svrljig",
    "state_id": 3722,
    "state_code": "20",
    "country_id": 196,
    "country_code": "RS",
    "latitude": "43.46937580",
    "longitude": "21.80472770",
    "native": null,
    "timezone": null,
    "translations": {}
  }
]