[
  {
    "id": 150733,
    "name": "Armardeh",
    "state_id": 3935,
    "state_code": "12",
    "country_id": 103,
    "country_code": "IR",
    "latitude": "35.93224610",
    "longitude": "45.79138040",
    "native": null,
    "timezone": null,
    "translations": {}
  },
  {
    "id": 150736,
    "name": "Babarashani",
    "state_id": 3935,
    "state_code": "12",
    "country_id": 103,
    "country_code": "IR",
    "latitude": "35.67817150",
    "longitude": "47.79385330",
    "native": null,
    "timezone": null,
    "translations": {}
  },
  {
    "id": 134600,
    "name": "Baneh",
    "state_id": 3935,
    "state_code": "12",
    "country_id": 103,
    "country_code": "IR",
    "latitude": "35.99750000",
    "longitude": "45.88530000",
    "native": null,
    "timezone": null,
    "translations": {}
  },
  {
    "id": 150749,
    "name": "Bardeh Rasheh",
    "state_id": 3935,
    "state_code": "12",
    "country_id": 103,
    "country_code": "IR",
    "latitude": "35.59324210",
    "longitude": "46.08397320",
    "native": null,
    "timezone": null,
    "translations": {}
  },
  {
    "id": 134601,
    "name": "Bijar",
    "state_id": 3935,
    "state_code": "12",
    "country_id": 103,
    "country_code": "IR",
    "latitude": "35.86680000",
    "longitude": "47.60506000",
    "native": null,
    "timezone": null,
    "translations": {}
  },
  {
    "id": 150734,
    "name": "Boeen-e-Sofla",
    "state_id": 3935,
    "state_code": "12",
    "country_id": 103,
    "country_code": "IR",
    "latitude": "35.93821400",
    "longitude": "45.93237870",
    "native": null,
    "timezone": null,
    "translations": {}
  },
  {
    "id": 150740,
    "name": "Bolbanabad ",
    "state_id": 3935,
    "state_code": "12",
    "country_id": 103,
    "country_code": "IR",
    "latitude": "35.13864820",
    "longitude": "47.30808610",
    "native": null,
    "timezone": null,
    "translations": {}
  },
  {
    "id": 150750,
    "name": "Chnare",
    "state_id": 3935,
    "state_code": "12",
    "country_id": 103,
    "country_code": "IR",
    "latitude": "35.63244780",
    "longitude": "46.30428320",
    "native": null,
    "timezone": null,
    "translations": {}
  },
  {
    "id": 134846,
    "name": "Dehgolan",
    "state_id": 3935,
    "state_code": "12",
    "country_id": 103,
    "country_code": "IR",
    "latitude": "35.35000000",
    "longitude": "47.35000000",
    "native": null,
    "timezone": null,
    "translations": {}
  },
  {
    "id": 150746,
    "name": "Delbaran",
    "state_id": 3935,
    "state_code": "12",
    "country_id": 103,
    "country_code": "IR",
    "latitude": "35.23720820",
    "longitude": "47.97538320",
    "native": null,
    "timezone": null,
    "translations": {}
  },
  {
    "id": 150745,
    "name": "Dezej",
    "state_id": 3935,
    "state_code": "12",
    "country_id": 103,
    "country_code": "IR",
    "latitude": "35.06467320",
    "longitude": "47.95909890",
    "native": null,
    "timezone": null,
    "translations": {}
  },
  {
    "id": 134854,
    "name": "Divandarreh",
    "state_id": 3935,
    "state_code": "12",
    "country_id": 103,
    "country_code": "IR",
    "latitude": "35.91667000",
    "longitude": "47.00000000",
    "native": null,
    "timezone": null,
    "translations": {}
  },
  {
    "id": 150739,
    "name": "Hasanabad Yasukand",
    "state_id": 3935,
    "state_code": "12",
    "country_id": 103,
    "country_code": "IR",
    "latitude": "36.28383610",
    "longitude": "47.73750810",
    "native": null,
    "timezone": null,
    "translations": {}
  },
  {
    "id": 134682,
    "name": "Kamyaran",
    "state_id": 3935,
    "state_code": "12",
    "country_id": 103,
    "country_code": "IR",
    "latitude": "34.79560000",
    "longitude": "46.93550000",
    "native": null,
    "timezone": null,
    "translations": {}
  },
  {
    "id": 150751,
    "name": "Kani Dinar",
    "state_id": 3935,
    "state_code": "12",
    "country_id": 103,
    "country_code": "IR",
    "latitude": "35.46323020",
    "longitude": "46.20749840",
    "native": null,
    "timezone": null,
    "translations": {}
  },
  {
    "id": 150735,
    "name": "Kani Sur",
    "state_id": 3935,
    "state_code": "12",
    "country_id": 103,
    "country_code": "IR",
    "latitude": "36.21481320",
    "longitude": "46.81190730",
    "native": null,
    "timezone": null,
    "translations": {}
  },
  {
    "id": 134697,
    "name": "Marivan",
    "state_id": 3935,
    "state_code": "12",
    "country_id": 103,
    "country_code": "IR",
    "latitude": "35.51829000",
    "longitude": "46.18298000",
    "native": null,
    "timezone": null,
    "translations": {}
  },
  {
    "id": 150748,
    "name": "Muchesh",
    "state_id": 3935,
    "state_code": "12",
    "country_id": 103,
    "country_code": "IR",
    "latitude": "35.05822680",
    "longitude": "47.14611050",
    "native": null,
    "timezone": null,
    "translations": {}
  },
  {
    "id": 150737,
    "name": "Pir Taj",
    "state_id": 3935,
    "state_code": "12",
    "country_id": 103,
    "country_code": "IR",
    "latitude": "35.77629810",
    "longitude": "48.11167520",
    "native": null,
    "timezone": null,
    "translations": {}
  },
  {
    "id": 134745,
    "name": "Qorveh",
    "state_id": 3935,
    "state_code": "12",
    "country_id": 103,
    "country_code": "IR",
    "latitude": "35.16640000",
    "longitude": "47.80564000",
    "native": null,
    "timezone": null,
    "translations": {}
  },
  {
    "id": 150743,
    "name": "Saheb",
    "state_id": 3935,
    "state_code": "12",
    "country_id": 103,
    "country_code": "IR",
    "latitude": "36.20290110",
    "longitude": "46.45328510",
    "native": null,
    "timezone": null,
    "translations": {}
  },
  {
    "id": 134765,
    "name": "Sanandaj",
    "state_id": 3935,
    "state_code": "12",
    "country_id": 103,
    "country_code": "IR",
    "latitude": "35.31495000",
    "longitude": "46.99883000",
    "native": null,
    "timezone": null,
    "translations": {}
  },
  {
    "id": 134766,
    "name": "Saqqez",
    "state_id": 3935,
    "state_code": "12",
    "country_id": 103,
    "country_code": "IR",
    "latitude": "36.24992000",
    "longitude": "46.27350000",
    "native": null,
    "timezone": null,
    "translations": {}
  },
  {
    "id": 135027,
    "name": "Sarvabad",
    "state_id": 3935,
    "state_code": "12",
    "country_id": 103,
    "country_code": "IR",
    "latitude": "35.25000000",
    "longitude": "46.33333000",
    "native": null,
    "timezone": null,
    "translations": {}
  },
  {
    "id": 150747,
    "name": "Serish Abad",
    "state_id": 3935,
    "state_code": "12",
    "country_id": 103,
    "country_code": "IR",
    "latitude": "35.24963130",
    "longitude": "47.76967040",
    "native": null,
    "timezone": null,
    "translations": {}
  },
  {
    "id": 150744,
    "name": "Shuyesheh",
    "state_id": 3935,
    "state_code": "12",
    "country_id": 103,
    "country_code": "IR",
    "latitude": "35.35699600",
    "longitude": "46.67322630",
    "native": null,
    "timezone": null,
    "translations": {}
  },
  {
    "id": 150738,
    "name": "Tup Aghaj",
    "state_id": 3935,
    "state_code": "12",
    "country_id": 103,
    "country_code": "IR",
    "latitude": "36.04829630",
    "longitude": "47.81754160",
    "native": null,
    "timezone": null,
    "translations": {}
  },
  {
    "id": 150742,
    "name": "Uraman Takht",
    "state_id": 3935,
    "state_code": "12",
    "country_id": 103,
    "country_code": "IR",
    "latitude": "35.25282120",
    "longitude": "46.25915770",
    "native": null,
    "timezone": null,
    "translations": {}
  },
  {
    "id": 150741,
    "name": "Zarrineh ",
    "state_id": 3935,
    "state_code": "12",
    "country_id": 103,
    "country_code": "IR",
    "latitude": "36.06053080",
    "longitude": "46.91183560",
    "native": null,
    "timezone": null,
    "translations": {}
  }
]