[
  {
    "id": 175,
    "name": "Bashkia Malësi e Madhe",
    "state_id": 626,
    "state_code": "SH",
    "country_id": 3,
    "country_code": "AL",
    "latitude": "42.36798000",
    "longitude": "19.58977000",
    "native": null,
    "timezone": null,
    "translations": {}
  },
  {
    "id": 181,
    "name": "Bashkia Pukë",
    "state_id": 626,
    "state_code": "SH",
    "country_id": 3,
    "country_code": "AL",
    "latitude": "42.02997000",
    "longitude": "19.92778000",
    "native": null,
    "timezone": null,
    "translations": {}
  },
  {
    "id": 188,
    "name": "Bashkia Vau i Dejës",
    "state_id": 626,
    "state_code": "SH",
    "country_id": 3,
    "country_code": "AL",
    "latitude": "42.04834000",
    "longitude": "19.69999000",
    "native": null,
    "timezone": null,
    "translations": {}
  },
  {
    "id": 202,
    "name": "Fushë-Arrëz",
    "state_id": 626,
    "state_code": "SH",
    "country_id": 3,
    "country_code": "AL",
    "latitude": "42.06222000",
    "longitude": "20.01667000",
    "native": null,
    "timezone": null,
    "translations": {}
  },
  {
    "id": 211,
    "name": "Koplik",
    "state_id": 626,
    "state_code": "SH",
    "country_id": 3,
    "country_code": "AL",
    "latitude": "42.21361000",
    "longitude": "19.43639000",
    "native": null,
    "timezone": null,
    "translations": {}
  },
  {
    "id": 239,
    "name": "Pukë",
    "state_id": 626,
    "state_code": "SH",
    "country_id": 3,
    "country_code": "AL",
    "latitude": "42.04444000",
    "longitude": "19.89972000",
    "native": null,
    "timezone": null,
    "translations": {}
  },
  {
    "id": 255,
    "name": "Rrethi i Malësia e Madhe",
    "state_id": 626,
    "state_code": "SH",
    "country_id": 3,
    "country_code": "AL",
    "latitude": "42.33333000",
    "longitude": "19.58333000",
    "native": null,
    "timezone": null,
    "translations": {}
  },
  {
    "id": 257,
    "name": "Rrethi i Shkodrës",
    "state_id": 626,
    "state_code": "SH",
    "country_id": 3,
    "country_code": "AL",
    "latitude": "42.06917000",
    "longitude": "19.53506000",
    "native": null,
    "timezone": null,
    "translations": {}
  },
  {
    "id": 266,
    "name": "Shkodër",
    "state_id": 626,
    "state_code": "SH",
    "country_id": 3,
    "country_code": "AL",
    "latitude": "42.06828000",
    "longitude": "19.51258000",
    "native": null,
    "timezone": null,
    "translations": {}
  },
  {
    "id": 274,
    "name": "Vau i Dejës",
    "state_id": 626,
    "state_code": "SH",
    "country_id": 3,
    "country_code": "AL",
    "latitude": "42.01000000",
    "longitude": "19.62472000",
    "native": null,
    "timezone": null,
    "translations": {}
  },
  {
    "id": 279,
    "name": "Vukatanë",
    "state_id": 626,
    "state_code": "SH",
    "country_id": 3,
    "country_code": "AL",
    "latitude": "42.02806000",
    "longitude": "19.54778000",
    "native": null,
    "timezone": null,
    "translations": {}
  }
]