[
  {
    "id": 807,
    "name": "Barisal ",
    "country_id": 19,
    "country_code": "BD",
    "fips_code": null,
    "iso2": "A",
    "type": "division",
    "latitude": "22.49340350",
    "longitude": "90.35480150",
    "native": "Barisal",
    "timezone": "Asia/Dhaka",
    "translations": {}
  },
  {
    "id": 803,
    "name": "Chittagong ",
    "country_id": 19,
    "country_code": "BD",
    "fips_code": null,
    "iso2": "B",
    "type": "division",
    "latitude": "22.68004660",
    "longitude": "91.88399380",
    "native": "চট্টগ্রাম",
    "timezone": "Asia/Dhaka",
    "translations": {}
  },
  {
    "id": 760,
    "name": "Dhaka ",
    "country_id": 19,
    "country_code": "BD",
    "fips_code": null,
    "iso2": "C",
    "type": "division",
    "latitude": "23.94561660",
    "longitude": "90.25263820",
    "native": "Dhaka াকা",
    "timezone": "Asia/Dhaka",
    "translations": {}
  },
  {
    "id": 775,
    "name": "Khulna ",
    "country_id": 19,
    "country_code": "BD",
    "fips_code": null,
    "iso2": "D",
    "type": "division",
    "latitude": "22.93720870",
    "longitude": "89.28527410",
    "native": "খুলনা",
    "timezone": "Asia/Dhaka",
    "translations": {}
  },
  {
    "id": 758,
    "name": "Mymensingh ",
    "country_id": 19,
    "country_code": "BD",
    "fips_code": null,
    "iso2": "H",
    "type": "division",
    "latitude": "24.74821290",
    "longitude": "90.40991580",
    "native": "মাইমেনসিংহ",
    "timezone": "Asia/Dhaka",
    "translations": {}
  },
  {
    "id": 753,
    "name": "Rajshahi ",
    "country_id": 19,
    "country_code": "BD",
    "fips_code": null,
    "iso2": "E",
    "type": "division",
    "latitude": "24.62854320",
    "longitude": "89.03768620",
    "native": "রাজশাহী",
    "timezone": "Asia/Dhaka",
    "translations": {}
  },
  {
    "id": 750,
    "name": "Rangpur ",
    "country_id": 19,
    "country_code": "BD",
    "fips_code": null,
    "iso2": "F",
    "type": "division",
    "latitude": "25.63761350",
    "longitude": "89.08263810",
    "native": "রংপুর",
    "timezone": "Asia/Dhaka",
    "translations": {}
  },
  {
    "id": 765,
    "name": "Sylhet ",
    "country_id": 19,
    "country_code": "BD",
    "fips_code": null,
    "iso2": "G",
    "type": "division",
    "latitude": "24.73588540",
    "longitude": "91.68524760",
    "native": "সিলেট",
    "timezone": "Asia/Dhaka",
    "translations": {}
  }
]