[
  {
    "id": 3396,
    "name": "Abu Dhabi",
    "country_id": 231,
    "country_code": "AE",
    "fips_code": null,
    "iso2": "AZ",
    "type": "emirate",
    "latitude": "24.45388400",
    "longitude": "54.37734380",
    "native": "أبو ظبي",
    "timezone": "Asia/Dubai",
    "translations": {}
  },
  {
    "id": 3395,
    "name": "Ajman",
    "country_id": 231,
    "country_code": "AE",
    "fips_code": null,
    "iso2": "AJ",
    "type": "emirate",
    "latitude": "25.39365570",
    "longitude": "55.44514320",
    "native": "عجمان",
    "timezone": "Asia/Dubai",
    "translations": {}
  },
  {
    "id": 3391,
    "name": "Dubai",
    "country_id": 231,
    "country_code": "AE",
    "fips_code": null,
    "iso2": "DU",
    "type": "emirate",
    "latitude": "25.26472270",
    "longitude": "55.29241460",
    "native": "دبي",
    "timezone": "Asia/Dubai",
    "translations": {}
  },
  {
    "id": 3393,
    "name": "Fujairah",
    "country_id": 231,
    "country_code": "AE",
    "fips_code": null,
    "iso2": "FU",
    "type": "emirate",
    "latitude": "25.12446040",
    "longitude": "56.33550850",
    "native": "فجيرة",
    "timezone": "Asia/Dubai",
    "translations": {}
  },
  {
    "id": 3394,
    "name": "Ras Al Khaimah",
    "country_id": 231,
    "country_code": "AE",
    "fips_code": null,
    "iso2": "RK",
    "type": "emirate",
    "latitude": "25.73863490",
    "longitude": "55.92492240",
    "native": "Ras Al Khaimah",
    "timezone": "Asia/Dubai",
    "translations": {}
  },
  {
    "id": 3390,
    "name": "Sharjah",
    "country_id": 231,
    "country_code": "AE",
    "fips_code": null,
    "iso2": "SH",
    "type": "emirate",
    "latitude": "25.34614980",
    "longitude": "55.42106330",
    "native": "الشارقة",
    "timezone": "Asia/Dubai",
    "translations": {}
  },
  {
    "id": 3392,
    "name": "Umm Al Quwain",
    "country_id": 231,
    "country_code": "AE",
    "fips_code": null,
    "iso2": "UQ",
    "type": "emirate",
    "latitude": "25.61124880",
    "longitude": "55.61746310",
    "native": "أم القوي",
    "timezone": "Asia/Dubai",
    "translations": {}
  }
]