[
  {
    "id": 17389,
    "name": "Altendorf",
    "state_id": 1653,
    "state_code": "SZ",
    "country_id": 214,
    "country_code": "CH",
    "latitude": "47.18994000",
    "longitude": "8.83823000",
    "native": null,
    "timezone": null,
    "translations": {}
  },
  {
    "id": 17410,
    "name": "Arth",
    "state_id": 1653,
    "state_code": "SZ",
    "country_id": 214,
    "country_code": "CH",
    "latitude": "47.06337000",
    "longitude": "8.52349000",
    "native": null,
    "timezone": null,
    "translations": {}
  },
  {
    "id": 17590,
    "name": "Bäch",
    "state_id": 1653,
    "state_code": "SZ",
    "country_id": 214,
    "country_code": "CH",
    "latitude": "47.20388000",
    "longitude": "8.73224000",
    "native": null,
    "timezone": null,
    "translations": {}
  },
  {
    "id": 17483,
    "name": "Bezirk Einsiedeln",
    "state_id": 1653,
    "state_code": "SZ",
    "country_id": 214,
    "country_code": "CH",
    "latitude": "47.10792000",
    "longitude": "8.76010000",
    "native": null,
    "timezone": null,
    "translations": {}
  },
  {
    "id": 17484,
    "name": "Bezirk Gersau",
    "state_id": 1653,
    "state_code": "SZ",
    "country_id": 214,
    "country_code": "CH",
    "latitude": "47.00800000",
    "longitude": "8.51678000",
    "native": null,
    "timezone": null,
    "translations": {}
  },
  {
    "id": 17490,
    "name": "Bezirk Höfe",
    "state_id": 1653,
    "state_code": "SZ",
    "country_id": 214,
    "country_code": "CH",
    "latitude": "47.19043000",
    "longitude": "8.73960000",
    "native": null,
    "timezone": null,
    "translations": {}
  },
  {
    "id": 17492,
    "name": "Bezirk Küssnacht",
    "state_id": 1653,
    "state_code": "SZ",
    "country_id": 214,
    "country_code": "CH",
    "latitude": "47.08611000",
    "longitude": "8.44444000",
    "native": null,
    "timezone": null,
    "translations": {}
  },
  {
    "id": 17498,
    "name": "Bezirk March",
    "state_id": 1653,
    "state_code": "SZ",
    "country_id": 214,
    "country_code": "CH",
    "latitude": "47.16128000",
    "longitude": "8.91103000",
    "native": null,
    "timezone": null,
    "translations": {}
  },
  {
    "id": 17509,
    "name": "Bezirk Schwyz",
    "state_id": 1653,
    "state_code": "SZ",
    "country_id": 214,
    "country_code": "CH",
    "latitude": "47.02814000",
    "longitude": "8.63619000",
    "native": null,
    "timezone": null,
    "translations": {}
  },
  {
    "id": 17738,
    "name": "Einsiedeln",
    "state_id": 1653,
    "state_code": "SZ",
    "country_id": 214,
    "country_code": "CH",
    "latitude": "47.12849000",
    "longitude": "8.74735000",
    "native": null,
    "timezone": null,
    "translations": {}
  },
  {
    "id": 17787,
    "name": "Feusisberg",
    "state_id": 1653,
    "state_code": "SZ",
    "country_id": 214,
    "country_code": "CH",
    "latitude": "47.18707000",
    "longitude": "8.74724000",
    "native": null,
    "timezone": null,
    "translations": {}
  },
  {
    "id": 17806,
    "name": "Freienbach",
    "state_id": 1653,
    "state_code": "SZ",
    "country_id": 214,
    "country_code": "CH",
    "latitude": "47.20534000",
    "longitude": "8.75842000",
    "native": null,
    "timezone": null,
    "translations": {}
  },
  {
    "id": 17830,
    "name": "Gersau",
    "state_id": 1653,
    "state_code": "SZ",
    "country_id": 214,
    "country_code": "CH",
    "latitude": "46.99419000",
    "longitude": "8.52500000",
    "native": null,
    "timezone": null,
    "translations": {}
  },
  {
    "id": 17848,
    "name": "Goldau",
    "state_id": 1653,
    "state_code": "SZ",
    "country_id": 214,
    "country_code": "CH",
    "latitude": "47.04761000",
    "longitude": "8.54616000",
    "native": null,
    "timezone": null,
    "translations": {}
  },
  {
    "id": 17946,
    "name": "Ibach",
    "state_id": 1653,
    "state_code": "SZ",
    "country_id": 214,
    "country_code": "CH",
    "latitude": "47.01105000",
    "longitude": "8.64538000",
    "native": null,
    "timezone": null,
    "translations": {}
  },
  {
    "id": 17951,
    "name": "Ingenbohl",
    "state_id": 1653,
    "state_code": "SZ",
    "country_id": 214,
    "country_code": "CH",
    "latitude": "46.99880000",
    "longitude": "8.61529000",
    "native": null,
    "timezone": null,
    "translations": {}
  },
  {
    "id": 18019,
    "name": "Küssnacht",
    "state_id": 1653,
    "state_code": "SZ",
    "country_id": 214,
    "country_code": "CH",
    "latitude": "47.08557000",
    "longitude": "8.44206000",
    "native": null,
    "timezone": null,
    "translations": {}
  },
  {
    "id": 18030,
    "name": "Lachen",
    "state_id": 1653,
    "state_code": "SZ",
    "country_id": 214,
    "country_code": "CH",
    "latitude": "47.19224000",
    "longitude": "8.85324000",
    "native": null,
    "timezone": null,
    "translations": {}
  },
  {
    "id": 18179,
    "name": "Muotathal",
    "state_id": 1653,
    "state_code": "SZ",
    "country_id": 214,
    "country_code": "CH",
    "latitude": "46.97676000",
    "longitude": "8.76499000",
    "native": null,
    "timezone": null,
    "translations": {}
  },
  {
    "id": 18310,
    "name": "Pfäffikon",
    "state_id": 1653,
    "state_code": "SZ",
    "country_id": 214,
    "country_code": "CH",
    "latitude": "47.20109000",
    "longitude": "8.77816000",
    "native": null,
    "timezone": null,
    "translations": {}
  },
  {
    "id": 18360,
    "name": "Reichenburg",
    "state_id": 1653,
    "state_code": "SZ",
    "country_id": 214,
    "country_code": "CH",
    "latitude": "47.17097000",
    "longitude": "8.97704000",
    "native": null,
    "timezone": null,
    "translations": {}
  },
  {
    "id": 18393,
    "name": "Rothenthurm",
    "state_id": 1653,
    "state_code": "SZ",
    "country_id": 214,
    "country_code": "CH",
    "latitude": "47.10420000",
    "longitude": "8.67585000",
    "native": null,
    "timezone": null,
    "translations": {}
  },
  {
    "id": 18449,
    "name": "Sattel",
    "state_id": 1653,
    "state_code": "SZ",
    "country_id": 214,
    "country_code": "CH",
    "latitude": "47.08246000",
    "longitude": "8.63565000",
    "native": null,
    "timezone": null,
    "translations": {}
  },
  {
    "id": 18461,
    "name": "Schindellegi",
    "state_id": 1653,
    "state_code": "SZ",
    "country_id": 214,
    "country_code": "CH",
    "latitude": "47.17460000",
    "longitude": "8.71345000",
    "native": null,
    "timezone": null,
    "translations": {}
  },
  {
    "id": 18487,
    "name": "Schübelbach",
    "state_id": 1653,
    "state_code": "SZ",
    "country_id": 214,
    "country_code": "CH",
    "latitude": "47.17326000",
    "longitude": "8.92811000",
    "native": null,
    "timezone": null,
    "translations": {}
  },
  {
    "id": 18481,
    "name": "Schwyz",
    "state_id": 1653,
    "state_code": "SZ",
    "country_id": 214,
    "country_code": "CH",
    "latitude": "47.02076000",
    "longitude": "8.65414000",
    "native": null,
    "timezone": null,
    "translations": {}
  },
  {
    "id": 18516,
    "name": "Siebnen",
    "state_id": 1653,
    "state_code": "SZ",
    "country_id": 214,
    "country_code": "CH",
    "latitude": "47.17449000",
    "longitude": "8.89781000",
    "native": null,
    "timezone": null,
    "translations": {}
  },
  {
    "id": 18553,
    "name": "Steinen",
    "state_id": 1653,
    "state_code": "SZ",
    "country_id": 214,
    "country_code": "CH",
    "latitude": "47.04975000",
    "longitude": "8.61214000",
    "native": null,
    "timezone": null,
    "translations": {}
  },
  {
    "id": 18612,
    "name": "Tuggen",
    "state_id": 1653,
    "state_code": "SZ",
    "country_id": 214,
    "country_code": "CH",
    "latitude": "47.20291000",
    "longitude": "8.94896000",
    "native": null,
    "timezone": null,
    "translations": {}
  },
  {
    "id": 18632,
    "name": "Unteriberg",
    "state_id": 1653,
    "state_code": "SZ",
    "country_id": 214,
    "country_code": "CH",
    "latitude": "47.06258000",
    "longitude": "8.80520000",
    "native": null,
    "timezone": null,
    "translations": {}
  },
  {
    "id": 18693,
    "name": "Vorderthal",
    "state_id": 1653,
    "state_code": "SZ",
    "country_id": 214,
    "country_code": "CH",
    "latitude": "47.12172000",
    "longitude": "8.90225000",
    "native": null,
    "timezone": null,
    "translations": {}
  },
  {
    "id": 18767,
    "name": "Wollerau",
    "state_id": 1653,
    "state_code": "SZ",
    "country_id": 214,
    "country_code": "CH",
    "latitude": "47.19478000",
    "longitude": "8.71903000",
    "native": null,
    "timezone": null,
    "translations": {}
  }
]