[
  {
    "id": 135182,
    "name": "Garður",
    "state_id": 3430,
    "state_code": "2",
    "country_id": 100,
    "country_code": "IS",
    "latitude": "64.06558000",
    "longitude": "-22.64656000",
    "native": null,
    "timezone": null,
    "translations": {}
  },
  {
    "id": 135183,
    "name": "Grindavík",
    "state_id": 3430,
    "state_code": "2",
    "country_id": 100,
    "country_code": "IS",
    "latitude": "63.83849000",
    "longitude": "-22.43931000",
    "native": null,
    "timezone": null,
    "translations": {}
  },
  {
    "id": 135195,
    "name": "Keflavík",
    "state_id": 3430,
    "state_code": "2",
    "country_id": 100,
    "country_code": "IS",
    "latitude": "64.00492000",
    "longitude": "-22.56242000",
    "native": null,
    "timezone": null,
    "translations": {}
  },
  {
    "id": 135205,
    "name": "Reykjanesbær",
    "state_id": 3430,
    "state_code": "2",
    "country_id": 100,
    "country_code": "IS",
    "latitude": "63.99813000",
    "longitude": "-22.56111000",
    "native": null,
    "timezone": null,
    "translations": {}
  },
  {
    "id": 135208,
    "name": "Sandgerði",
    "state_id": 3430,
    "state_code": "2",
    "country_id": 100,
    "country_code": "IS",
    "latitude": "64.03762000",
    "longitude": "-22.70799000",
    "native": null,
    "timezone": null,
    "translations": {}
  },
  {
    "id": 135227,
    "name": "Vogar",
    "state_id": 3430,
    "state_code": "2",
    "country_id": 100,
    "country_code": "IS",
    "latitude": "63.98160000",
    "longitude": "-22.38473000",
    "native": null,
    "timezone": null,
    "translations": {}
  }
]