[
  {
    "id": 31967,
    "name": "Agullana",
    "state_id": 5103,
    "state_code": "GI",
    "country_id": 207,
    "country_code": "ES",
    "latitude": "42.39408000",
    "longitude": "2.84666000",
    "native": null,
    "timezone": null,
    "translations": {}
  },
  {
    "id": 31981,
    "name": "Aiguaviva",
    "state_id": 5103,
    "state_code": "GI",
    "country_id": 207,
    "country_code": "ES",
    "latitude": "41.93840000",
    "longitude": "2.76217000",
    "native": null,
    "timezone": null,
    "translations": {}
  },
  {
    "id": 151631,
    "name": "Albanyà",
    "state_id": 5103,
    "state_code": "GI",
    "country_id": 207,
    "country_code": "ES",
    "latitude": "42.30478540",
    "longitude": "2.72044830",
    "native": null,
    "timezone": null,
    "translations": {}
  },
  {
    "id": 32050,
    "name": "Albons",
    "state_id": 5103,
    "state_code": "GI",
    "country_id": 207,
    "country_code": "ES",
    "latitude": "42.10389000",
    "longitude": "3.08433000",
    "native": null,
    "timezone": null,
    "translations": {}
  },
  {
    "id": 151633,
    "name": "Alp",
    "state_id": 5103,
    "state_code": "GI",
    "country_id": 207,
    "country_code": "ES",
    "latitude": "42.37284490",
    "longitude": "1.88611600",
    "native": null,
    "timezone": null,
    "translations": {}
  },
  {
    "id": 151634,
    "name": "Amer",
    "state_id": 5103,
    "state_code": "GI",
    "country_id": 207,
    "country_code": "ES",
    "latitude": "42.01041740",
    "longitude": "2.60280360",
    "native": null,
    "timezone": null,
    "translations": {}
  },
  {
    "id": 32379,
    "name": "Anglès",
    "state_id": 5103,
    "state_code": "GI",
    "country_id": 207,
    "country_code": "ES",
    "latitude": "41.95617000",
    "longitude": "2.63603000",
    "native": null,
    "timezone": null,
    "translations": {}
  },
  {
    "id": 32427,
    "name": "Arbúcies",
    "state_id": 5103,
    "state_code": "GI",
    "country_id": 207,
    "country_code": "ES",
    "latitude": "41.81667000",
    "longitude": "2.51667000",
    "native": null,
    "timezone": null,
    "translations": {}
  },
  {
    "id": 32468,
    "name": "Argelaguer",
    "state_id": 5103,
    "state_code": "GI",
    "country_id": 207,
    "country_code": "ES",
    "latitude": "42.21563000",
    "longitude": "2.64193000",
    "native": null,
    "timezone": null,
    "translations": {}
  },
  {
    "id": 151635,
    "name": "Armentera L",
    "state_id": 5103,
    "state_code": "GI",
    "country_id": 207,
    "country_code": "ES",
    "latitude": "42.17176030",
    "longitude": "3.07389920",
    "native": null,
    "timezone": null,
    "translations": {}
  },
  {
    "id": 151636,
    "name": "Avinyonet de Puigventós",
    "state_id": 5103,
    "state_code": "GI",
    "country_id": 207,
    "country_code": "ES",
    "latitude": "42.25054280",
    "longitude": "2.91197810",
    "native": null,
    "timezone": null,
    "translations": {}
  },
  {
    "id": 32634,
    "name": "Banyoles",
    "state_id": 5103,
    "state_code": "GI",
    "country_id": 207,
    "country_code": "ES",
    "latitude": "42.11667000",
    "longitude": "2.76667000",
    "native": null,
    "timezone": null,
    "translations": {}
  },
  {
    "id": 33047,
    "name": "Bàscara",
    "state_id": 5103,
    "state_code": "GI",
    "country_id": 207,
    "country_code": "ES",
    "latitude": "42.15998000",
    "longitude": "2.91028000",
    "native": null,
    "timezone": null,
    "translations": {}
  },
  {
    "id": 32729,
    "name": "Begur",
    "state_id": 5103,
    "state_code": "GI",
    "country_id": 207,
    "country_code": "ES",
    "latitude": "41.95000000",
    "longitude": "3.21667000",
    "native": null,
    "timezone": null,
    "translations": {}
  },
  {
    "id": 151638,
    "name": "Bellcaire dEmpordà",
    "state_id": 5103,
    "state_code": "GI",
    "country_id": 207,
    "country_code": "ES",
    "latitude": "42.07920420",
    "longitude": "3.09582240",
    "native": null,
    "timezone": null,
    "translations": {}
  },
  {
    "id": 32877,
    "name": "Besalú",
    "state_id": 5103,
    "state_code": "GI",
    "country_id": 207,
    "country_code": "ES",
    "latitude": "42.19893000",
    "longitude": "2.69953000",
    "native": null,
    "timezone": null,
    "translations": {}
  },
  {
    "id": 32878,
    "name": "Bescanó",
    "state_id": 5103,
    "state_code": "GI",
    "country_id": 207,
    "country_code": "ES",
    "latitude": "41.96603000",
    "longitude": "2.73922000",
    "native": null,
    "timezone": null,
    "translations": {}
  },
  {
    "id": 32883,
    "name": "Beuda",
    "state_id": 5103,
    "state_code": "GI",
    "country_id": 207,
    "country_code": "ES",
    "latitude": "42.23722000",
    "longitude": "2.70942000",
    "native": null,
    "timezone": null,
    "translations": {}
  },
  {
    "id": 151639,
    "name": "Bisbal dEmpordà La",
    "state_id": 5103,
    "state_code": "GI",
    "country_id": 207,
    "country_code": "ES",
    "latitude": "41.95864830",
    "longitude": "3.03978870",
    "native": null,
    "timezone": null,
    "translations": {}
  },
  {
    "id": 151728,
    "name": "Biure",
    "state_id": 5103,
    "state_code": "GI",
    "country_id": 207,
    "country_code": "ES",
    "latitude": "42.34246150",
    "longitude": "2.90261720",
    "native": null,
    "timezone": null,
    "translations": {}
  },
  {
    "id": 32909,
    "name": "Blanes",
    "state_id": 5103,
    "state_code": "GI",
    "country_id": 207,
    "country_code": "ES",
    "latitude": "41.67419000",
    "longitude": "2.79036000",
    "native": null,
    "timezone": null,
    "translations": {}
  },
  {
    "id": 151641,
    "name": "Boadella i les Escaules",
    "state_id": 5103,
    "state_code": "GI",
    "country_id": 207,
    "country_code": "ES",
    "latitude": "42.33044230",
    "longitude": "2.85650870",
    "native": null,
    "timezone": null,
    "translations": {}
  },
  {
    "id": 32942,
    "name": "Bolvir",
    "state_id": 5103,
    "state_code": "GI",
    "country_id": 207,
    "country_code": "ES",
    "latitude": "42.41775000",
    "longitude": "1.87986000",
    "native": null,
    "timezone": null,
    "translations": {}
  },
  {
    "id": 32952,
    "name": "Bordils",
    "state_id": 5103,
    "state_code": "GI",
    "country_id": 207,
    "country_code": "ES",
    "latitude": "42.04336000",
    "longitude": "2.91088000",
    "native": null,
    "timezone": null,
    "translations": {}
  },
  {
    "id": 32960,
    "name": "Borrassà",
    "state_id": 5103,
    "state_code": "GI",
    "country_id": 207,
    "country_code": "ES",
    "latitude": "42.22316000",
    "longitude": "2.92610000",
    "native": null,
    "timezone": null,
    "translations": {}
  },
  {
    "id": 32976,
    "name": "Breda",
    "state_id": 5103,
    "state_code": "GI",
    "country_id": 207,
    "country_code": "ES",
    "latitude": "41.74833000",
    "longitude": "2.55964000",
    "native": null,
    "timezone": null,
    "translations": {}
  },
  {
    "id": 151640,
    "name": "Brunyola",
    "state_id": 5103,
    "state_code": "GI",
    "country_id": 207,
    "country_code": "ES",
    "latitude": "41.90452250",
    "longitude": "2.68419370",
    "native": null,
    "timezone": null,
    "translations": {}
  },
  {
    "id": 33066,
    "name": "Cabanelles",
    "state_id": 5103,
    "state_code": "GI",
    "country_id": 207,
    "country_code": "ES",
    "latitude": "42.23068000",
    "longitude": "2.81997000",
    "native": null,
    "timezone": null,
    "translations": {}
  },
  {
    "id": 33116,
    "name": "Cadaqués",
    "state_id": 5103,
    "state_code": "GI",
    "country_id": 207,
    "country_code": "ES",
    "latitude": "42.28856000",
    "longitude": "3.27706000",
    "native": null,
    "timezone": null,
    "translations": {}
  },
  {
    "id": 151642,
    "name": "Caldes de Malavella",
    "state_id": 5103,
    "state_code": "GI",
    "country_id": 207,
    "country_code": "ES",
    "latitude": "41.83601630",
    "longitude": "2.80844660",
    "native": null,
    "timezone": null,
    "translations": {}
  },
  {
    "id": 33150,
    "name": "Calonge",
    "state_id": 5103,
    "state_code": "GI",
    "country_id": 207,
    "country_code": "ES",
    "latitude": "41.85869000",
    "longitude": "3.07926000",
    "native": null,
    "timezone": null,
    "translations": {}
  },
  {
    "id": 33215,
    "name": "Camós",
    "state_id": 5103,
    "state_code": "GI",
    "country_id": 207,
    "country_code": "ES",
    "latitude": "42.08776000",
    "longitude": "2.76288000",
    "native": null,
    "timezone": null,
    "translations": {}
  },
  {
    "id": 33185,
    "name": "Campdevànol",
    "state_id": 5103,
    "state_code": "GI",
    "country_id": 207,
    "country_code": "ES",
    "latitude": "42.22445000",
    "longitude": "2.16860000",
    "native": null,
    "timezone": null,
    "translations": {}
  },
  {
    "id": 151643,
    "name": "Campelles",
    "state_id": 5103,
    "state_code": "GI",
    "country_id": 207,
    "country_code": "ES",
    "latitude": "42.29486230",
    "longitude": "2.14164840",
    "native": null,
    "timezone": null,
    "translations": {}
  },
  {
    "id": 151644,
    "name": "Campllong",
    "state_id": 5103,
    "state_code": "GI",
    "country_id": 207,
    "country_code": "ES",
    "latitude": "41.89370080",
    "longitude": "2.83192200",
    "native": null,
    "timezone": null,
    "translations": {}
  },
  {
    "id": 33213,
    "name": "Camprodon",
    "state_id": 5103,
    "state_code": "GI",
    "country_id": 207,
    "country_code": "ES",
    "latitude": "42.31185000",
    "longitude": "2.36506000",
    "native": null,
    "timezone": null,
    "translations": {}
  },
  {
    "id": 151645,
    "name": "Canet dAdri",
    "state_id": 5103,
    "state_code": "GI",
    "country_id": 207,
    "country_code": "ES",
    "latitude": "42.03277150",
    "longitude": "2.73749490",
    "native": null,
    "timezone": null,
    "translations": {}
  },
  {
    "id": 33252,
    "name": "Cantallops",
    "state_id": 5103,
    "state_code": "GI",
    "country_id": 207,
    "country_code": "ES",
    "latitude": "42.42216000",
    "longitude": "2.92524000",
    "native": null,
    "timezone": null,
    "translations": {}
  },
  {
    "id": 33271,
    "name": "Capmany",
    "state_id": 5103,
    "state_code": "GI",
    "country_id": 207,
    "country_code": "ES",
    "latitude": "42.37351000",
    "longitude": "2.92026000",
    "native": null,
    "timezone": null,
    "translations": {}
  },
  {
    "id": 33395,
    "name": "Cassà de la Selva",
    "state_id": 5103,
    "state_code": "GI",
    "country_id": 207,
    "country_code": "ES",
    "latitude": "41.88784000",
    "longitude": "2.87524000",
    "native": null,
    "timezone": null,
    "translations": {}
  },
  {
    "id": 151649,
    "name": "Castell-Platja dAro",
    "state_id": 5103,
    "state_code": "GI",
    "country_id": 207,
    "country_code": "ES",
    "latitude": "41.81796330",
    "longitude": "3.06687270",
    "native": null,
    "timezone": null,
    "translations": {}
  },
  {
    "id": 151647,
    "name": "Castellfollit de la Roca",
    "state_id": 5103,
    "state_code": "GI",
    "country_id": 207,
    "country_code": "ES",
    "latitude": "42.21973100",
    "longitude": "2.54889180",
    "native": null,
    "timezone": null,
    "translations": {}
  },
  {
    "id": 151648,
    "name": "Castelló dEmpúries",
    "state_id": 5103,
    "state_code": "GI",
    "country_id": 207,
    "country_code": "ES",
    "latitude": "42.24411270",
    "longitude": "3.08767830",
    "native": null,
    "timezone": null,
    "translations": {}
  },
  {
    "id": 151712,
    "name": "Cellera de Ter La",
    "state_id": 5103,
    "state_code": "GI",
    "country_id": 207,
    "country_code": "ES",
    "latitude": "41.96853850",
    "longitude": "2.62078800",
    "native": null,
    "timezone": null,
    "translations": {}
  },
  {
    "id": 33566,
    "name": "Celrà",
    "state_id": 5103,
    "state_code": "GI",
    "country_id": 207,
    "country_code": "ES",
    "latitude": "42.03333000",
    "longitude": "2.88333000",
    "native": null,
    "timezone": null,
    "translations": {}
  },
  {
    "id": 33605,
    "name": "Cervià de Ter",
    "state_id": 5103,
    "state_code": "GI",
    "country_id": 207,
    "country_code": "ES",
    "latitude": "42.06650000",
    "longitude": "2.90743000",
    "native": null,
    "timezone": null,
    "translations": {}
  },
  {
    "id": 33692,
    "name": "Cistella",
    "state_id": 5103,
    "state_code": "GI",
    "country_id": 207,
    "country_code": "ES",
    "latitude": "42.26870000",
    "longitude": "2.84780000",
    "native": null,
    "timezone": null,
    "translations": {}
  },
  {
    "id": 33726,
    "name": "Colera",
    "state_id": 5103,
    "state_code": "GI",
    "country_id": 207,
    "country_code": "ES",
    "latitude": "42.40394000",
    "longitude": "3.15153000",
    "native": null,
    "timezone": null,
    "translations": {}
  },
  {
    "id": 151650,
    "name": "Colomers",
    "state_id": 5103,
    "state_code": "GI",
    "country_id": 207,
    "country_code": "ES",
    "latitude": "42.08452060",
    "longitude": "2.98818160",
    "native": null,
    "timezone": null,
    "translations": {}
  },
  {
    "id": 151651,
    "name": "Corçà",
    "state_id": 5103,
    "state_code": "GI",
    "country_id": 207,
    "country_code": "ES",
    "latitude": "41.98725890",
    "longitude": "3.01443820",
    "native": null,
    "timezone": null,
    "translations": {}
  },
  {
    "id": 33795,
    "name": "Cornellà del Terri",
    "state_id": 5103,
    "state_code": "GI",
    "country_id": 207,
    "country_code": "ES",
    "latitude": "42.08333000",
    "longitude": "2.81667000",
    "native": null,
    "timezone": null,
    "translations": {}
  },
  {
    "id": 33833,
    "name": "Crespià",
    "state_id": 5103,
    "state_code": "GI",
    "country_id": 207,
    "country_code": "ES",
    "latitude": "42.18333000",
    "longitude": "2.80000000",
    "native": null,
    "timezone": null,
    "translations": {}
  },
  {
    "id": 151729,
    "name": "Cruïlles  Monells i Sant Sadurní de lHeura",
    "state_id": 5103,
    "state_code": "GI",
    "country_id": 207,
    "country_code": "ES",
    "latitude": "41.95705590",
    "longitude": "2.99223480",
    "native": null,
    "timezone": null,
    "translations": {}
  },
  {
    "id": 33912,
    "name": "Darnius",
    "state_id": 5103,
    "state_code": "GI",
    "country_id": 207,
    "country_code": "ES",
    "latitude": "42.36667000",
    "longitude": "2.83333000",
    "native": null,
    "timezone": null,
    "translations": {}
  },
  {
    "id": 151652,
    "name": "Das",
    "state_id": 5103,
    "state_code": "GI",
    "country_id": 207,
    "country_code": "ES",
    "latitude": "42.35395480",
    "longitude": "1.87574220",
    "native": null,
    "timezone": null,
    "translations": {}
  },
  {
    "id": 151653,
    "name": "Escala L",
    "state_id": 5103,
    "state_code": "GI",
    "country_id": 207,
    "country_code": "ES",
    "latitude": "42.11985040",
    "longitude": "3.12277020",
    "native": null,
    "timezone": null,
    "translations": {}
  },
  {
    "id": 151654,
    "name": "Espinelves",
    "state_id": 5103,
    "state_code": "GI",
    "country_id": 207,
    "country_code": "ES",
    "latitude": "41.86978760",
    "longitude": "2.41747460",
    "native": null,
    "timezone": null,
    "translations": {}
  },
  {
    "id": 34129,
    "name": "Espolla",
    "state_id": 5103,
    "state_code": "GI",
    "country_id": 207,
    "country_code": "ES",
    "latitude": "42.39120000",
    "longitude": "3.00064000",
    "native": null,
    "timezone": null,
    "translations": {}
  },
  {
    "id": 34130,
    "name": "Esponellà",
    "state_id": 5103,
    "state_code": "GI",
    "country_id": 207,
    "country_code": "ES",
    "latitude": "42.16667000",
    "longitude": "2.80000000",
    "native": null,
    "timezone": null,
    "translations": {}
  },
  {
    "id": 151632,
    "name": "Far dEmpordà El",
    "state_id": 5103,
    "state_code": "GI",
    "country_id": 207,
    "country_code": "ES",
    "latitude": "42.25208810",
    "longitude": "2.99568360",
    "native": null,
    "timezone": null,
    "translations": {}
  },
  {
    "id": 34184,
    "name": "Figueres",
    "state_id": 5103,
    "state_code": "GI",
    "country_id": 207,
    "country_code": "ES",
    "latitude": "42.26645000",
    "longitude": "2.96163000",
    "native": null,
    "timezone": null,
    "translations": {}
  },
  {
    "id": 151655,
    "name": "Flaçà",
    "state_id": 5103,
    "state_code": "GI",
    "country_id": 207,
    "country_code": "ES",
    "latitude": "42.04689830",
    "longitude": "2.95428440",
    "native": null,
    "timezone": null,
    "translations": {}
  },
  {
    "id": 34199,
    "name": "Foixà",
    "state_id": 5103,
    "state_code": "GI",
    "country_id": 207,
    "country_code": "ES",
    "latitude": "42.03626000",
    "longitude": "3.00021000",
    "native": null,
    "timezone": null,
    "translations": {}
  },
  {
    "id": 151656,
    "name": "Fontanals de Cerdanya",
    "state_id": 5103,
    "state_code": "GI",
    "country_id": 207,
    "country_code": "ES",
    "latitude": "42.38765500",
    "longitude": "1.91969490",
    "native": null,
    "timezone": null,
    "translations": {}
  },
  {
    "id": 151657,
    "name": "Fontanilles",
    "state_id": 5103,
    "state_code": "GI",
    "country_id": 207,
    "country_code": "ES",
    "latitude": "41.98203050",
    "longitude": "2.82163670",
    "native": null,
    "timezone": null,
    "translations": {}
  },
  {
    "id": 151658,
    "name": "Fontcoberta",
    "state_id": 5103,
    "state_code": "GI",
    "country_id": 207,
    "country_code": "ES",
    "latitude": "42.14722530",
    "longitude": "2.77241170",
    "native": null,
    "timezone": null,
    "translations": {}
  },
  {
    "id": 151730,
    "name": "Forallac",
    "state_id": 5103,
    "state_code": "GI",
    "country_id": 207,
    "country_code": "ES",
    "latitude": "41.94767640",
    "longitude": "3.08767830",
    "native": null,
    "timezone": null,
    "translations": {}
  },
  {
    "id": 34225,
    "name": "Fornells de la Selva",
    "state_id": 5103,
    "state_code": "GI",
    "country_id": 207,
    "country_code": "ES",
    "latitude": "41.93159000",
    "longitude": "2.80907000",
    "native": null,
    "timezone": null,
    "translations": {}
  },
  {
    "id": 34230,
    "name": "Fortià",
    "state_id": 5103,
    "state_code": "GI",
    "country_id": 207,
    "country_code": "ES",
    "latitude": "42.24320000",
    "longitude": "3.03881000",
    "native": null,
    "timezone": null,
    "translations": {}
  },
  {
    "id": 34425,
    "name": "Garrigàs",
    "state_id": 5103,
    "state_code": "GI",
    "country_id": 207,
    "country_code": "ES",
    "latitude": "42.19343000",
    "longitude": "2.95438000",
    "native": null,
    "timezone": null,
    "translations": {}
  },
  {
    "id": 151659,
    "name": "Garrigoles",
    "state_id": 5103,
    "state_code": "GI",
    "country_id": 207,
    "country_code": "ES",
    "latitude": "42.10276900",
    "longitude": "3.02257540",
    "native": null,
    "timezone": null,
    "translations": {}
  },
  {
    "id": 34424,
    "name": "Garriguella",
    "state_id": 5103,
    "state_code": "GI",
    "country_id": 207,
    "country_code": "ES",
    "latitude": "42.34392000",
    "longitude": "3.06506000",
    "native": null,
    "timezone": null,
    "translations": {}
  },
  {
    "id": 151660,
    "name": "Ger",
    "state_id": 5103,
    "state_code": "GI",
    "country_id": 207,
    "country_code": "ES",
    "latitude": "42.41159660",
    "longitude": "1.84585500",
    "native": null,
    "timezone": null,
    "translations": {}
  },
  {
    "id": 34470,
    "name": "Girona",
    "state_id": 5103,
    "state_code": "GI",
    "country_id": 207,
    "country_code": "ES",
    "latitude": "41.98311000",
    "longitude": "2.82493000",
    "native": null,
    "timezone": null,
    "translations": {}
  },
  {
    "id": 151661,
    "name": "Gombrèn",
    "state_id": 5103,
    "state_code": "GI",
    "country_id": 207,
    "country_code": "ES",
    "latitude": "42.24776280",
    "longitude": "2.09073110",
    "native": null,
    "timezone": null,
    "translations": {}
  },
  {
    "id": 34534,
    "name": "Gualta",
    "state_id": 5103,
    "state_code": "GI",
    "country_id": 207,
    "country_code": "ES",
    "latitude": "42.02953000",
    "longitude": "3.10312000",
    "native": null,
    "timezone": null,
    "translations": {}
  },
  {
    "id": 151662,
    "name": "Guils de Cerdanya",
    "state_id": 5103,
    "state_code": "GI",
    "country_id": 207,
    "country_code": "ES",
    "latitude": "42.44913430",
    "longitude": "1.87879310",
    "native": null,
    "timezone": null,
    "translations": {}
  },
  {
    "id": 34671,
    "name": "Hostalric",
    "state_id": 5103,
    "state_code": "GI",
    "country_id": 207,
    "country_code": "ES",
    "latitude": "41.75000000",
    "longitude": "2.63333000",
    "native": null,
    "timezone": null,
    "translations": {}
  },
  {
    "id": 151663,
    "name": "Isòvol",
    "state_id": 5103,
    "state_code": "GI",
    "country_id": 207,
    "country_code": "ES",
    "latitude": "42.37809600",
    "longitude": "1.81766390",
    "native": null,
    "timezone": null,
    "translations": {}
  },
  {
    "id": 34790,
    "name": "Jafre",
    "state_id": 5103,
    "state_code": "GI",
    "country_id": 207,
    "country_code": "ES",
    "latitude": "42.07254000",
    "longitude": "3.01062000",
    "native": null,
    "timezone": null,
    "translations": {}
  },
  {
    "id": 151664,
    "name": "Jonquera La",
    "state_id": 5103,
    "state_code": "GI",
    "country_id": 207,
    "country_code": "ES",
    "latitude": "42.44602070",
    "longitude": "2.88764360",
    "native": null,
    "timezone": null,
    "translations": {}
  },
  {
    "id": 34827,
    "name": "Juià",
    "state_id": 5103,
    "state_code": "GI",
    "country_id": 207,
    "country_code": "ES",
    "latitude": "42.01667000",
    "longitude": "2.91667000",
    "native": null,
    "timezone": null,
    "translations": {}
  },
  {
    "id": 35063,
    "name": "Lladó",
    "state_id": 5103,
    "state_code": "GI",
    "country_id": 207,
    "country_code": "ES",
    "latitude": "42.24769000",
    "longitude": "2.81373000",
    "native": null,
    "timezone": null,
    "translations": {}
  },
  {
    "id": 35064,
    "name": "Llagostera",
    "state_id": 5103,
    "state_code": "GI",
    "country_id": 207,
    "country_code": "ES",
    "latitude": "41.82688000",
    "longitude": "2.89365000",
    "native": null,
    "timezone": null,
    "translations": {}
  },
  {
    "id": 35066,
    "name": "Llambilles",
    "state_id": 5103,
    "state_code": "GI",
    "country_id": 207,
    "country_code": "ES",
    "latitude": "41.92106000",
    "longitude": "2.85078000",
    "native": null,
    "timezone": null,
    "translations": {}
  },
  {
    "id": 151665,
    "name": "Llanars",
    "state_id": 5103,
    "state_code": "GI",
    "country_id": 207,
    "country_code": "ES",
    "latitude": "42.32052780",
    "longitude": "2.34398070",
    "native": null,
    "timezone": null,
    "translations": {}
  },
  {
    "id": 35070,
    "name": "Llançà",
    "state_id": 5103,
    "state_code": "GI",
    "country_id": 207,
    "country_code": "ES",
    "latitude": "42.36241000",
    "longitude": "3.15213000",
    "native": null,
    "timezone": null,
    "translations": {}
  },
  {
    "id": 35077,
    "name": "Llers",
    "state_id": 5103,
    "state_code": "GI",
    "country_id": 207,
    "country_code": "ES",
    "latitude": "42.29571000",
    "longitude": "2.91183000",
    "native": null,
    "timezone": null,
    "translations": {}
  },
  {
    "id": 151666,
    "name": "Llívia",
    "state_id": 5103,
    "state_code": "GI",
    "country_id": 207,
    "country_code": "ES",
    "latitude": "42.46338990",
    "longitude": "1.98020130",
    "native": null,
    "timezone": null,
    "translations": {}
  },
  {
    "id": 35084,
    "name": "Lloret de Mar",
    "state_id": 5103,
    "state_code": "GI",
    "country_id": 207,
    "country_code": "ES",
    "latitude": "41.69993000",
    "longitude": "2.84565000",
    "native": null,
    "timezone": null,
    "translations": {}
  },
  {
    "id": 151667,
    "name": "Llosses Les",
    "state_id": 5103,
    "state_code": "GI",
    "country_id": 207,
    "country_code": "ES",
    "latitude": "42.15048340",
    "longitude": "2.11587580",
    "native": null,
    "timezone": null,
    "translations": {}
  },
  {
    "id": 151671,
    "name": "Maçanet de Cabrenys",
    "state_id": 5103,
    "state_code": "GI",
    "country_id": 207,
    "country_code": "ES",
    "latitude": "42.38138390",
    "longitude": "2.71827280",
    "native": null,
    "timezone": null,
    "translations": {}
  },
  {
    "id": 151672,
    "name": "Maçanet de la Selva",
    "state_id": 5103,
    "state_code": "GI",
    "country_id": 207,
    "country_code": "ES",
    "latitude": "41.77683240",
    "longitude": "2.73249960",
    "native": null,
    "timezone": null,
    "translations": {}
  },
  {
    "id": 35185,
    "name": "Madremanya",
    "state_id": 5103,
    "state_code": "GI",
    "country_id": 207,
    "country_code": "ES",
    "latitude": "41.98333000",
    "longitude": "2.96667000",
    "native": null,
    "timezone": null,
    "translations": {}
  },
  {
    "id": 151668,
    "name": "Maià de Montcal",
    "state_id": 5103,
    "state_code": "GI",
    "country_id": 207,
    "country_code": "ES",
    "latitude": "42.22134890",
    "longitude": "2.74465540",
    "native": null,
    "timezone": null,
    "translations": {}
  },
  {
    "id": 151670,
    "name": "Masarac",
    "state_id": 5103,
    "state_code": "GI",
    "country_id": 207,
    "country_code": "ES",
    "latitude": "42.35080950",
    "longitude": "2.97286870",
    "native": null,
    "timezone": null,
    "translations": {}
  },
  {
    "id": 35327,
    "name": "Massanes",
    "state_id": 5103,
    "state_code": "GI",
    "country_id": 207,
    "country_code": "ES",
    "latitude": "41.76536000",
    "longitude": "2.65324000",
    "native": null,
    "timezone": null,
    "translations": {}
  },
  {
    "id": 151669,
    "name": "Meranges",
    "state_id": 5103,
    "state_code": "GI",
    "country_id": 207,
    "country_code": "ES",
    "latitude": "42.44599250",
    "longitude": "1.78705510",
    "native": null,
    "timezone": null,
    "translations": {}
  },
  {
    "id": 151673,
    "name": "Mieres",
    "state_id": 5103,
    "state_code": "GI",
    "country_id": 207,
    "country_code": "ES",
    "latitude": "42.12407110",
    "longitude": "2.63995840",
    "native": null,
    "timezone": null,
    "translations": {}
  },
  {
    "id": 35487,
    "name": "Mollet de Peralada",
    "state_id": 5103,
    "state_code": "GI",
    "country_id": 207,
    "country_code": "ES",
    "latitude": "42.35959000",
    "longitude": "3.00034000",
    "native": null,
    "timezone": null,
    "translations": {}
  },
  {
    "id": 151674,
    "name": "Molló",
    "state_id": 5103,
    "state_code": "GI",
    "country_id": 207,
    "country_code": "ES",
    "latitude": "42.34673020",
    "longitude": "2.40498530",
    "native": null,
    "timezone": null,
    "translations": {}
  },
  {
    "id": 151676,
    "name": "Mont-ras",
    "state_id": 5103,
    "state_code": "GI",
    "country_id": 207,
    "country_code": "ES",
    "latitude": "41.90812330",
    "longitude": "3.15172090",
    "native": null,
    "timezone": null,
    "translations": {}
  },
  {
    "id": 151675,
    "name": "Montagut i Oix",
    "state_id": 5103,
    "state_code": "GI",
    "country_id": 207,
    "country_code": "ES",
    "latitude": "42.27180710",
    "longitude": "2.52853150",
    "native": null,
    "timezone": null,
    "translations": {}
  },
  {
    "id": 35786,
    "name": "Navata",
    "state_id": 5103,
    "state_code": "GI",
    "country_id": 207,
    "country_code": "ES",
    "latitude": "42.22353000",
    "longitude": "2.86110000",
    "native": null,
    "timezone": null,
    "translations": {}
  },
  {
    "id": 151677,
    "name": "Ogassa",
    "state_id": 5103,
    "state_code": "GI",
    "country_id": 207,
    "country_code": "ES",
    "latitude": "42.26598460",
    "longitude": "2.27779770",
    "native": null,
    "timezone": null,
    "translations": {}
  },
  {
    "id": 35912,
    "name": "Olot",
    "state_id": 5103,
    "state_code": "GI",
    "country_id": 207,
    "country_code": "ES",
    "latitude": "42.18096000",
    "longitude": "2.49012000",
    "native": null,
    "timezone": null,
    "translations": {}
  },
  {
    "id": 35940,
    "name": "Ordis",
    "state_id": 5103,
    "state_code": "GI",
    "country_id": 207,
    "country_code": "ES",
    "latitude": "42.21830000",
    "longitude": "2.90705000",
    "native": null,
    "timezone": null,
    "translations": {}
  },
  {
    "id": 151678,
    "name": "Osor",
    "state_id": 5103,
    "state_code": "GI",
    "country_id": 207,
    "country_code": "ES",
    "latitude": "41.94551630",
    "longitude": "2.55663390",
    "native": null,
    "timezone": null,
    "translations": {}
  },
  {
    "id": 36014,
    "name": "Palafrugell",
    "state_id": 5103,
    "state_code": "GI",
    "country_id": 207,
    "country_code": "ES",
    "latitude": "41.91738000",
    "longitude": "3.16310000",
    "native": null,
    "timezone": null,
    "translations": {}
  },
  {
    "id": 36015,
    "name": "Palamós",
    "state_id": 5103,
    "state_code": "GI",
    "country_id": 207,
    "country_code": "ES",
    "latitude": "41.84843000",
    "longitude": "3.12912000",
    "native": null,
    "timezone": null,
    "translations": {}
  },
  {
    "id": 151679,
    "name": "Palau de Santa Eulàlia",
    "state_id": 5103,
    "state_code": "GI",
    "country_id": 207,
    "country_code": "ES",
    "latitude": "42.17742940",
    "longitude": "2.96958800",
    "native": null,
    "timezone": null,
    "translations": {}
  },
  {
    "id": 36017,
    "name": "Palau-sator",
    "state_id": 5103,
    "state_code": "GI",
    "country_id": 207,
    "country_code": "ES",
    "latitude": "41.98897000",
    "longitude": "3.11016000",
    "native": null,
    "timezone": null,
    "translations": {}
  },
  {
    "id": 151680,
    "name": "Palau-saverdera",
    "state_id": 5103,
    "state_code": "GI",
    "country_id": 207,
    "country_code": "ES",
    "latitude": "42.30747700",
    "longitude": "3.14736890",
    "native": null,
    "timezone": null,
    "translations": {}
  },
  {
    "id": 36034,
    "name": "Palol de Revardit",
    "state_id": 5103,
    "state_code": "GI",
    "country_id": 207,
    "country_code": "ES",
    "latitude": "42.06667000",
    "longitude": "2.80000000",
    "native": null,
    "timezone": null,
    "translations": {}
  },
  {
    "id": 36042,
    "name": "Pals",
    "state_id": 5103,
    "state_code": "GI",
    "country_id": 207,
    "country_code": "ES",
    "latitude": "41.97102000",
    "longitude": "3.14814000",
    "native": null,
    "timezone": null,
    "translations": {}
  },
  {
    "id": 151681,
    "name": "Pardines",
    "state_id": 5103,
    "state_code": "GI",
    "country_id": 207,
    "country_code": "ES",
    "latitude": "42.30327150",
    "longitude": "2.23350660",
    "native": null,
    "timezone": null,
    "translations": {}
  },
  {
    "id": 151682,
    "name": "Parlavà",
    "state_id": 5103,
    "state_code": "GI",
    "country_id": 207,
    "country_code": "ES",
    "latitude": "42.02073240",
    "longitude": "3.04009450",
    "native": null,
    "timezone": null,
    "translations": {}
  },
  {
    "id": 36083,
    "name": "Pau",
    "state_id": 5103,
    "state_code": "GI",
    "country_id": 207,
    "country_code": "ES",
    "latitude": "42.31607000",
    "longitude": "3.11621000",
    "native": null,
    "timezone": null,
    "translations": {}
  },
  {
    "id": 151683,
    "name": "Pedret i Marzà",
    "state_id": 5103,
    "state_code": "GI",
    "country_id": 207,
    "country_code": "ES",
    "latitude": "42.31033130",
    "longitude": "3.06810530",
    "native": null,
    "timezone": null,
    "translations": {}
  },
  {
    "id": 151684,
    "name": "Pera La",
    "state_id": 5103,
    "state_code": "GI",
    "country_id": 207,
    "country_code": "ES",
    "latitude": "42.01507420",
    "longitude": "2.97255630",
    "native": null,
    "timezone": null,
    "translations": {}
  },
  {
    "id": 151685,
    "name": "Peralada",
    "state_id": 5103,
    "state_code": "GI",
    "country_id": 207,
    "country_code": "ES",
    "latitude": "42.30835230",
    "longitude": "3.00944040",
    "native": null,
    "timezone": null,
    "translations": {}
  },
  {
    "id": 151686,
    "name": "Planes dHostoles Les",
    "state_id": 5103,
    "state_code": "GI",
    "country_id": 207,
    "country_code": "ES",
    "latitude": "42.05638630",
    "longitude": "2.53836470",
    "native": null,
    "timezone": null,
    "translations": {}
  },
  {
    "id": 36235,
    "name": "Planoles",
    "state_id": 5103,
    "state_code": "GI",
    "country_id": 207,
    "country_code": "ES",
    "latitude": "42.31667000",
    "longitude": "2.10000000",
    "native": null,
    "timezone": null,
    "translations": {}
  },
  {
    "id": 36271,
    "name": "Pont de Molins",
    "state_id": 5103,
    "state_code": "GI",
    "country_id": 207,
    "country_code": "ES",
    "latitude": "42.31440000",
    "longitude": "2.92996000",
    "native": null,
    "timezone": null,
    "translations": {}
  },
  {
    "id": 36276,
    "name": "Pontós",
    "state_id": 5103,
    "state_code": "GI",
    "country_id": 207,
    "country_code": "ES",
    "latitude": "42.18665000",
    "longitude": "2.91706000",
    "native": null,
    "timezone": null,
    "translations": {}
  },
  {
    "id": 151687,
    "name": "Porqueres",
    "state_id": 5103,
    "state_code": "GI",
    "country_id": 207,
    "country_code": "ES",
    "latitude": "42.12019530",
    "longitude": "2.74628700",
    "native": null,
    "timezone": null,
    "translations": {}
  },
  {
    "id": 151689,
    "name": "Port de la Selva El",
    "state_id": 5103,
    "state_code": "GI",
    "country_id": 207,
    "country_code": "ES",
    "latitude": "42.31902480",
    "longitude": "3.22819830",
    "native": null,
    "timezone": null,
    "translations": {}
  },
  {
    "id": 36287,
    "name": "Portbou",
    "state_id": 5103,
    "state_code": "GI",
    "country_id": 207,
    "country_code": "ES",
    "latitude": "42.42650000",
    "longitude": "3.15805000",
    "native": null,
    "timezone": null,
    "translations": {}
  },
  {
    "id": 151688,
    "name": "Preses Les",
    "state_id": 5103,
    "state_code": "GI",
    "country_id": 207,
    "country_code": "ES",
    "latitude": "42.14639980",
    "longitude": "2.45973460",
    "native": null,
    "timezone": null,
    "translations": {}
  },
  {
    "id": 36462,
    "name": "Puigcerdà",
    "state_id": 5103,
    "state_code": "GI",
    "country_id": 207,
    "country_code": "ES",
    "latitude": "42.43160000",
    "longitude": "1.92819000",
    "native": null,
    "timezone": null,
    "translations": {}
  },
  {
    "id": 151690,
    "name": "Quart",
    "state_id": 5103,
    "state_code": "GI",
    "country_id": 207,
    "country_code": "ES",
    "latitude": "41.93780310",
    "longitude": "2.84106750",
    "native": null,
    "timezone": null,
    "translations": {}
  },
  {
    "id": 151646,
    "name": "Queralbs",
    "state_id": 5103,
    "state_code": "GI",
    "country_id": 207,
    "country_code": "ES",
    "latitude": "42.34953030",
    "longitude": "2.16282990",
    "native": null,
    "timezone": null,
    "translations": {}
  },
  {
    "id": 36537,
    "name": "Rabós",
    "state_id": 5103,
    "state_code": "GI",
    "country_id": 207,
    "country_code": "ES",
    "latitude": "42.37890000",
    "longitude": "3.02828000",
    "native": null,
    "timezone": null,
    "translations": {}
  },
  {
    "id": 36564,
    "name": "Regencós",
    "state_id": 5103,
    "state_code": "GI",
    "country_id": 207,
    "country_code": "ES",
    "latitude": "41.95271000",
    "longitude": "3.17006000",
    "native": null,
    "timezone": null,
    "translations": {}
  },
  {
    "id": 36617,
    "name": "Ribes de Freser",
    "state_id": 5103,
    "state_code": "GI",
    "country_id": 207,
    "country_code": "ES",
    "latitude": "42.30417000",
    "longitude": "2.16757000",
    "native": null,
    "timezone": null,
    "translations": {}
  },
  {
    "id": 151691,
    "name": "Riells i Viabrea",
    "state_id": 5103,
    "state_code": "GI",
    "country_id": 207,
    "country_code": "ES",
    "latitude": "41.72936760",
    "longitude": "2.54400260",
    "native": null,
    "timezone": null,
    "translations": {}
  },
  {
    "id": 36632,
    "name": "Ripoll",
    "state_id": 5103,
    "state_code": "GI",
    "country_id": 207,
    "country_code": "ES",
    "latitude": "42.20064000",
    "longitude": "2.19033000",
    "native": null,
    "timezone": null,
    "translations": {}
  },
  {
    "id": 151692,
    "name": "Riudarenes",
    "state_id": 5103,
    "state_code": "GI",
    "country_id": 207,
    "country_code": "ES",
    "latitude": "41.82664320",
    "longitude": "2.71386990",
    "native": null,
    "timezone": null,
    "translations": {}
  },
  {
    "id": 151693,
    "name": "Riudaura",
    "state_id": 5103,
    "state_code": "GI",
    "country_id": 207,
    "country_code": "ES",
    "latitude": "42.18885370",
    "longitude": "2.40856240",
    "native": null,
    "timezone": null,
    "translations": {}
  },
  {
    "id": 36636,
    "name": "Riudellots de la Selva",
    "state_id": 5103,
    "state_code": "GI",
    "country_id": 207,
    "country_code": "ES",
    "latitude": "41.89327000",
    "longitude": "2.80452000",
    "native": null,
    "timezone": null,
    "translations": {}
  },
  {
    "id": 36638,
    "name": "Riumors",
    "state_id": 5103,
    "state_code": "GI",
    "country_id": 207,
    "country_code": "ES",
    "latitude": "42.22726000",
    "longitude": "3.04190000",
    "native": null,
    "timezone": null,
    "translations": {}
  },
  {
    "id": 36679,
    "name": "Roses",
    "state_id": 5103,
    "state_code": "GI",
    "country_id": 207,
    "country_code": "ES",
    "latitude": "42.26199000",
    "longitude": "3.17689000",
    "native": null,
    "timezone": null,
    "translations": {}
  },
  {
    "id": 36704,
    "name": "Rupià",
    "state_id": 5103,
    "state_code": "GI",
    "country_id": 207,
    "country_code": "ES",
    "latitude": "42.01667000",
    "longitude": "3.01667000",
    "native": null,
    "timezone": null,
    "translations": {}
  },
  {
    "id": 36760,
    "name": "Sales de Llierca",
    "state_id": 5103,
    "state_code": "GI",
    "country_id": 207,
    "country_code": "ES",
    "latitude": "42.23333000",
    "longitude": "2.65000000",
    "native": null,
    "timezone": null,
    "translations": {}
  },
  {
    "id": 36778,
    "name": "Salt",
    "state_id": 5103,
    "state_code": "GI",
    "country_id": 207,
    "country_code": "ES",
    "latitude": "41.97489000",
    "longitude": "2.79281000",
    "native": null,
    "timezone": null,
    "translations": {}
  },
  {
    "id": 36953,
    "name": "Sant Andreu Salou",
    "state_id": 5103,
    "state_code": "GI",
    "country_id": 207,
    "country_code": "ES",
    "latitude": "41.86667000",
    "longitude": "2.83333000",
    "native": null,
    "timezone": null,
    "translations": {}
  },
  {
    "id": 151709,
    "name": "Sant Aniol de Finestres",
    "state_id": 5103,
    "state_code": "GI",
    "country_id": 207,
    "country_code": "ES",
    "latitude": "42.08919800",
    "longitude": "2.59086900",
    "native": null,
    "timezone": null,
    "translations": {}
  },
  {
    "id": 151694,
    "name": "Sant Climent Sescebes",
    "state_id": 5103,
    "state_code": "GI",
    "country_id": 207,
    "country_code": "ES",
    "latitude": "42.36876550",
    "longitude": "2.98119410",
    "native": null,
    "timezone": null,
    "translations": {}
  },
  {
    "id": 151695,
    "name": "Sant Feliu de Buixalleu",
    "state_id": 5103,
    "state_code": "GI",
    "country_id": 207,
    "country_code": "ES",
    "latitude": "41.79101370",
    "longitude": "2.58575570",
    "native": null,
    "timezone": null,
    "translations": {}
  },
  {
    "id": 36964,
    "name": "Sant Feliu de Guíxols",
    "state_id": 5103,
    "state_code": "GI",
    "country_id": 207,
    "country_code": "ES",
    "latitude": "41.78333000",
    "longitude": "3.03333000",
    "native": null,
    "timezone": null,
    "translations": {}
  },
  {
    "id": 151696,
    "name": "Sant Feliu de Pallerols",
    "state_id": 5103,
    "state_code": "GI",
    "country_id": 207,
    "country_code": "ES",
    "latitude": "42.07681700",
    "longitude": "2.50865390",
    "native": null,
    "timezone": null,
    "translations": {}
  },
  {
    "id": 36966,
    "name": "Sant Ferriol",
    "state_id": 5103,
    "state_code": "GI",
    "country_id": 207,
    "country_code": "ES",
    "latitude": "42.20000000",
    "longitude": "2.66667000",
    "native": null,
    "timezone": null,
    "translations": {}
  },
  {
    "id": 151697,
    "name": "Sant Gregori",
    "state_id": 5103,
    "state_code": "GI",
    "country_id": 207,
    "country_code": "ES",
    "latitude": "41.98940100",
    "longitude": "2.76076570",
    "native": null,
    "timezone": null,
    "translations": {}
  },
  {
    "id": 36970,
    "name": "Sant Hilari Sacalm",
    "state_id": 5103,
    "state_code": "GI",
    "country_id": 207,
    "country_code": "ES",
    "latitude": "41.88333000",
    "longitude": "2.51667000",
    "native": null,
    "timezone": null,
    "translations": {}
  },
  {
    "id": 151698,
    "name": "Sant Jaume de Llierca",
    "state_id": 5103,
    "state_code": "GI",
    "country_id": 207,
    "country_code": "ES",
    "latitude": "42.21105750",
    "longitude": "2.60590380",
    "native": null,
    "timezone": null,
    "translations": {}
  },
  {
    "id": 36976,
    "name": "Sant Joan de les Abadesses",
    "state_id": 5103,
    "state_code": "GI",
    "country_id": 207,
    "country_code": "ES",
    "latitude": "42.23332000",
    "longitude": "2.28524000",
    "native": null,
    "timezone": null,
    "translations": {}
  },
  {
    "id": 151699,
    "name": "Sant Joan de Mollet",
    "state_id": 5103,
    "state_code": "GI",
    "country_id": 207,
    "country_code": "ES",
    "latitude": "42.04616130",
    "longitude": "2.94194530",
    "native": null,
    "timezone": null,
    "translations": {}
  },
  {
    "id": 36977,
    "name": "Sant Joan les Fonts",
    "state_id": 5103,
    "state_code": "GI",
    "country_id": 207,
    "country_code": "ES",
    "latitude": "42.21186000",
    "longitude": "2.51291000",
    "native": null,
    "timezone": null,
    "translations": {}
  },
  {
    "id": 36979,
    "name": "Sant Jordi Desvalls",
    "state_id": 5103,
    "state_code": "GI",
    "country_id": 207,
    "country_code": "ES",
    "latitude": "42.06667000",
    "longitude": "2.95000000",
    "native": null,
    "timezone": null,
    "translations": {}
  },
  {
    "id": 151700,
    "name": "Sant Julià de Ramis",
    "state_id": 5103,
    "state_code": "GI",
    "country_id": 207,
    "country_code": "ES",
    "latitude": "42.03444740",
    "longitude": "2.83945190",
    "native": null,
    "timezone": null,
    "translations": {}
  },
  {
    "id": 151731,
    "name": "Sant Julià del Llor i Bonmatí",
    "state_id": 5103,
    "state_code": "GI",
    "country_id": 207,
    "country_code": "ES",
    "latitude": "41.97335800",
    "longitude": "2.65367420",
    "native": null,
    "timezone": null,
    "translations": {}
  },
  {
    "id": 151702,
    "name": "Sant Llorenç de la Muga",
    "state_id": 5103,
    "state_code": "GI",
    "country_id": 207,
    "country_code": "ES",
    "latitude": "42.32253180",
    "longitude": "2.78856260",
    "native": null,
    "timezone": null,
    "translations": {}
  },
  {
    "id": 151703,
    "name": "Sant Martí de Llémena",
    "state_id": 5103,
    "state_code": "GI",
    "country_id": 207,
    "country_code": "ES",
    "latitude": "42.03631410",
    "longitude": "2.64715720",
    "native": null,
    "timezone": null,
    "translations": {}
  },
  {
    "id": 36987,
    "name": "Sant Martí Vell",
    "state_id": 5103,
    "state_code": "GI",
    "country_id": 207,
    "country_code": "ES",
    "latitude": "42.01667000",
    "longitude": "2.93333000",
    "native": null,
    "timezone": null,
    "translations": {}
  },
  {
    "id": 36991,
    "name": "Sant Miquel de Campmajor",
    "state_id": 5103,
    "state_code": "GI",
    "country_id": 207,
    "country_code": "ES",
    "latitude": "42.13333000",
    "longitude": "2.68333000",
    "native": null,
    "timezone": null,
    "translations": {}
  },
  {
    "id": 151704,
    "name": "Sant Miquel de Fluvià",
    "state_id": 5103,
    "state_code": "GI",
    "country_id": 207,
    "country_code": "ES",
    "latitude": "42.17580380",
    "longitude": "2.99068220",
    "native": null,
    "timezone": null,
    "translations": {}
  },
  {
    "id": 151705,
    "name": "Sant Mori",
    "state_id": 5103,
    "state_code": "GI",
    "country_id": 207,
    "country_code": "ES",
    "latitude": "42.15514890",
    "longitude": "2.99036960",
    "native": null,
    "timezone": null,
    "translations": {}
  },
  {
    "id": 151706,
    "name": "Sant Pau de Segúries",
    "state_id": 5103,
    "state_code": "GI",
    "country_id": 207,
    "country_code": "ES",
    "latitude": "42.26304370",
    "longitude": "2.36717180",
    "native": null,
    "timezone": null,
    "translations": {}
  },
  {
    "id": 36992,
    "name": "Sant Pere Pescador",
    "state_id": 5103,
    "state_code": "GI",
    "country_id": 207,
    "country_code": "ES",
    "latitude": "42.18812000",
    "longitude": "3.08212000",
    "native": null,
    "timezone": null,
    "translations": {}
  },
  {
    "id": 37016,
    "name": "Santa Coloma de Farners",
    "state_id": 5103,
    "state_code": "GI",
    "country_id": 207,
    "country_code": "ES",
    "latitude": "41.86667000",
    "longitude": "2.66667000",
    "native": null,
    "timezone": null,
    "translations": {}
  },
  {
    "id": 151707,
    "name": "Santa Cristina dAro",
    "state_id": 5103,
    "state_code": "GI",
    "country_id": 207,
    "country_code": "ES",
    "latitude": "41.81377770",
    "longitude": "2.99729860",
    "native": null,
    "timezone": null,
    "translations": {}
  },
  {
    "id": 151708,
    "name": "Santa Llogaia dÀlguema",
    "state_id": 5103,
    "state_code": "GI",
    "country_id": 207,
    "country_code": "ES",
    "latitude": "42.23350980",
    "longitude": "2.95193850",
    "native": null,
    "timezone": null,
    "translations": {}
  },
  {
    "id": 37096,
    "name": "Santa Pau",
    "state_id": 5103,
    "state_code": "GI",
    "country_id": 207,
    "country_code": "ES",
    "latitude": "42.14430000",
    "longitude": "2.57123000",
    "native": null,
    "timezone": null,
    "translations": {}
  },
  {
    "id": 37171,
    "name": "Sarrià de Ter",
    "state_id": 5103,
    "state_code": "GI",
    "country_id": 207,
    "country_code": "ES",
    "latitude": "42.01667000",
    "longitude": "2.83333000",
    "native": null,
    "timezone": null,
    "translations": {}
  },
  {
    "id": 151710,
    "name": "Saus  Camallera i Llampaies",
    "state_id": 5103,
    "state_code": "GI",
    "country_id": 207,
    "country_code": "ES",
    "latitude": "42.13370500",
    "longitude": "2.97255630",
    "native": null,
    "timezone": null,
    "translations": {}
  },
  {
    "id": 151711,
    "name": "Selva de Mar La",
    "state_id": 5103,
    "state_code": "GI",
    "country_id": 207,
    "country_code": "ES",
    "latitude": "42.32416920",
    "longitude": "3.18706670",
    "native": null,
    "timezone": null,
    "translations": {}
  },
  {
    "id": 151713,
    "name": "Serinyà",
    "state_id": 5103,
    "state_code": "GI",
    "country_id": 207,
    "country_code": "ES",
    "latitude": "42.16879560",
    "longitude": "2.74411940",
    "native": null,
    "timezone": null,
    "translations": {}
  },
  {
    "id": 37219,
    "name": "Serra de Daró",
    "state_id": 5103,
    "state_code": "GI",
    "country_id": 207,
    "country_code": "ES",
    "latitude": "42.02877000",
    "longitude": "3.07222000",
    "native": null,
    "timezone": null,
    "translations": {}
  },
  {
    "id": 151714,
    "name": "Setcases",
    "state_id": 5103,
    "state_code": "GI",
    "country_id": 207,
    "country_code": "ES",
    "latitude": "42.37510230",
    "longitude": "2.30182770",
    "native": null,
    "timezone": null,
    "translations": {}
  },
  {
    "id": 37257,
    "name": "Sils",
    "state_id": 5103,
    "state_code": "GI",
    "country_id": 207,
    "country_code": "ES",
    "latitude": "41.80842000",
    "longitude": "2.74507000",
    "native": null,
    "timezone": null,
    "translations": {}
  },
  {
    "id": 37268,
    "name": "Siurana",
    "state_id": 5103,
    "state_code": "GI",
    "country_id": 207,
    "country_code": "ES",
    "latitude": "42.20916000",
    "longitude": "2.99392000",
    "native": null,
    "timezone": null,
    "translations": {}
  },
  {
    "id": 37334,
    "name": "Susqueda",
    "state_id": 5103,
    "state_code": "GI",
    "country_id": 207,
    "country_code": "ES",
    "latitude": "41.97776000",
    "longitude": "2.51652000",
    "native": null,
    "timezone": null,
    "translations": {}
  },
  {
    "id": 151715,
    "name": "Tallada dEmpordà La",
    "state_id": 5103,
    "state_code": "GI",
    "country_id": 207,
    "country_code": "ES",
    "latitude": "42.07891790",
    "longitude": "3.05608770",
    "native": null,
    "timezone": null,
    "translations": {}
  },
  {
    "id": 151716,
    "name": "Terrades",
    "state_id": 5103,
    "state_code": "GI",
    "country_id": 207,
    "country_code": "ES",
    "latitude": "42.30994090",
    "longitude": "2.83807720",
    "native": null,
    "timezone": null,
    "translations": {}
  },
  {
    "id": 37565,
    "name": "Torrent",
    "state_id": 5103,
    "state_code": "GI",
    "country_id": 207,
    "country_code": "ES",
    "latitude": "41.95243000",
    "longitude": "3.12684000",
    "native": null,
    "timezone": null,
    "translations": {}
  },
  {
    "id": 37590,
    "name": "Torroella de Fluvià",
    "state_id": 5103,
    "state_code": "GI",
    "country_id": 207,
    "country_code": "ES",
    "latitude": "42.17522000",
    "longitude": "3.04025000",
    "native": null,
    "timezone": null,
    "translations": {}
  },
  {
    "id": 37591,
    "name": "Torroella de Montgrí",
    "state_id": 5103,
    "state_code": "GI",
    "country_id": 207,
    "country_code": "ES",
    "latitude": "42.04254000",
    "longitude": "3.12703000",
    "native": null,
    "timezone": null,
    "translations": {}
  },
  {
    "id": 151717,
    "name": "Tortellà",
    "state_id": 5103,
    "state_code": "GI",
    "country_id": 207,
    "country_code": "ES",
    "latitude": "42.23388280",
    "longitude": "2.63195430",
    "native": null,
    "timezone": null,
    "translations": {}
  },
  {
    "id": 151718,
    "name": "Toses",
    "state_id": 5103,
    "state_code": "GI",
    "country_id": 207,
    "country_code": "ES",
    "latitude": "42.32660730",
    "longitude": "2.03711600",
    "native": null,
    "timezone": null,
    "translations": {}
  },
  {
    "id": 37604,
    "name": "Tossa de Mar",
    "state_id": 5103,
    "state_code": "GI",
    "country_id": 207,
    "country_code": "ES",
    "latitude": "41.71667000",
    "longitude": "2.93333000",
    "native": null,
    "timezone": null,
    "translations": {}
  },
  {
    "id": 37683,
    "name": "Ullà",
    "state_id": 5103,
    "state_code": "GI",
    "country_id": 207,
    "country_code": "ES",
    "latitude": "42.04964000",
    "longitude": "3.10754000",
    "native": null,
    "timezone": null,
    "translations": {}
  },
  {
    "id": 151719,
    "name": "Ullastret",
    "state_id": 5103,
    "state_code": "GI",
    "country_id": 207,
    "country_code": "ES",
    "latitude": "41.97171910",
    "longitude": "2.83009710",
    "native": null,
    "timezone": null,
    "translations": {}
  },
  {
    "id": 37684,
    "name": "Ultramort",
    "state_id": 5103,
    "state_code": "GI",
    "country_id": 207,
    "country_code": "ES",
    "latitude": "42.03640000",
    "longitude": "3.03455000",
    "native": null,
    "timezone": null,
    "translations": {}
  },
  {
    "id": 37702,
    "name": "Urús",
    "state_id": 5103,
    "state_code": "GI",
    "country_id": 207,
    "country_code": "ES",
    "latitude": "42.35131000",
    "longitude": "1.85343000",
    "native": null,
    "timezone": null,
    "translations": {}
  },
  {
    "id": 151637,
    "name": "Vajol La",
    "state_id": 5103,
    "state_code": "GI",
    "country_id": 207,
    "country_code": "ES",
    "latitude": "42.40368340",
    "longitude": "2.80008020",
    "native": null,
    "timezone": null,
    "translations": {}
  },
  {
    "id": 151721,
    "name": "Vall de Bianya La",
    "state_id": 5103,
    "state_code": "GI",
    "country_id": 207,
    "country_code": "ES",
    "latitude": "42.21104920",
    "longitude": "2.45382600",
    "native": null,
    "timezone": null,
    "translations": {}
  },
  {
    "id": 151720,
    "name": "Vall den Bas La",
    "state_id": 5103,
    "state_code": "GI",
    "country_id": 207,
    "country_code": "ES",
    "latitude": "42.11164050",
    "longitude": "2.44063870",
    "native": null,
    "timezone": null,
    "translations": {}
  },
  {
    "id": 151722,
    "name": "Vall-llobrega",
    "state_id": 5103,
    "state_code": "GI",
    "country_id": 207,
    "country_code": "ES",
    "latitude": "41.88083120",
    "longitude": "3.12896930",
    "native": null,
    "timezone": null,
    "translations": {}
  },
  {
    "id": 151701,
    "name": "Vallfogona de Ripollès",
    "state_id": 5103,
    "state_code": "GI",
    "country_id": 207,
    "country_code": "ES",
    "latitude": "42.18341820",
    "longitude": "2.31230310",
    "native": null,
    "timezone": null,
    "translations": {}
  },
  {
    "id": 37939,
    "name": "Ventalló",
    "state_id": 5103,
    "state_code": "GI",
    "country_id": 207,
    "country_code": "ES",
    "latitude": "42.14921000",
    "longitude": "3.02635000",
    "native": null,
    "timezone": null,
    "translations": {}
  },
  {
    "id": 37953,
    "name": "Verges",
    "state_id": 5103,
    "state_code": "GI",
    "country_id": 207,
    "country_code": "ES",
    "latitude": "42.06283000",
    "longitude": "3.04579000",
    "native": null,
    "timezone": null,
    "translations": {}
  },
  {
    "id": 37967,
    "name": "Vidrà",
    "state_id": 5103,
    "state_code": "GI",
    "country_id": 207,
    "country_code": "ES",
    "latitude": "42.12285000",
    "longitude": "2.30977000",
    "native": null,
    "timezone": null,
    "translations": {}
  },
  {
    "id": 37966,
    "name": "Vidreres",
    "state_id": 5103,
    "state_code": "GI",
    "country_id": 207,
    "country_code": "ES",
    "latitude": "41.78333000",
    "longitude": "2.78333000",
    "native": null,
    "timezone": null,
    "translations": {}
  },
  {
    "id": 151726,
    "name": "Vila-sacra",
    "state_id": 5103,
    "state_code": "GI",
    "country_id": 207,
    "country_code": "ES",
    "latitude": "42.26540130",
    "longitude": "3.01820540",
    "native": null,
    "timezone": null,
    "translations": {}
  },
  {
    "id": 37975,
    "name": "Vilabertran",
    "state_id": 5103,
    "state_code": "GI",
    "country_id": 207,
    "country_code": "ES",
    "latitude": "42.28255000",
    "longitude": "2.98144000",
    "native": null,
    "timezone": null,
    "translations": {}
  },
  {
    "id": 37976,
    "name": "Vilablareix",
    "state_id": 5103,
    "state_code": "GI",
    "country_id": 207,
    "country_code": "ES",
    "latitude": "41.95746000",
    "longitude": "2.77377000",
    "native": null,
    "timezone": null,
    "translations": {}
  },
  {
    "id": 151723,
    "name": "Viladamat",
    "state_id": 5103,
    "state_code": "GI",
    "country_id": 207,
    "country_code": "ES",
    "latitude": "42.13287700",
    "longitude": "3.07452550",
    "native": null,
    "timezone": null,
    "translations": {}
  },
  {
    "id": 37977,
    "name": "Viladasens",
    "state_id": 5103,
    "state_code": "GI",
    "country_id": 207,
    "country_code": "ES",
    "latitude": "42.08333000",
    "longitude": "2.93333000",
    "native": null,
    "timezone": null,
    "translations": {}
  },
  {
    "id": 37979,
    "name": "Vilademuls",
    "state_id": 5103,
    "state_code": "GI",
    "country_id": 207,
    "country_code": "ES",
    "latitude": "42.13890000",
    "longitude": "2.88819000",
    "native": null,
    "timezone": null,
    "translations": {}
  },
  {
    "id": 37980,
    "name": "Viladrau",
    "state_id": 5103,
    "state_code": "GI",
    "country_id": 207,
    "country_code": "ES",
    "latitude": "41.84746000",
    "longitude": "2.39019000",
    "native": null,
    "timezone": null,
    "translations": {}
  },
  {
    "id": 37981,
    "name": "Vilafant",
    "state_id": 5103,
    "state_code": "GI",
    "country_id": 207,
    "country_code": "ES",
    "latitude": "42.24668000",
    "longitude": "2.93820000",
    "native": null,
    "timezone": null,
    "translations": {}
  },
  {
    "id": 37986,
    "name": "Vilajuïga",
    "state_id": 5103,
    "state_code": "GI",
    "country_id": 207,
    "country_code": "ES",
    "latitude": "42.32533000",
    "longitude": "3.09302000",
    "native": null,
    "timezone": null,
    "translations": {}
  },
  {
    "id": 151725,
    "name": "Vilallonga de Ter",
    "state_id": 5103,
    "state_code": "GI",
    "country_id": 207,
    "country_code": "ES",
    "latitude": "42.33053200",
    "longitude": "2.31104170",
    "native": null,
    "timezone": null,
    "translations": {}
  },
  {
    "id": 37988,
    "name": "Vilamacolum",
    "state_id": 5103,
    "state_code": "GI",
    "country_id": 207,
    "country_code": "ES",
    "latitude": "42.19618000",
    "longitude": "3.05662000",
    "native": null,
    "timezone": null,
    "translations": {}
  },
  {
    "id": 37989,
    "name": "Vilamalla",
    "state_id": 5103,
    "state_code": "GI",
    "country_id": 207,
    "country_code": "ES",
    "latitude": "42.21720000",
    "longitude": "2.97009000",
    "native": null,
    "timezone": null,
    "translations": {}
  },
  {
    "id": 37990,
    "name": "Vilamaniscle",
    "state_id": 5103,
    "state_code": "GI",
    "country_id": 207,
    "country_code": "ES",
    "latitude": "42.37522000",
    "longitude": "3.06755000",
    "native": null,
    "timezone": null,
    "translations": {}
  },
  {
    "id": 37992,
    "name": "Vilanant",
    "state_id": 5103,
    "state_code": "GI",
    "country_id": 207,
    "country_code": "ES",
    "latitude": "42.25471000",
    "longitude": "2.88923000",
    "native": null,
    "timezone": null,
    "translations": {}
  },
  {
    "id": 151724,
    "name": "Vilaür",
    "state_id": 5103,
    "state_code": "GI",
    "country_id": 207,
    "country_code": "ES",
    "latitude": "42.14372910",
    "longitude": "2.95474950",
    "native": null,
    "timezone": null,
    "translations": {}
  },
  {
    "id": 151727,
    "name": "Vilobí dOnyar",
    "state_id": 5103,
    "state_code": "GI",
    "country_id": 207,
    "country_code": "ES",
    "latitude": "41.88889760",
    "longitude": "2.74127650",
    "native": null,
    "timezone": null,
    "translations": {}
  },
  {
    "id": 38382,
    "name": "Vilopriu",
    "state_id": 5103,
    "state_code": "GI",
    "country_id": 207,
    "country_code": "ES",
    "latitude": "42.10000000",
    "longitude": "3.00000000",
    "native": null,
    "timezone": null,
    "translations": {}
  }
]