[
  {
    "id": 102916,
    "name": "Ad Dabbah",
    "state_id": 895,
    "state_code": "NO",
    "country_id": 209,
    "country_code": "SD",
    "latitude": "18.05000000",
    "longitude": "30.95000000",
    "native": null,
    "timezone": null,
    "translations": {}
  },
  {
    "id": 102935,
    "name": "Argo",
    "state_id": 895,
    "state_code": "NO",
    "country_id": 209,
    "country_code": "SD",
    "latitude": "19.51667000",
    "longitude": "30.41667000",
    "native": null,
    "timezone": null,
    "translations": {}
  },
  {
    "id": 102943,
    "name": "Dongola",
    "state_id": 895,
    "state_code": "NO",
    "country_id": 209,
    "country_code": "SD",
    "latitude": "19.18163000",
    "longitude": "30.47689000",
    "native": null,
    "timezone": null,
    "translations": {}
  },
  {
    "id": 102955,
    "name": "Karmah an Nuzul",
    "state_id": 895,
    "state_code": "NO",
    "country_id": 209,
    "country_code": "SD",
    "latitude": "19.63333000",
    "longitude": "30.41667000",
    "native": null,
    "timezone": null,
    "translations": {}
  },
  {
    "id": 102960,
    "name": "Kuraymah",
    "state_id": 895,
    "state_code": "NO",
    "country_id": 209,
    "country_code": "SD",
    "latitude": "18.55000000",
    "longitude": "31.85000000",
    "native": null,
    "timezone": null,
    "translations": {}
  },
  {
    "id": 102965,
    "name": "Merowe",
    "state_id": 895,
    "state_code": "NO",
    "country_id": 209,
    "country_code": "SD",
    "latitude": "18.47036000",
    "longitude": "31.81126000",
    "native": null,
    "timezone": null,
    "translations": {}
  }
]