[
  {
    "id": 130070,
    "name": "Colón",
    "state_id": 2048,
    "state_code": "S",
    "country_id": 239,
    "country_code": "VE",
    "latitude": "8.03125000",
    "longitude": "-72.26053000",
    "native": null,
    "timezone": null,
    "translations": {}
  },
  {
    "id": 130090,
    "name": "La Fría",
    "state_id": 2048,
    "state_code": "S",
    "country_id": 239,
    "country_code": "VE",
    "latitude": "8.21523000",
    "longitude": "-72.24888000",
    "native": null,
    "timezone": null,
    "translations": {}
  },
  {
    "id": 130091,
    "name": "La Grita",
    "state_id": 2048,
    "state_code": "S",
    "country_id": 239,
    "country_code": "VE",
    "latitude": "8.13316000",
    "longitude": "-71.98390000",
    "native": null,
    "timezone": null,
    "translations": {}
  },
  {
    "id": 130114,
    "name": "Municipio José María Vargas",
    "state_id": 2048,
    "state_code": "S",
    "country_id": 239,
    "country_code": "VE",
    "latitude": "8.03514000",
    "longitude": "-72.05675000",
    "native": null,
    "timezone": null,
    "translations": {}
  },
  {
    "id": 130138,
    "name": "Rubio",
    "state_id": 2048,
    "state_code": "S",
    "country_id": 239,
    "country_code": "VE",
    "latitude": "7.70131000",
    "longitude": "-72.35569000",
    "native": null,
    "timezone": null,
    "translations": {}
  },
  {
    "id": 130140,
    "name": "San Antonio del Táchira",
    "state_id": 2048,
    "state_code": "S",
    "country_id": 239,
    "country_code": "VE",
    "latitude": "7.81454000",
    "longitude": "-72.44310000",
    "native": null,
    "timezone": null,
    "translations": {}
  },
  {
    "id": 130144,
    "name": "San Cristóbal",
    "state_id": 2048,
    "state_code": "S",
    "country_id": 239,
    "country_code": "VE",
    "latitude": "7.76694000",
    "longitude": "-72.22500000",
    "native": null,
    "timezone": null,
    "translations": {}
  },
  {
    "id": 130163,
    "name": "Táriba",
    "state_id": 2048,
    "state_code": "S",
    "country_id": 239,
    "country_code": "VE",
    "latitude": "7.81880000",
    "longitude": "-72.22427000",
    "native": null,
    "timezone": null,
    "translations": {}
  }
]