[
  {
    "id": 81413,
    "name": "Bagumbayan",
    "state_id": 1282,
    "state_code": "SUK",
    "country_id": 174,
    "country_code": "PH",
    "latitude": "6.47305080",
    "longitude": "124.33843910",
    "native": null,
    "timezone": null,
    "translations": {}
  },
  {
    "id": 154814,
    "name": "Esperanza",
    "state_id": 1282,
    "state_code": "SUK",
    "country_id": 174,
    "country_code": "PH",
    "latitude": "6.72072040",
    "longitude": "124.26975300",
    "native": null,
    "timezone": null,
    "translations": {}
  },
  {
    "id": 82773,
    "name": "Isulan",
    "state_id": 1282,
    "state_code": "SUK",
    "country_id": 174,
    "country_code": "PH",
    "latitude": "6.60762030",
    "longitude": "124.29080290",
    "native": null,
    "timezone": null,
    "translations": {}
  },
  {
    "id": 82840,
    "name": "Kalamansig",
    "state_id": 1282,
    "state_code": "SUK",
    "country_id": 174,
    "country_code": "PH",
    "latitude": "6.50930830",
    "longitude": "123.98334660",
    "native": null,
    "timezone": null,
    "translations": {}
  },
  {
    "id": 82996,
    "name": "Lambayong",
    "state_id": 1282,
    "state_code": "SUK",
    "country_id": 174,
    "country_code": "PH",
    "latitude": "6.77514560",
    "longitude": "124.54633310",
    "native": null,
    "timezone": null,
    "translations": {}
  },
  {
    "id": 143985,
    "name": "Lebak",
    "state_id": 1282,
    "state_code": "SUK",
    "country_id": 174,
    "country_code": "PH",
    "latitude": "6.66538430",
    "longitude": "123.98043910",
    "native": null,
    "timezone": null,
    "translations": {}
  },
  {
    "id": 83251,
    "name": "Lutayan",
    "state_id": 1282,
    "state_code": "SUK",
    "country_id": 174,
    "country_code": "PH",
    "latitude": "6.61267500",
    "longitude": "124.77481440",
    "native": null,
    "timezone": null,
    "translations": {}
  },
  {
    "id": 144051,
    "name": "Palimbang",
    "state_id": 1282,
    "state_code": "SUK",
    "country_id": 174,
    "country_code": "PH",
    "latitude": "6.27259210",
    "longitude": "124.05820170",
    "native": null,
    "timezone": null,
    "translations": {}
  },
  {
    "id": 144066,
    "name": "President Quirino",
    "state_id": 1282,
    "state_code": "SUK",
    "country_id": 174,
    "country_code": "PH",
    "latitude": "6.69698670",
    "longitude": "124.64899740",
    "native": null,
    "timezone": null,
    "translations": {}
  },
  {
    "id": 154815,
    "name": "Senator Ninoy Aquino",
    "state_id": 1282,
    "state_code": "SUK",
    "country_id": 174,
    "country_code": "PH",
    "latitude": "6.36771520",
    "longitude": "124.20437150",
    "native": null,
    "timezone": null,
    "translations": {}
  },
  {
    "id": 144091,
    "name": "Tacurong",
    "state_id": 1282,
    "state_code": "SUK",
    "country_id": 174,
    "country_code": "PH",
    "latitude": "6.66403770",
    "longitude": "124.59040720",
    "native": null,
    "timezone": null,
    "translations": {}
  }
]