[
  {
    "id": 8457,
    "name": "Bandarban",
    "state_id": 803,
    "state_code": "B",
    "country_id": 19,
    "country_code": "BD",
    "latitude": "22.00000000",
    "longitude": "92.33333000",
    "native": null,
    "timezone": null,
    "translations": {}
  },
  {
    "id": 8470,
    "name": "Brahmanbaria",
    "state_id": 803,
    "state_code": "B",
    "country_id": 19,
    "country_code": "BD",
    "latitude": "23.98333000",
    "longitude": "91.16667000",
    "native": null,
    "timezone": null,
    "translations": {}
  },
  {
    "id": 8474,
    "name": "Chandpur",
    "state_id": 803,
    "state_code": "B",
    "country_id": 19,
    "country_code": "BD",
    "latitude": "23.25000000",
    "longitude": "90.83333000",
    "native": null,
    "timezone": null,
    "translations": {}
  },
  {
    "id": 8481,
    "name": "Chittagong",
    "state_id": 803,
    "state_code": "B",
    "country_id": 19,
    "country_code": "BD",
    "latitude": "22.48750000",
    "longitude": "91.96333000",
    "native": null,
    "timezone": null,
    "translations": {}
  },
  {
    "id": 8483,
    "name": "Comilla",
    "state_id": 803,
    "state_code": "B",
    "country_id": 19,
    "country_code": "BD",
    "latitude": "23.44170000",
    "longitude": "91.00987000",
    "native": null,
    "timezone": null,
    "translations": {}
  },
  {
    "id": 8484,
    "name": "Cox's Bazar",
    "state_id": 803,
    "state_code": "B",
    "country_id": 19,
    "country_code": "BD",
    "latitude": "21.58389000",
    "longitude": "92.01528000",
    "native": null,
    "timezone": null,
    "translations": {}
  },
  {
    "id": 8492,
    "name": "Feni",
    "state_id": 803,
    "state_code": "B",
    "country_id": 19,
    "country_code": "BD",
    "latitude": "22.96667000",
    "longitude": "91.31667000",
    "native": null,
    "timezone": null,
    "translations": {}
  },
  {
    "id": 8512,
    "name": "Khagrachhari",
    "state_id": 803,
    "state_code": "B",
    "country_id": 19,
    "country_code": "BD",
    "latitude": "23.16667000",
    "longitude": "91.90000000",
    "native": null,
    "timezone": null,
    "translations": {}
  },
  {
    "id": 8521,
    "name": "Lakshmipur",
    "state_id": 803,
    "state_code": "B",
    "country_id": 19,
    "country_code": "BD",
    "latitude": "22.91667000",
    "longitude": "90.83333000",
    "native": null,
    "timezone": null,
    "translations": {}
  },
  {
    "id": 8553,
    "name": "Noakhali",
    "state_id": 803,
    "state_code": "B",
    "country_id": 19,
    "country_code": "BD",
    "latitude": "22.75000000",
    "longitude": "91.16667000",
    "native": null,
    "timezone": null,
    "translations": {}
  },
  {
    "id": 8576,
    "name": "Rangamati",
    "state_id": 803,
    "state_code": "B",
    "country_id": 19,
    "country_code": "BD",
    "latitude": "22.63333000",
    "longitude": "92.20000000",
    "native": null,
    "timezone": null,
    "translations": {}
  }
]