[
  {
    "id": 79955,
    "name": "Agua Buena",
    "state_id": 1390,
    "state_code": "7",
    "country_id": 170,
    "country_code": "PA",
    "latitude": "7.83465000",
    "longitude": "-80.39405000",
    "native": null,
    "timezone": null,
    "translations": {}
  },
  {
    "id": 79976,
    "name": "Ave María",
    "state_id": 1390,
    "state_code": "7",
    "country_id": 170,
    "country_code": "PA",
    "latitude": "7.32481000",
    "longitude": "-80.45361000",
    "native": null,
    "timezone": null,
    "translations": {}
  },
  {
    "id": 79978,
    "name": "Bahía Honda",
    "state_id": 1390,
    "state_code": "7",
    "country_id": 170,
    "country_code": "PA",
    "latitude": "7.70517000",
    "longitude": "-80.45342000",
    "native": null,
    "timezone": null,
    "translations": {}
  },
  {
    "id": 79980,
    "name": "Bajo Corral",
    "state_id": 1390,
    "state_code": "7",
    "country_id": 170,
    "country_code": "PA",
    "latitude": "7.60463000",
    "longitude": "-80.26016000",
    "native": null,
    "timezone": null,
    "translations": {}
  },
  {
    "id": 79988,
    "name": "Bayano",
    "state_id": 1390,
    "state_code": "7",
    "country_id": 170,
    "country_code": "PA",
    "latitude": "7.63014000",
    "longitude": "-80.38201000",
    "native": null,
    "timezone": null,
    "translations": {}
  },
  {
    "id": 79990,
    "name": "Bella Vista",
    "state_id": 1390,
    "state_code": "7",
    "country_id": 170,
    "country_code": "PA",
    "latitude": "7.75000000",
    "longitude": "-80.23333000",
    "native": null,
    "timezone": null,
    "translations": {}
  },
  {
    "id": 80029,
    "name": "Cambutal",
    "state_id": 1390,
    "state_code": "7",
    "country_id": 170,
    "country_code": "PA",
    "latitude": "7.26534000",
    "longitude": "-80.49105000",
    "native": null,
    "timezone": null,
    "translations": {}
  },
  {
    "id": 80037,
    "name": "Cañas",
    "state_id": 1390,
    "state_code": "7",
    "country_id": 170,
    "country_code": "PA",
    "latitude": "7.44713000",
    "longitude": "-80.26480000",
    "native": null,
    "timezone": null,
    "translations": {}
  },
  {
    "id": 80042,
    "name": "Cedro Arriba",
    "state_id": 1390,
    "state_code": "7",
    "country_id": 170,
    "country_code": "PA",
    "latitude": "7.78097000",
    "longitude": "-80.53057000",
    "native": null,
    "timezone": null,
    "translations": {}
  },
  {
    "id": 80111,
    "name": "Distrito de Guararé",
    "state_id": 1390,
    "state_code": "7",
    "country_id": 170,
    "country_code": "PA",
    "latitude": "7.77021000",
    "longitude": "-80.37515000",
    "native": null,
    "timezone": null,
    "translations": {}
  },
  {
    "id": 80117,
    "name": "Distrito de Las Tablas",
    "state_id": 1390,
    "state_code": "7",
    "country_id": 170,
    "country_code": "PA",
    "latitude": "7.64843000",
    "longitude": "-80.29933000",
    "native": null,
    "timezone": null,
    "translations": {}
  },
  {
    "id": 80119,
    "name": "Distrito de Los Santos",
    "state_id": 1390,
    "state_code": "7",
    "country_id": 170,
    "country_code": "PA",
    "latitude": "7.88333000",
    "longitude": "-80.45000000",
    "native": null,
    "timezone": null,
    "translations": {}
  },
  {
    "id": 80120,
    "name": "Distrito de Macaracas",
    "state_id": 1390,
    "state_code": "7",
    "country_id": 170,
    "country_code": "PA",
    "latitude": "7.65817000",
    "longitude": "-80.53526000",
    "native": null,
    "timezone": null,
    "translations": {}
  },
  {
    "id": 80127,
    "name": "Distrito de Pedasí",
    "state_id": 1390,
    "state_code": "7",
    "country_id": 170,
    "country_code": "PA",
    "latitude": "7.48528000",
    "longitude": "-80.12747000",
    "native": null,
    "timezone": null,
    "translations": {}
  },
  {
    "id": 80130,
    "name": "Distrito de Pocrí",
    "state_id": 1390,
    "state_code": "7",
    "country_id": 170,
    "country_code": "PA",
    "latitude": "7.63721000",
    "longitude": "-80.16470000",
    "native": null,
    "timezone": null,
    "translations": {}
  },
  {
    "id": 80146,
    "name": "Distrito de Tonosí",
    "state_id": 1390,
    "state_code": "7",
    "country_id": 170,
    "country_code": "PA",
    "latitude": "7.43597000",
    "longitude": "-80.45828000",
    "native": null,
    "timezone": null,
    "translations": {}
  },
  {
    "id": 80151,
    "name": "El Cacao",
    "state_id": 1390,
    "state_code": "7",
    "country_id": 170,
    "country_code": "PA",
    "latitude": "7.44570000",
    "longitude": "-80.40938000",
    "native": null,
    "timezone": null,
    "translations": {}
  },
  {
    "id": 80156,
    "name": "El Cañafístulo",
    "state_id": 1390,
    "state_code": "7",
    "country_id": 170,
    "country_code": "PA",
    "latitude": "7.61768000",
    "longitude": "-80.23322000",
    "native": null,
    "timezone": null,
    "translations": {}
  },
  {
    "id": 80155,
    "name": "El Carate",
    "state_id": 1390,
    "state_code": "7",
    "country_id": 170,
    "country_code": "PA",
    "latitude": "7.73124000",
    "longitude": "-80.29691000",
    "native": null,
    "timezone": null,
    "translations": {}
  },
  {
    "id": 80161,
    "name": "El Cocal",
    "state_id": 1390,
    "state_code": "7",
    "country_id": 170,
    "country_code": "PA",
    "latitude": "7.73697000",
    "longitude": "-80.27980000",
    "native": null,
    "timezone": null,
    "translations": {}
  },
  {
    "id": 80166,
    "name": "El Cortezo",
    "state_id": 1390,
    "state_code": "7",
    "country_id": 170,
    "country_code": "PA",
    "latitude": "7.42661000",
    "longitude": "-80.63311000",
    "native": null,
    "timezone": null,
    "translations": {}
  },
  {
    "id": 80169,
    "name": "El Ejido",
    "state_id": 1390,
    "state_code": "7",
    "country_id": 170,
    "country_code": "PA",
    "latitude": "7.91634000",
    "longitude": "-80.38686000",
    "native": null,
    "timezone": null,
    "translations": {}
  },
  {
    "id": 80176,
    "name": "El Guásimo",
    "state_id": 1390,
    "state_code": "7",
    "country_id": 170,
    "country_code": "PA",
    "latitude": "7.80640000",
    "longitude": "-80.52991000",
    "native": null,
    "timezone": null,
    "translations": {}
  },
  {
    "id": 80177,
    "name": "El Hato",
    "state_id": 1390,
    "state_code": "7",
    "country_id": 170,
    "country_code": "PA",
    "latitude": "7.79316000",
    "longitude": "-80.38267000",
    "native": null,
    "timezone": null,
    "translations": {}
  },
  {
    "id": 80180,
    "name": "El Macano",
    "state_id": 1390,
    "state_code": "7",
    "country_id": 170,
    "country_code": "PA",
    "latitude": "7.68489000",
    "longitude": "-80.40309000",
    "native": null,
    "timezone": null,
    "translations": {}
  },
  {
    "id": 80181,
    "name": "El Manantial",
    "state_id": 1390,
    "state_code": "7",
    "country_id": 170,
    "country_code": "PA",
    "latitude": "7.78245000",
    "longitude": "-80.24713000",
    "native": null,
    "timezone": null,
    "translations": {}
  },
  {
    "id": 80184,
    "name": "El Muñoz",
    "state_id": 1390,
    "state_code": "7",
    "country_id": 170,
    "country_code": "PA",
    "latitude": "7.67582000",
    "longitude": "-80.32130000",
    "native": null,
    "timezone": null,
    "translations": {}
  },
  {
    "id": 80189,
    "name": "El Pedregoso",
    "state_id": 1390,
    "state_code": "7",
    "country_id": 170,
    "country_code": "PA",
    "latitude": "7.69173000",
    "longitude": "-80.32793000",
    "native": null,
    "timezone": null,
    "translations": {}
  },
  {
    "id": 80211,
    "name": "Flores",
    "state_id": 1390,
    "state_code": "7",
    "country_id": 170,
    "country_code": "PA",
    "latitude": "7.48157000",
    "longitude": "-80.40695000",
    "native": null,
    "timezone": null,
    "translations": {}
  },
  {
    "id": 80221,
    "name": "Guararé",
    "state_id": 1390,
    "state_code": "7",
    "country_id": 170,
    "country_code": "PA",
    "latitude": "7.81531000",
    "longitude": "-80.28345000",
    "native": null,
    "timezone": null,
    "translations": {}
  },
  {
    "id": 80222,
    "name": "Guararé Arriba",
    "state_id": 1390,
    "state_code": "7",
    "country_id": 170,
    "country_code": "PA",
    "latitude": "7.80023000",
    "longitude": "-80.35983000",
    "native": null,
    "timezone": null,
    "translations": {}
  },
  {
    "id": 80246,
    "name": "La Colorada",
    "state_id": 1390,
    "state_code": "7",
    "country_id": 170,
    "country_code": "PA",
    "latitude": "7.82362000",
    "longitude": "-80.55552000",
    "native": null,
    "timezone": null,
    "translations": {}
  },
  {
    "id": 80248,
    "name": "La Enea",
    "state_id": 1390,
    "state_code": "7",
    "country_id": 170,
    "country_code": "PA",
    "latitude": "7.83333000",
    "longitude": "-80.27417000",
    "native": null,
    "timezone": null,
    "translations": {}
  },
  {
    "id": 80253,
    "name": "La Espigadilla",
    "state_id": 1390,
    "state_code": "7",
    "country_id": 170,
    "country_code": "PA",
    "latitude": "7.88389000",
    "longitude": "-80.39039000",
    "native": null,
    "timezone": null,
    "translations": {}
  },
  {
    "id": 80260,
    "name": "La Laja",
    "state_id": 1390,
    "state_code": "7",
    "country_id": 170,
    "country_code": "PA",
    "latitude": "7.73102000",
    "longitude": "-80.25298000",
    "native": null,
    "timezone": null,
    "translations": {}
  },
  {
    "id": 80266,
    "name": "La Mesa",
    "state_id": 1390,
    "state_code": "7",
    "country_id": 170,
    "country_code": "PA",
    "latitude": "7.65670000",
    "longitude": "-80.61794000",
    "native": null,
    "timezone": null,
    "translations": {}
  },
  {
    "id": 80267,
    "name": "La Miel",
    "state_id": 1390,
    "state_code": "7",
    "country_id": 170,
    "country_code": "PA",
    "latitude": "7.56022000",
    "longitude": "-80.32736000",
    "native": null,
    "timezone": null,
    "translations": {}
  },
  {
    "id": 80271,
    "name": "La Palma",
    "state_id": 1390,
    "state_code": "7",
    "country_id": 170,
    "country_code": "PA",
    "latitude": "7.71667000",
    "longitude": "-80.38333000",
    "native": null,
    "timezone": null,
    "translations": {}
  },
  {
    "id": 80272,
    "name": "La Pasera",
    "state_id": 1390,
    "state_code": "7",
    "country_id": 170,
    "country_code": "PA",
    "latitude": "7.79757000",
    "longitude": "-80.30342000",
    "native": null,
    "timezone": null,
    "translations": {}
  },
  {
    "id": 80278,
    "name": "La Tiza",
    "state_id": 1390,
    "state_code": "7",
    "country_id": 170,
    "country_code": "PA",
    "latitude": "7.75110000",
    "longitude": "-80.29216000",
    "native": null,
    "timezone": null,
    "translations": {}
  },
  {
    "id": 80280,
    "name": "La Tronosa",
    "state_id": 1390,
    "state_code": "7",
    "country_id": 170,
    "country_code": "PA",
    "latitude": "7.43609000",
    "longitude": "-80.58698000",
    "native": null,
    "timezone": null,
    "translations": {}
  },
  {
    "id": 80282,
    "name": "Lajamina",
    "state_id": 1390,
    "state_code": "7",
    "country_id": 170,
    "country_code": "PA",
    "latitude": "7.58587000",
    "longitude": "-80.13212000",
    "native": null,
    "timezone": null,
    "translations": {}
  },
  {
    "id": 80287,
    "name": "Las Cruces",
    "state_id": 1390,
    "state_code": "7",
    "country_id": 170,
    "country_code": "PA",
    "latitude": "7.82285000",
    "longitude": "-80.43003000",
    "native": null,
    "timezone": null,
    "translations": {}
  },
  {
    "id": 80290,
    "name": "Las Guabas",
    "state_id": 1390,
    "state_code": "7",
    "country_id": 170,
    "country_code": "PA",
    "latitude": "7.81469000",
    "longitude": "-80.50155000",
    "native": null,
    "timezone": null,
    "translations": {}
  },
  {
    "id": 80303,
    "name": "Las Palmas",
    "state_id": 1390,
    "state_code": "7",
    "country_id": 170,
    "country_code": "PA",
    "latitude": "7.68314000",
    "longitude": "-80.49728000",
    "native": null,
    "timezone": null,
    "translations": {}
  },
  {
    "id": 80304,
    "name": "Las Palmitas",
    "state_id": 1390,
    "state_code": "7",
    "country_id": 170,
    "country_code": "PA",
    "latitude": "7.76523000",
    "longitude": "-80.29350000",
    "native": null,
    "timezone": null,
    "translations": {}
  },
  {
    "id": 80306,
    "name": "Las Tablas",
    "state_id": 1390,
    "state_code": "7",
    "country_id": 170,
    "country_code": "PA",
    "latitude": "7.76472000",
    "longitude": "-80.27483000",
    "native": null,
    "timezone": null,
    "translations": {}
  },
  {
    "id": 80307,
    "name": "Las Trancas",
    "state_id": 1390,
    "state_code": "7",
    "country_id": 170,
    "country_code": "PA",
    "latitude": "7.73400000",
    "longitude": "-80.37384000",
    "native": null,
    "timezone": null,
    "translations": {}
  },
  {
    "id": 80313,
    "name": "Llano Abajo",
    "state_id": 1390,
    "state_code": "7",
    "country_id": 170,
    "country_code": "PA",
    "latitude": "7.78598000",
    "longitude": "-80.41060000",
    "native": null,
    "timezone": null,
    "translations": {}
  },
  {
    "id": 80322,
    "name": "Llano de Piedra",
    "state_id": 1390,
    "state_code": "7",
    "country_id": 170,
    "country_code": "PA",
    "latitude": "7.65972000",
    "longitude": "-80.56347000",
    "native": null,
    "timezone": null,
    "translations": {}
  },
  {
    "id": 80319,
    "name": "Llano Largo",
    "state_id": 1390,
    "state_code": "7",
    "country_id": 170,
    "country_code": "PA",
    "latitude": "7.90607000",
    "longitude": "-80.42561000",
    "native": null,
    "timezone": null,
    "translations": {}
  },
  {
    "id": 80343,
    "name": "Los Ángeles",
    "state_id": 1390,
    "state_code": "7",
    "country_id": 170,
    "country_code": "PA",
    "latitude": "7.88422000",
    "longitude": "-80.35772000",
    "native": null,
    "timezone": null,
    "translations": {}
  },
  {
    "id": 80329,
    "name": "Los Asientos",
    "state_id": 1390,
    "state_code": "7",
    "country_id": 170,
    "country_code": "PA",
    "latitude": "7.51656000",
    "longitude": "-80.13521000",
    "native": null,
    "timezone": null,
    "translations": {}
  },
  {
    "id": 80339,
    "name": "Los Olivos",
    "state_id": 1390,
    "state_code": "7",
    "country_id": 170,
    "country_code": "PA",
    "latitude": "7.91589000",
    "longitude": "-80.48884000",
    "native": null,
    "timezone": null,
    "translations": {}
  },
  {
    "id": 80342,
    "name": "Los Santos",
    "state_id": 1390,
    "state_code": "7",
    "country_id": 170,
    "country_code": "PA",
    "latitude": "7.93333000",
    "longitude": "-80.41667000",
    "native": null,
    "timezone": null,
    "translations": {}
  },
  {
    "id": 80346,
    "name": "Macaracas",
    "state_id": 1390,
    "state_code": "7",
    "country_id": 170,
    "country_code": "PA",
    "latitude": "7.73168000",
    "longitude": "-80.55364000",
    "native": null,
    "timezone": null,
    "translations": {}
  },
  {
    "id": 80357,
    "name": "Mogollón",
    "state_id": 1390,
    "state_code": "7",
    "country_id": 170,
    "country_code": "PA",
    "latitude": "7.64261000",
    "longitude": "-80.45950000",
    "native": null,
    "timezone": null,
    "translations": {}
  },
  {
    "id": 80369,
    "name": "Nuario",
    "state_id": 1390,
    "state_code": "7",
    "country_id": 170,
    "country_code": "PA",
    "latitude": "7.53047000",
    "longitude": "-80.32692000",
    "native": null,
    "timezone": null,
    "translations": {}
  },
  {
    "id": 80385,
    "name": "Oria Arriba",
    "state_id": 1390,
    "state_code": "7",
    "country_id": 170,
    "country_code": "PA",
    "latitude": "7.50505000",
    "longitude": "-80.20567000",
    "native": null,
    "timezone": null,
    "translations": {}
  },
  {
    "id": 80390,
    "name": "Palmira",
    "state_id": 1390,
    "state_code": "7",
    "country_id": 170,
    "country_code": "PA",
    "latitude": "7.66347000",
    "longitude": "-80.35728000",
    "native": null,
    "timezone": null,
    "translations": {}
  },
  {
    "id": 80396,
    "name": "Paraíso",
    "state_id": 1390,
    "state_code": "7",
    "country_id": 170,
    "country_code": "PA",
    "latitude": "7.68510000",
    "longitude": "-80.16082000",
    "native": null,
    "timezone": null,
    "translations": {}
  },
  {
    "id": 80399,
    "name": "Paritilla",
    "state_id": 1390,
    "state_code": "7",
    "country_id": 170,
    "country_code": "PA",
    "latitude": "7.62848000",
    "longitude": "-80.17240000",
    "native": null,
    "timezone": null,
    "translations": {}
  },
  {
    "id": 80403,
    "name": "Pedasí",
    "state_id": 1390,
    "state_code": "7",
    "country_id": 170,
    "country_code": "PA",
    "latitude": "7.53034000",
    "longitude": "-80.02699000",
    "native": null,
    "timezone": null,
    "translations": {}
  },
  {
    "id": 80409,
    "name": "Peña Blanca",
    "state_id": 1390,
    "state_code": "7",
    "country_id": 170,
    "country_code": "PA",
    "latitude": "7.71931000",
    "longitude": "-80.28366000",
    "native": null,
    "timezone": null,
    "translations": {}
  },
  {
    "id": 80407,
    "name": "Perales",
    "state_id": 1390,
    "state_code": "7",
    "country_id": 170,
    "country_code": "PA",
    "latitude": "7.77461000",
    "longitude": "-80.32494000",
    "native": null,
    "timezone": null,
    "translations": {}
  },
  {
    "id": 80419,
    "name": "Pocrí",
    "state_id": 1390,
    "state_code": "7",
    "country_id": 170,
    "country_code": "PA",
    "latitude": "7.65816000",
    "longitude": "-80.12119000",
    "native": null,
    "timezone": null,
    "translations": {}
  },
  {
    "id": 80463,
    "name": "Río Hondo",
    "state_id": 1390,
    "state_code": "7",
    "country_id": 170,
    "country_code": "PA",
    "latitude": "7.71192000",
    "longitude": "-80.35904000",
    "native": null,
    "timezone": null,
    "translations": {}
  },
  {
    "id": 80468,
    "name": "Sabana Grande",
    "state_id": 1390,
    "state_code": "7",
    "country_id": 170,
    "country_code": "PA",
    "latitude": "7.83543000",
    "longitude": "-80.36490000",
    "native": null,
    "timezone": null,
    "translations": {}
  },
  {
    "id": 80481,
    "name": "San José",
    "state_id": 1390,
    "state_code": "7",
    "country_id": 170,
    "country_code": "PA",
    "latitude": "7.67395000",
    "longitude": "-80.24438000",
    "native": null,
    "timezone": null,
    "translations": {}
  },
  {
    "id": 80496,
    "name": "Santa Ana Arriba",
    "state_id": 1390,
    "state_code": "7",
    "country_id": 170,
    "country_code": "PA",
    "latitude": "7.93300000",
    "longitude": "-80.36369000",
    "native": null,
    "timezone": null,
    "translations": {}
  },
  {
    "id": 80509,
    "name": "Santo Domingo",
    "state_id": 1390,
    "state_code": "7",
    "country_id": 170,
    "country_code": "PA",
    "latitude": "7.74614000",
    "longitude": "-80.24173000",
    "native": null,
    "timezone": null,
    "translations": {}
  },
  {
    "id": 80512,
    "name": "Sesteadero",
    "state_id": 1390,
    "state_code": "7",
    "country_id": 170,
    "country_code": "PA",
    "latitude": "7.73885000",
    "longitude": "-80.24854000",
    "native": null,
    "timezone": null,
    "translations": {}
  },
  {
    "id": 80526,
    "name": "Tonosí",
    "state_id": 1390,
    "state_code": "7",
    "country_id": 170,
    "country_code": "PA",
    "latitude": "7.40684000",
    "longitude": "-80.44217000",
    "native": null,
    "timezone": null,
    "translations": {}
  },
  {
    "id": 80529,
    "name": "Tres Quebradas",
    "state_id": 1390,
    "state_code": "7",
    "country_id": 170,
    "country_code": "PA",
    "latitude": "7.84018000",
    "longitude": "-80.40740000",
    "native": null,
    "timezone": null,
    "translations": {}
  },
  {
    "id": 80536,
    "name": "Valle Rico",
    "state_id": 1390,
    "state_code": "7",
    "country_id": 170,
    "country_code": "PA",
    "latitude": "7.62011000",
    "longitude": "-80.35076000",
    "native": null,
    "timezone": null,
    "translations": {}
  },
  {
    "id": 80538,
    "name": "Vallerriquito",
    "state_id": 1390,
    "state_code": "7",
    "country_id": 170,
    "country_code": "PA",
    "latitude": "7.62163000",
    "longitude": "-80.31975000",
    "native": null,
    "timezone": null,
    "translations": {}
  },
  {
    "id": 80544,
    "name": "Villa Lourdes",
    "state_id": 1390,
    "state_code": "7",
    "country_id": 170,
    "country_code": "PA",
    "latitude": "7.81141000",
    "longitude": "-80.47029000",
    "native": null,
    "timezone": null,
    "translations": {}
  }
]