[
  {
    "id": 54396,
    "name": "Bestovje",
    "state_id": 736,
    "state_code": "01",
    "country_id": 55,
    "country_code": "HR",
    "latitude": "45.80833000",
    "longitude": "15.81667000",
    "native": null,
    "timezone": null,
    "translations": {}
  },
  {
    "id": 54401,
    "name": "Bistra",
    "state_id": 736,
    "state_code": "01",
    "country_id": 55,
    "country_code": "HR",
    "latitude": "45.90657000",
    "longitude": "15.85087000",
    "native": null,
    "timezone": null,
    "translations": {}
  },
  {
    "id": 54411,
    "name": "Brckovljani",
    "state_id": 736,
    "state_code": "01",
    "country_id": 55,
    "country_code": "HR",
    "latitude": "45.83333000",
    "longitude": "16.30000000",
    "native": null,
    "timezone": null,
    "translations": {}
  },
  {
    "id": 54412,
    "name": "Brdovec",
    "state_id": 736,
    "state_code": "01",
    "country_id": 55,
    "country_code": "HR",
    "latitude": "45.86666000",
    "longitude": "15.77102000",
    "native": null,
    "timezone": null,
    "translations": {}
  },
  {
    "id": 54413,
    "name": "Bregana",
    "state_id": 736,
    "state_code": "01",
    "country_id": 55,
    "country_code": "HR",
    "latitude": "45.84013000",
    "longitude": "15.68792000",
    "native": null,
    "timezone": null,
    "translations": {}
  },
  {
    "id": 54456,
    "name": "Donja Bistra",
    "state_id": 736,
    "state_code": "01",
    "country_id": 55,
    "country_code": "HR",
    "latitude": "45.90778000",
    "longitude": "15.85444000",
    "native": null,
    "timezone": null,
    "translations": {}
  },
  {
    "id": 54457,
    "name": "Donja Lomnica",
    "state_id": 736,
    "state_code": "01",
    "country_id": 55,
    "country_code": "HR",
    "latitude": "45.71194000",
    "longitude": "16.02694000",
    "native": null,
    "timezone": null,
    "translations": {}
  },
  {
    "id": 54458,
    "name": "Donja Zdenčina",
    "state_id": 736,
    "state_code": "01",
    "country_id": 55,
    "country_code": "HR",
    "latitude": "45.66667000",
    "longitude": "15.76667000",
    "native": null,
    "timezone": null,
    "translations": {}
  },
  {
    "id": 54462,
    "name": "Donji Stupnik",
    "state_id": 736,
    "state_code": "01",
    "country_id": 55,
    "country_code": "HR",
    "latitude": "45.73971000",
    "longitude": "15.85975000",
    "native": null,
    "timezone": null,
    "translations": {}
  },
  {
    "id": 54478,
    "name": "Farkaševac",
    "state_id": 736,
    "state_code": "01",
    "country_id": 55,
    "country_code": "HR",
    "latitude": "45.87899000",
    "longitude": "16.63467000",
    "native": null,
    "timezone": null,
    "translations": {}
  },
  {
    "id": 54495,
    "name": "Gornja Bistra",
    "state_id": 736,
    "state_code": "01",
    "country_id": 55,
    "country_code": "HR",
    "latitude": "45.91667000",
    "longitude": "15.90000000",
    "native": null,
    "timezone": null,
    "translations": {}
  },
  {
    "id": 54583,
    "name": "Gračec",
    "state_id": 736,
    "state_code": "01",
    "country_id": 55,
    "country_code": "HR",
    "latitude": "45.83333000",
    "longitude": "16.31667000",
    "native": null,
    "timezone": null,
    "translations": {}
  },
  {
    "id": 54514,
    "name": "Grad Dugo Selo",
    "state_id": 736,
    "state_code": "01",
    "country_id": 55,
    "country_code": "HR",
    "latitude": "45.80900000",
    "longitude": "16.24123000",
    "native": null,
    "timezone": null,
    "translations": {}
  },
  {
    "id": 54522,
    "name": "Grad Jastrebarsko",
    "state_id": 736,
    "state_code": "01",
    "country_id": 55,
    "country_code": "HR",
    "latitude": "45.66667000",
    "longitude": "15.66667000",
    "native": null,
    "timezone": null,
    "translations": {}
  },
  {
    "id": 54547,
    "name": "Grad Samobor",
    "state_id": 736,
    "state_code": "01",
    "country_id": 55,
    "country_code": "HR",
    "latitude": "45.80000000",
    "longitude": "15.70000000",
    "native": null,
    "timezone": null,
    "translations": {}
  },
  {
    "id": 54554,
    "name": "Grad Sveti Ivan Zelina",
    "state_id": 736,
    "state_code": "01",
    "country_id": 55,
    "country_code": "HR",
    "latitude": "45.96667000",
    "longitude": "16.25000000",
    "native": null,
    "timezone": null,
    "translations": {}
  },
  {
    "id": 54558,
    "name": "Grad Velika Gorica",
    "state_id": 736,
    "state_code": "01",
    "country_id": 55,
    "country_code": "HR",
    "latitude": "45.70000000",
    "longitude": "16.08333000",
    "native": null,
    "timezone": null,
    "translations": {}
  },
  {
    "id": 54562,
    "name": "Grad Vrbovec",
    "state_id": 736,
    "state_code": "01",
    "country_id": 55,
    "country_code": "HR",
    "latitude": "45.86667000",
    "longitude": "16.43333000",
    "native": null,
    "timezone": null,
    "translations": {}
  },
  {
    "id": 54567,
    "name": "Grad Zaprešić",
    "state_id": 736,
    "state_code": "01",
    "country_id": 55,
    "country_code": "HR",
    "latitude": "45.86667000",
    "longitude": "15.80000000",
    "native": null,
    "timezone": null,
    "translations": {}
  },
  {
    "id": 54575,
    "name": "Gradec",
    "state_id": 736,
    "state_code": "01",
    "country_id": 55,
    "country_code": "HR",
    "latitude": "45.91111000",
    "longitude": "16.48278000",
    "native": null,
    "timezone": null,
    "translations": {}
  },
  {
    "id": 54577,
    "name": "Gradići",
    "state_id": 736,
    "state_code": "01",
    "country_id": 55,
    "country_code": "HR",
    "latitude": "45.70000000",
    "longitude": "16.05000000",
    "native": null,
    "timezone": null,
    "translations": {}
  },
  {
    "id": 54608,
    "name": "Jablanovec",
    "state_id": 736,
    "state_code": "01",
    "country_id": 55,
    "country_code": "HR",
    "latitude": "45.87583000",
    "longitude": "15.85361000",
    "native": null,
    "timezone": null,
    "translations": {}
  },
  {
    "id": 54611,
    "name": "Jakovlje",
    "state_id": 736,
    "state_code": "01",
    "country_id": 55,
    "country_code": "HR",
    "latitude": "45.93611000",
    "longitude": "15.85559000",
    "native": null,
    "timezone": null,
    "translations": {}
  },
  {
    "id": 54618,
    "name": "Jastrebarsko",
    "state_id": 736,
    "state_code": "01",
    "country_id": 55,
    "country_code": "HR",
    "latitude": "45.66833000",
    "longitude": "15.64861000",
    "native": null,
    "timezone": null,
    "translations": {}
  },
  {
    "id": 54645,
    "name": "Kerestinec",
    "state_id": 736,
    "state_code": "01",
    "country_id": 55,
    "country_code": "HR",
    "latitude": "45.77010000",
    "longitude": "15.80864000",
    "native": null,
    "timezone": null,
    "translations": {}
  },
  {
    "id": 54669,
    "name": "Križ",
    "state_id": 736,
    "state_code": "01",
    "country_id": 55,
    "country_code": "HR",
    "latitude": "45.66500000",
    "longitude": "16.52333000",
    "native": null,
    "timezone": null,
    "translations": {}
  },
  {
    "id": 54679,
    "name": "Kuče",
    "state_id": 736,
    "state_code": "01",
    "country_id": 55,
    "country_code": "HR",
    "latitude": "45.67694000",
    "longitude": "16.14500000",
    "native": null,
    "timezone": null,
    "translations": {}
  },
  {
    "id": 54695,
    "name": "Lonjica",
    "state_id": 736,
    "state_code": "01",
    "country_id": 55,
    "country_code": "HR",
    "latitude": "45.85500000",
    "longitude": "16.33000000",
    "native": null,
    "timezone": null,
    "translations": {}
  },
  {
    "id": 54702,
    "name": "Luka",
    "state_id": 736,
    "state_code": "01",
    "country_id": 55,
    "country_code": "HR",
    "latitude": "45.95795000",
    "longitude": "15.81954000",
    "native": null,
    "timezone": null,
    "translations": {}
  },
  {
    "id": 54703,
    "name": "Lukavec",
    "state_id": 736,
    "state_code": "01",
    "country_id": 55,
    "country_code": "HR",
    "latitude": "45.70444000",
    "longitude": "15.99000000",
    "native": null,
    "timezone": null,
    "translations": {}
  },
  {
    "id": 54705,
    "name": "Lupoglav",
    "state_id": 736,
    "state_code": "01",
    "country_id": 55,
    "country_code": "HR",
    "latitude": "45.79639000",
    "longitude": "16.34639000",
    "native": null,
    "timezone": null,
    "translations": {}
  },
  {
    "id": 54735,
    "name": "Mičevec",
    "state_id": 736,
    "state_code": "01",
    "country_id": 55,
    "country_code": "HR",
    "latitude": "45.75000000",
    "longitude": "16.06667000",
    "native": null,
    "timezone": null,
    "translations": {}
  },
  {
    "id": 54741,
    "name": "Mraclin",
    "state_id": 736,
    "state_code": "01",
    "country_id": 55,
    "country_code": "HR",
    "latitude": "45.66667000",
    "longitude": "16.09556000",
    "native": null,
    "timezone": null,
    "translations": {}
  },
  {
    "id": 54766,
    "name": "Novo Čiče",
    "state_id": 736,
    "state_code": "01",
    "country_id": 55,
    "country_code": "HR",
    "latitude": "45.70000000",
    "longitude": "16.11667000",
    "native": null,
    "timezone": null,
    "translations": {}
  },
  {
    "id": 54767,
    "name": "Novoselec",
    "state_id": 736,
    "state_code": "01",
    "country_id": 55,
    "country_code": "HR",
    "latitude": "45.65250000",
    "longitude": "16.53639000",
    "native": null,
    "timezone": null,
    "translations": {}
  },
  {
    "id": 54781,
    "name": "Općina Dubrava",
    "state_id": 736,
    "state_code": "01",
    "country_id": 55,
    "country_code": "HR",
    "latitude": "45.83759000",
    "longitude": "16.53683000",
    "native": null,
    "timezone": null,
    "translations": {}
  },
  {
    "id": 54789,
    "name": "Orešje",
    "state_id": 736,
    "state_code": "01",
    "country_id": 55,
    "country_code": "HR",
    "latitude": "45.81618000",
    "longitude": "15.80246000",
    "native": null,
    "timezone": null,
    "translations": {}
  },
  {
    "id": 54820,
    "name": "Pojatno",
    "state_id": 736,
    "state_code": "01",
    "country_id": 55,
    "country_code": "HR",
    "latitude": "45.90500000",
    "longitude": "15.80056000",
    "native": null,
    "timezone": null,
    "translations": {}
  },
  {
    "id": 54835,
    "name": "Preseka",
    "state_id": 736,
    "state_code": "01",
    "country_id": 55,
    "country_code": "HR",
    "latitude": "45.97456000",
    "longitude": "16.38697000",
    "native": null,
    "timezone": null,
    "translations": {}
  },
  {
    "id": 54838,
    "name": "Prigorje Brdovečko",
    "state_id": 736,
    "state_code": "01",
    "country_id": 55,
    "country_code": "HR",
    "latitude": "45.87944000",
    "longitude": "15.73806000",
    "native": null,
    "timezone": null,
    "translations": {}
  },
  {
    "id": 54848,
    "name": "Pušća",
    "state_id": 736,
    "state_code": "01",
    "country_id": 55,
    "country_code": "HR",
    "latitude": "45.91567000",
    "longitude": "15.78049000",
    "native": null,
    "timezone": null,
    "translations": {}
  },
  {
    "id": 54852,
    "name": "Rakitje",
    "state_id": 736,
    "state_code": "01",
    "country_id": 55,
    "country_code": "HR",
    "latitude": "45.79389000",
    "longitude": "15.82222000",
    "native": null,
    "timezone": null,
    "translations": {}
  },
  {
    "id": 54853,
    "name": "Rakov Potok",
    "state_id": 736,
    "state_code": "01",
    "country_id": 55,
    "country_code": "HR",
    "latitude": "45.73806000",
    "longitude": "15.79722000",
    "native": null,
    "timezone": null,
    "translations": {}
  },
  {
    "id": 54871,
    "name": "Rude",
    "state_id": 736,
    "state_code": "01",
    "country_id": 55,
    "country_code": "HR",
    "latitude": "45.76667000",
    "longitude": "15.66667000",
    "native": null,
    "timezone": null,
    "translations": {}
  },
  {
    "id": 54876,
    "name": "Samobor",
    "state_id": 736,
    "state_code": "01",
    "country_id": 55,
    "country_code": "HR",
    "latitude": "45.80306000",
    "longitude": "15.71806000",
    "native": null,
    "timezone": null,
    "translations": {}
  },
  {
    "id": 54919,
    "name": "Stupnik",
    "state_id": 736,
    "state_code": "01",
    "country_id": 55,
    "country_code": "HR",
    "latitude": "45.75314000",
    "longitude": "15.84078000",
    "native": null,
    "timezone": null,
    "translations": {}
  },
  {
    "id": 54926,
    "name": "Sveta Nedelja",
    "state_id": 736,
    "state_code": "01",
    "country_id": 55,
    "country_code": "HR",
    "latitude": "45.79617000",
    "longitude": "15.77971000",
    "native": null,
    "timezone": null,
    "translations": {}
  },
  {
    "id": 54927,
    "name": "Sveta Nedjelja",
    "state_id": 736,
    "state_code": "01",
    "country_id": 55,
    "country_code": "HR",
    "latitude": "45.79833000",
    "longitude": "15.78056000",
    "native": null,
    "timezone": null,
    "translations": {}
  },
  {
    "id": 54956,
    "name": "Velika Gorica",
    "state_id": 736,
    "state_code": "01",
    "country_id": 55,
    "country_code": "HR",
    "latitude": "45.71250000",
    "longitude": "16.07556000",
    "native": null,
    "timezone": null,
    "translations": {}
  },
  {
    "id": 54958,
    "name": "Velika Mlaka",
    "state_id": 736,
    "state_code": "01",
    "country_id": 55,
    "country_code": "HR",
    "latitude": "45.73639000",
    "longitude": "16.03111000",
    "native": null,
    "timezone": null,
    "translations": {}
  },
  {
    "id": 54959,
    "name": "Velika Ostrna",
    "state_id": 736,
    "state_code": "01",
    "country_id": 55,
    "country_code": "HR",
    "latitude": "45.78752000",
    "longitude": "16.28139000",
    "native": null,
    "timezone": null,
    "translations": {}
  },
  {
    "id": 54991,
    "name": "Vrbovec",
    "state_id": 736,
    "state_code": "01",
    "country_id": 55,
    "country_code": "HR",
    "latitude": "45.88333000",
    "longitude": "16.42167000",
    "native": null,
    "timezone": null,
    "translations": {}
  },
  {
    "id": 55006,
    "name": "Zaprešić",
    "state_id": 736,
    "state_code": "01",
    "country_id": 55,
    "country_code": "HR",
    "latitude": "45.85639000",
    "longitude": "15.80778000",
    "native": null,
    "timezone": null,
    "translations": {}
  },
  {
    "id": 55009,
    "name": "Zdenci Brdovečki",
    "state_id": 736,
    "state_code": "01",
    "country_id": 55,
    "country_code": "HR",
    "latitude": "45.86667000",
    "longitude": "15.75000000",
    "native": null,
    "timezone": null,
    "translations": {}
  }
]