[
  {
    "id": 1852,
    "name": "Adygea",
    "country_id": 182,
    "country_code": "RU",
    "fips_code": null,
    "iso2": "AD",
    "type": "republic",
    "latitude": "44.69390060",
    "longitude": "40.15204210",
    "native": "Adygea",
    "timezone": "Europe/Moscow",
    "translations": {}
  },
  {
    "id": 1911,
    "name": "Altai",
    "country_id": 182,
    "country_code": "RU",
    "fips_code": null,
    "iso2": "ALT",
    "type": "administrative territory",
    "latitude": "50.71141010",
    "longitude": "86.85721860",
    "native": "Алтай",
    "timezone": "Asia/Barnaul",
    "translations": {}
  },
  {
    "id": 1876,
    "name": "Altai",
    "country_id": 182,
    "country_code": "RU",
    "fips_code": null,
    "iso2": "AL",
    "type": "republic",
    "latitude": "50.71141010",
    "longitude": "86.85721860",
    "native": "Алтай",
    "timezone": "Asia/Barnaul",
    "translations": {}
  },
  {
    "id": 1858,
    "name": "Amur",
    "country_id": 182,
    "country_code": "RU",
    "fips_code": null,
    "iso2": "AMU",
    "type": "administrative region",
    "latitude": "52.80323680",
    "longitude": "128.43729500",
    "native": "Амур",
    "timezone": "Asia/Yakutsk",
    "translations": {}
  },
  {
    "id": 1849,
    "name": "Arkhangelsk",
    "country_id": 182,
    "country_code": "RU",
    "fips_code": null,
    "iso2": "ARK",
    "type": "administrative region",
    "latitude": "64.54585490",
    "longitude": "40.55057690",
    "native": "Лист",
    "timezone": "Europe/Moscow",
    "translations": {}
  },
  {
    "id": 1866,
    "name": "Astrakhan",
    "country_id": 182,
    "country_code": "RU",
    "fips_code": null,
    "iso2": "AST",
    "type": "administrative region",
    "latitude": "46.34983080",
    "longitude": "48.03262030",
    "native": "Астрахан",
    "timezone": "Europe/Astrakhan",
    "translations": {}
  },
  {
    "id": 1854,
    "name": "Bashkortostan",
    "country_id": 182,
    "country_code": "RU",
    "fips_code": null,
    "iso2": "BA",
    "type": "republic",
    "latitude": "54.47475530",
    "longitude": "55.97845820",
    "native": "Башкорторстн",
    "timezone": "Asia/Yekaterinburg",
    "translations": {}
  },
  {
    "id": 1903,
    "name": "Belgorod",
    "country_id": 182,
    "country_code": "RU",
    "fips_code": null,
    "iso2": "BEL",
    "type": "administrative region",
    "latitude": "50.70801190",
    "longitude": "37.58376150",
    "native": "Bellarod",
    "timezone": "Europe/Moscow",
    "translations": {}
  },
  {
    "id": 1867,
    "name": "Bryansk",
    "country_id": 182,
    "country_code": "RU",
    "fips_code": null,
    "iso2": "BRY",
    "type": "administrative region",
    "latitude": "53.24237780",
    "longitude": "34.36682880",
    "native": "Брайанск",
    "timezone": "Europe/Moscow",
    "translations": {}
  },
  {
    "id": 1842,
    "name": "Buryatia",
    "country_id": 182,
    "country_code": "RU",
    "fips_code": null,
    "iso2": "BU",
    "type": "republic",
    "latitude": "52.71824260",
    "longitude": "109.49214300",
    "native": "Buryatia",
    "timezone": "Asia/Irkutsk",
    "translations": {}
  },
  {
    "id": 1893,
    "name": "Chechen",
    "country_id": 182,
    "country_code": "RU",
    "fips_code": null,
    "iso2": "CE",
    "type": "republic",
    "latitude": "43.40000000",
    "longitude": "45.70000000",
    "native": "Чеченский",
    "timezone": "Europe/Moscow",
    "translations": {}
  },
  {
    "id": 1845,
    "name": "Chelyabinsk",
    "country_id": 182,
    "country_code": "RU",
    "fips_code": null,
    "iso2": "CHE",
    "type": "administrative region",
    "latitude": "55.15593120",
    "longitude": "61.40127260",
    "native": "Челлиабинск",
    "timezone": "Asia/Yekaterinburg",
    "translations": {}
  },
  {
    "id": 1859,
    "name": "Chukotka",
    "country_id": 182,
    "country_code": "RU",
    "fips_code": null,
    "iso2": "CHU",
    "type": "autonomous district",
    "latitude": "66.00064750",
    "longitude": "169.49008690",
    "native": "Чукотка",
    "timezone": "Asia/Anadyr",
    "translations": {}
  },
  {
    "id": 1914,
    "name": "Chuvash",
    "country_id": 182,
    "country_code": "RU",
    "fips_code": null,
    "iso2": "CU",
    "type": "republic",
    "latitude": "55.42599220",
    "longitude": "47.08494290",
    "native": "Чуваш",
    "timezone": "Europe/Moscow",
    "translations": {}
  },
  {
    "id": 1850,
    "name": "Dagestan",
    "country_id": 182,
    "country_code": "RU",
    "fips_code": null,
    "iso2": "DA",
    "type": "republic",
    "latitude": "43.00000000",
    "longitude": "47.00000000",
    "native": "Дагестан",
    "timezone": "Europe/Moscow",
    "translations": {}
  },
  {
    "id": 1884,
    "name": "Ingushetia",
    "country_id": 182,
    "country_code": "RU",
    "fips_code": null,
    "iso2": "IN",
    "type": "republic",
    "latitude": "43.16553090",
    "longitude": "44.97968200",
    "native": "Inguhetia",
    "timezone": "Europe/Moscow",
    "translations": {}
  },
  {
    "id": 1880,
    "name": "Irkutsk",
    "country_id": 182,
    "country_code": "RU",
    "fips_code": null,
    "iso2": "IRK",
    "type": "administrative region",
    "latitude": "52.28548340",
    "longitude": "104.28902220",
    "native": "Irkutsk",
    "timezone": "Asia/Irkutsk",
    "translations": {}
  },
  {
    "id": 1864,
    "name": "Ivanovo",
    "country_id": 182,
    "country_code": "RU",
    "fips_code": null,
    "iso2": "IVA",
    "type": "administrative region",
    "latitude": "56.99568550",
    "longitude": "40.98121040",
    "native": "Иваново",
    "timezone": "Europe/Moscow",
    "translations": {}
  },
  {
    "id": 1835,
    "name": "Jewish",
    "country_id": 182,
    "country_code": "RU",
    "fips_code": null,
    "iso2": "YEV",
    "type": "autonomous region",
    "latitude": "48.56016130",
    "longitude": "132.27756620",
    "native": "Еврейский",
    "timezone": "Asia/Vladivostok",
    "translations": {}
  },
  {
    "id": 1892,
    "name": "Kabardino-Balkar",
    "country_id": 182,
    "country_code": "RU",
    "fips_code": null,
    "iso2": "KB",
    "type": "republic",
    "latitude": "43.44282860",
    "longitude": "43.42048090",
    "native": "Кабардино-Балкар",
    "timezone": "Europe/Moscow",
    "translations": {}
  },
  {
    "id": 1902,
    "name": "Kaliningrad",
    "country_id": 182,
    "country_code": "RU",
    "fips_code": null,
    "iso2": "KGD",
    "type": "administrative region",
    "latitude": "54.71042640",
    "longitude": "20.45221440",
    "native": "Калининград",
    "timezone": "Europe/Kaliningrad",
    "translations": {}
  },
  {
    "id": 1883,
    "name": "Kalmykia",
    "country_id": 182,
    "country_code": "RU",
    "fips_code": null,
    "iso2": "KL",
    "type": "republic",
    "latitude": "46.90171160",
    "longitude": "45.24916100",
    "native": "Калмикия",
    "timezone": "Europe/Moscow",
    "translations": {}
  },
  {
    "id": 1844,
    "name": "Kaluga",
    "country_id": 182,
    "country_code": "RU",
    "fips_code": null,
    "iso2": "KLU",
    "type": "administrative region",
    "latitude": "54.43827730",
    "longitude": "35.52728540",
    "native": "Клуб",
    "timezone": "Europe/Moscow",
    "translations": {}
  },
  {
    "id": 1865,
    "name": "Kamchatka",
    "country_id": 182,
    "country_code": "RU",
    "fips_code": null,
    "iso2": "KAM",
    "type": "administrative territory",
    "latitude": "57.19148820",
    "longitude": "160.03838190",
    "native": "Камчатка",
    "timezone": "Asia/Kamchatka",
    "translations": {}
  },
  {
    "id": 1869,
    "name": "Karachay-Cherkess",
    "country_id": 182,
    "country_code": "RU",
    "fips_code": null,
    "iso2": "KC",
    "type": "republic",
    "latitude": "43.73683260",
    "longitude": "41.72679910",
    "native": "Карачай-Черкесс",
    "timezone": "Europe/Moscow",
    "translations": {}
  },
  {
    "id": 1841,
    "name": "Karelia",
    "country_id": 182,
    "country_code": "RU",
    "fips_code": null,
    "iso2": "KR",
    "type": "republic",
    "latitude": "62.61940310",
    "longitude": "33.49202670",
    "native": "Карелия",
    "timezone": "Europe/Moscow",
    "translations": {}
  },
  {
    "id": 1897,
    "name": "Kemerovo",
    "country_id": 182,
    "country_code": "RU",
    "fips_code": null,
    "iso2": "KEM",
    "type": "administrative region",
    "latitude": "54.53357810",
    "longitude": "87.34286100",
    "native": "Кемерово",
    "timezone": "Asia/Novokuznetsk",
    "translations": {}
  },
  {
    "id": 1873,
    "name": "Khabarovsk",
    "country_id": 182,
    "country_code": "RU",
    "fips_code": null,
    "iso2": "KHA",
    "type": "administrative territory",
    "latitude": "51.63126840",
    "longitude": "136.12152400",
    "native": "Хабаровск",
    "timezone": "Asia/Vladivostok",
    "translations": {}
  },
  {
    "id": 1877,
    "name": "Khakassia",
    "country_id": 182,
    "country_code": "RU",
    "fips_code": null,
    "iso2": "KK",
    "type": "republic",
    "latitude": "53.43993790",
    "longitude": "90.06643030",
    "native": "Хаммассия",
    "timezone": "Asia/Krasnoyarsk",
    "translations": {}
  },
  {
    "id": 1838,
    "name": "Khanty-Mansi",
    "country_id": 182,
    "country_code": "RU",
    "fips_code": null,
    "iso2": "KHM",
    "type": "autonomous district",
    "latitude": "61.87934280",
    "longitude": "68.64181560",
    "native": "Khanty-Mansi",
    "timezone": "Asia/Yekaterinburg",
    "translations": {}
  },
  {
    "id": 1890,
    "name": "Kirov",
    "country_id": 182,
    "country_code": "RU",
    "fips_code": null,
    "iso2": "KIR",
    "type": "administrative region",
    "latitude": "58.60356610",
    "longitude": "49.66662410",
    "native": "Киров",
    "timezone": "Europe/Kirov",
    "translations": {}
  },
  {
    "id": 1899,
    "name": "Komi",
    "country_id": 182,
    "country_code": "RU",
    "fips_code": null,
    "iso2": "KO",
    "type": "republic",
    "latitude": "63.98814210",
    "longitude": "54.33260730",
    "native": "Посещение",
    "timezone": "Europe/Moscow",
    "translations": {}
  },
  {
    "id": 1910,
    "name": "Kostroma",
    "country_id": 182,
    "country_code": "RU",
    "fips_code": null,
    "iso2": "KOS",
    "type": "administrative region",
    "latitude": "58.60443270",
    "longitude": "41.58893820",
    "native": "Кострома",
    "timezone": "Europe/Moscow",
    "translations": {}
  },
  {
    "id": 1891,
    "name": "Krasnodar",
    "country_id": 182,
    "country_code": "RU",
    "fips_code": null,
    "iso2": "KDA",
    "type": "administrative territory",
    "latitude": "45.76840140",
    "longitude": "39.02610440",
    "native": "Краснодар",
    "timezone": "Europe/Moscow",
    "translations": {}
  },
  {
    "id": 1840,
    "name": "Krasnoyarsk",
    "country_id": 182,
    "country_code": "RU",
    "fips_code": null,
    "iso2": "KYA",
    "type": "administrative territory",
    "latitude": "63.32338070",
    "longitude": "97.09799740",
    "native": "Krasnoyarsk",
    "timezone": "Asia/Krasnoyarsk",
    "translations": {}
  },
  {
    "id": 1915,
    "name": "Kurgan",
    "country_id": 182,
    "country_code": "RU",
    "fips_code": null,
    "iso2": "KGN",
    "type": "administrative region",
    "latitude": "55.44093570",
    "longitude": "65.34211690",
    "native": "Курган",
    "timezone": "Asia/Yekaterinburg",
    "translations": {}
  },
  {
    "id": 1855,
    "name": "Kursk",
    "country_id": 182,
    "country_code": "RU",
    "fips_code": null,
    "iso2": "KRS",
    "type": "administrative region",
    "latitude": "51.73092490",
    "longitude": "36.19231230",
    "native": "Курск",
    "timezone": "Europe/Moscow",
    "translations": {}
  },
  {
    "id": 1896,
    "name": "Leningrad",
    "country_id": 182,
    "country_code": "RU",
    "fips_code": null,
    "iso2": "LEN",
    "type": "administrative region",
    "latitude": "60.18532960",
    "longitude": "32.39253250",
    "native": "Ленинград",
    "timezone": "Europe/Moscow",
    "translations": {}
  },
  {
    "id": 1889,
    "name": "Lipetsk",
    "country_id": 182,
    "country_code": "RU",
    "fips_code": null,
    "iso2": "LIP",
    "type": "administrative region",
    "latitude": "52.69351780",
    "longitude": "39.11226640",
    "native": "Липетск",
    "timezone": "Europe/Moscow",
    "translations": {}
  },
  {
    "id": 1839,
    "name": "Magadan",
    "country_id": 182,
    "country_code": "RU",
    "fips_code": null,
    "iso2": "MAG",
    "type": "administrative region",
    "latitude": "63.55150280",
    "longitude": "154.01472600",
    "native": "Виндада",
    "timezone": "Asia/Magadan",
    "translations": {}
  },
  {
    "id": 1870,
    "name": "Mari El",
    "country_id": 182,
    "country_code": "RU",
    "fips_code": null,
    "iso2": "ME",
    "type": "republic",
    "latitude": "56.57675040",
    "longitude": "47.88175120",
    "native": "Мари Эль",
    "timezone": "Europe/Moscow",
    "translations": {}
  },
  {
    "id": 1898,
    "name": "Mordovia",
    "country_id": 182,
    "country_code": "RU",
    "fips_code": null,
    "iso2": "MO",
    "type": "republic",
    "latitude": "54.44198290",
    "longitude": "44.46611440",
    "native": "Мордовия",
    "timezone": "Europe/Moscow",
    "translations": {}
  },
  {
    "id": 1882,
    "name": "Moscow",
    "country_id": 182,
    "country_code": "RU",
    "fips_code": null,
    "iso2": "MOS",
    "type": "administrative region",
    "latitude": "55.62557800",
    "longitude": "37.60639160",
    "native": "Москва",
    "timezone": "Europe/Moscow",
    "translations": {}
  },
  {
    "id": 1901,
    "name": "Moscow",
    "country_id": 182,
    "country_code": "RU",
    "fips_code": null,
    "iso2": "MOW",
    "type": "autonomous city",
    "latitude": "55.62557800",
    "longitude": "37.60639160",
    "native": "Москва",
    "timezone": "Europe/Moscow",
    "translations": {}
  },
  {
    "id": 1843,
    "name": "Murmansk",
    "country_id": 182,
    "country_code": "RU",
    "fips_code": null,
    "iso2": "MUR",
    "type": "administrative region",
    "latitude": "68.00004180",
    "longitude": "33.99991510",
    "native": "Мурманск",
    "timezone": "Europe/Moscow",
    "translations": {}
  },
  {
    "id": 1836,
    "name": "Nenets",
    "country_id": 182,
    "country_code": "RU",
    "fips_code": null,
    "iso2": "NEN",
    "type": "autonomous city",
    "latitude": "67.67832530",
    "longitude": "57.06268530",
    "native": "Ненетс",
    "timezone": "Europe/Moscow",
    "translations": {}
  },
  {
    "id": 1857,
    "name": "Nizhny Novgorod",
    "country_id": 182,
    "country_code": "RU",
    "fips_code": null,
    "iso2": "NIZ",
    "type": "administrative region",
    "latitude": "56.27692920",
    "longitude": "43.92129810",
    "native": "Нижни Новгород",
    "timezone": "Europe/Moscow",
    "translations": {}
  },
  {
    "id": 1853,
    "name": "North Ossetia-Alania",
    "country_id": 182,
    "country_code": "RU",
    "fips_code": null,
    "iso2": "SE",
    "type": "republic",
    "latitude": "42.99207110",
    "longitude": "44.26363480",
    "native": "Северная Осетия-Алания",
    "timezone": "Europe/Moscow",
    "translations": {}
  },
  {
    "id": 1834,
    "name": "Novgorod",
    "country_id": 182,
    "country_code": "RU",
    "fips_code": null,
    "iso2": "NGR",
    "type": "administrative region",
    "latitude": "58.52098620",
    "longitude": "31.27578620",
    "native": "Новгород",
    "timezone": "Europe/Moscow",
    "translations": {}
  },
  {
    "id": 1888,
    "name": "Novosibirsk",
    "country_id": 182,
    "country_code": "RU",
    "fips_code": null,
    "iso2": "NVS",
    "type": "administrative region",
    "latitude": "54.96781440",
    "longitude": "82.95159890",
    "native": "Новосибирск",
    "timezone": "Asia/Novosibirsk",
    "translations": {}
  },
  {
    "id": 1846,
    "name": "Omsk",
    "country_id": 182,
    "country_code": "RU",
    "fips_code": null,
    "iso2": "OMS",
    "type": "administrative region",
    "latitude": "54.99137500",
    "longitude": "73.37152900",
    "native": "Omsk",
    "timezone": "Asia/Omsk",
    "translations": {}
  },
  {
    "id": 1886,
    "name": "Orenburg",
    "country_id": 182,
    "country_code": "RU",
    "fips_code": null,
    "iso2": "ORE",
    "type": "administrative region",
    "latitude": "52.02692620",
    "longitude": "54.72766470",
    "native": "Оренбург",
    "timezone": "Asia/Yekaterinburg",
    "translations": {}
  },
  {
    "id": 1908,
    "name": "Oryol",
    "country_id": 182,
    "country_code": "RU",
    "fips_code": null,
    "iso2": "ORL",
    "type": "administrative region",
    "latitude": "52.83927650",
    "longitude": "36.42517090",
    "native": "Ирил",
    "timezone": "Europe/Moscow",
    "translations": {}
  },
  {
    "id": 1909,
    "name": "Penza",
    "country_id": 182,
    "country_code": "RU",
    "fips_code": null,
    "iso2": "PNZ",
    "type": "administrative region",
    "latitude": "53.16554150",
    "longitude": "44.78791810",
    "native": "Действительно",
    "timezone": "Europe/Moscow",
    "translations": {}
  },
  {
    "id": 1871,
    "name": "Perm",
    "country_id": 182,
    "country_code": "RU",
    "fips_code": null,
    "iso2": "PER",
    "type": "administrative territory",
    "latitude": "58.59516030",
    "longitude": "56.31595460",
    "native": "Перми",
    "timezone": "Asia/Yekaterinburg",
    "translations": {}
  },
  {
    "id": 1833,
    "name": "Primorsky",
    "country_id": 182,
    "country_code": "RU",
    "fips_code": null,
    "iso2": "PRI",
    "type": "administrative territory",
    "latitude": "45.08194560",
    "longitude": "134.72664500",
    "native": "ПРИМОРСКИЙ",
    "timezone": "Asia/Vladivostok",
    "translations": {}
  },
  {
    "id": 1863,
    "name": "Pskov",
    "country_id": 182,
    "country_code": "RU",
    "fips_code": null,
    "iso2": "PSK",
    "type": "administrative region",
    "latitude": "57.53587290",
    "longitude": "28.85868260",
    "native": "ПСКОВ",
    "timezone": "Europe/Moscow",
    "translations": {}
  },
  {
    "id": 1837,
    "name": "Rostov",
    "country_id": 182,
    "country_code": "RU",
    "fips_code": null,
    "iso2": "ROS",
    "type": "administrative region",
    "latitude": "47.62224510",
    "longitude": "40.79579420",
    "native": "Росток",
    "timezone": "Europe/Moscow",
    "translations": {}
  },
  {
    "id": 1905,
    "name": "Ryazan",
    "country_id": 182,
    "country_code": "RU",
    "fips_code": null,
    "iso2": "RYA",
    "type": "administrative region",
    "latitude": "54.62956870",
    "longitude": "39.74250390",
    "native": "Рьязан",
    "timezone": "Europe/Moscow",
    "translations": {}
  },
  {
    "id": 1879,
    "name": "Saint Petersburg",
    "country_id": 182,
    "country_code": "RU",
    "fips_code": null,
    "iso2": "SPE",
    "type": "autonomous city",
    "latitude": "59.93873200",
    "longitude": "30.31622900",
    "native": "Сент -Петербург",
    "timezone": "Europe/Moscow",
    "translations": {}
  },
  {
    "id": 1848,
    "name": "Sakha",
    "country_id": 182,
    "country_code": "RU",
    "fips_code": null,
    "iso2": "SA",
    "type": "republic",
    "latitude": "66.94162600",
    "longitude": "129.64237100",
    "native": "Мы строим",
    "timezone": "Asia/Yakutsk",
    "translations": {}
  },
  {
    "id": 1875,
    "name": "Sakhalin",
    "country_id": 182,
    "country_code": "RU",
    "fips_code": null,
    "iso2": "SAK",
    "type": "administrative region",
    "latitude": "50.15947600",
    "longitude": "143.02644120",
    "native": "Sakhalin",
    "timezone": "Asia/Sakhalin",
    "translations": {}
  },
  {
    "id": 1862,
    "name": "Samara",
    "country_id": 182,
    "country_code": "RU",
    "fips_code": null,
    "iso2": "SAM",
    "type": "administrative region",
    "latitude": "53.19562550",
    "longitude": "50.10149270",
    "native": "Самара",
    "timezone": "Europe/Samara",
    "translations": {}
  },
  {
    "id": 1887,
    "name": "Saratov",
    "country_id": 182,
    "country_code": "RU",
    "fips_code": null,
    "iso2": "SAR",
    "type": "administrative region",
    "latitude": "51.53001800",
    "longitude": "46.03468300",
    "native": "Saratov",
    "timezone": "Europe/Saratov",
    "translations": {}
  },
  {
    "id": 1885,
    "name": "Smolensk",
    "country_id": 182,
    "country_code": "RU",
    "fips_code": null,
    "iso2": "SMO",
    "type": "administrative region",
    "latitude": "55.03434960",
    "longitude": "33.01920650",
    "native": "Смоленск",
    "timezone": "Europe/Moscow",
    "translations": {}
  },
  {
    "id": 1868,
    "name": "Stavropol",
    "country_id": 182,
    "country_code": "RU",
    "fips_code": null,
    "iso2": "STA",
    "type": "administrative territory",
    "latitude": "44.86325770",
    "longitude": "43.44069130",
    "native": "Stavropol",
    "timezone": "Europe/Moscow",
    "translations": {}
  },
  {
    "id": 1894,
    "name": "Sverdlovsk",
    "country_id": 182,
    "country_code": "RU",
    "fips_code": null,
    "iso2": "SVE",
    "type": "administrative region",
    "latitude": "56.83910400",
    "longitude": "60.60825000",
    "native": "Свердловск",
    "timezone": "Asia/Yekaterinburg",
    "translations": {}
  },
  {
    "id": 1878,
    "name": "Tambov",
    "country_id": 182,
    "country_code": "RU",
    "fips_code": null,
    "iso2": "TAM",
    "type": "administrative region",
    "latitude": "52.72161640",
    "longitude": "41.45239880",
    "native": "Тамбов",
    "timezone": "Europe/Moscow",
    "translations": {}
  },
  {
    "id": 1861,
    "name": "Tatarstan",
    "country_id": 182,
    "country_code": "RU",
    "fips_code": null,
    "iso2": "TA",
    "type": "republic",
    "latitude": "55.44821700",
    "longitude": "50.47635910",
    "native": "Tatarstan",
    "timezone": "Europe/Moscow",
    "translations": {}
  },
  {
    "id": 1872,
    "name": "Tomsk",
    "country_id": 182,
    "country_code": "RU",
    "fips_code": null,
    "iso2": "TOM",
    "type": "administrative region",
    "latitude": "58.61242790",
    "longitude": "82.04753150",
    "native": "Топливать",
    "timezone": "Asia/Tomsk",
    "translations": {}
  },
  {
    "id": 1895,
    "name": "Tula",
    "country_id": 182,
    "country_code": "RU",
    "fips_code": null,
    "iso2": "TUL",
    "type": "administrative region",
    "latitude": "54.19303210",
    "longitude": "37.61754000",
    "native": "Тула",
    "timezone": "Europe/Moscow",
    "translations": {}
  },
  {
    "id": 1900,
    "name": "Tuva",
    "country_id": 182,
    "country_code": "RU",
    "fips_code": null,
    "iso2": "TY",
    "type": "republic",
    "latitude": "51.40171490",
    "longitude": "93.85825930",
    "native": "Закрывать",
    "timezone": "Asia/Krasnoyarsk",
    "translations": {}
  },
  {
    "id": 1860,
    "name": "Tver",
    "country_id": 182,
    "country_code": "RU",
    "fips_code": null,
    "iso2": "TVE",
    "type": "administrative region",
    "latitude": "57.11344750",
    "longitude": "35.17444280",
    "native": "Захватывать",
    "timezone": "Europe/Moscow",
    "translations": {}
  },
  {
    "id": 1907,
    "name": "Tyumen",
    "country_id": 182,
    "country_code": "RU",
    "fips_code": null,
    "iso2": "TYU",
    "type": "administrative region",
    "latitude": "57.15353400",
    "longitude": "65.54227400",
    "native": "Ужесточить",
    "timezone": "Asia/Yekaterinburg",
    "translations": {}
  },
  {
    "id": 1913,
    "name": "Udmurt",
    "country_id": 182,
    "country_code": "RU",
    "fips_code": null,
    "iso2": "UD",
    "type": "republic",
    "latitude": "57.19611650",
    "longitude": "52.69598320",
    "native": "Удмурт",
    "timezone": "Europe/Samara",
    "translations": {}
  },
  {
    "id": 1856,
    "name": "Ulyanovsk",
    "country_id": 182,
    "country_code": "RU",
    "fips_code": null,
    "iso2": "ULY",
    "type": "administrative region",
    "latitude": "54.14631770",
    "longitude": "47.23249210",
    "native": "Ulyanovsk",
    "timezone": "Europe/Ulyanovsk",
    "translations": {}
  },
  {
    "id": 1881,
    "name": "Vladimir",
    "country_id": 182,
    "country_code": "RU",
    "fips_code": null,
    "iso2": "VLA",
    "type": "administrative region",
    "latitude": "56.12888990",
    "longitude": "40.40752030",
    "native": "Владимир",
    "timezone": "Europe/Moscow",
    "translations": {}
  },
  {
    "id": 4916,
    "name": "Volgograd Oblast",
    "country_id": 182,
    "country_code": "RU",
    "fips_code": null,
    "iso2": "VGG",
    "type": "administrative region",
    "latitude": "49.60483390",
    "longitude": "44.29035820",
    "native": "Volgograd Oblast",
    "timezone": "Europe/Volgograd",
    "translations": {}
  },
  {
    "id": 1874,
    "name": "Vologda",
    "country_id": 182,
    "country_code": "RU",
    "fips_code": null,
    "iso2": "VLG",
    "type": "administrative region",
    "latitude": "59.22645850",
    "longitude": "39.87223910",
    "native": "Vanogda",
    "timezone": "Europe/Moscow",
    "translations": {}
  },
  {
    "id": 1906,
    "name": "Voronezh",
    "country_id": 182,
    "country_code": "RU",
    "fips_code": null,
    "iso2": "VOR",
    "type": "administrative region",
    "latitude": "51.66059820",
    "longitude": "39.20058580",
    "native": "Воронж",
    "timezone": "Europe/Moscow",
    "translations": {}
  },
  {
    "id": 1847,
    "name": "Yamalo-Nenets",
    "country_id": 182,
    "country_code": "RU",
    "fips_code": null,
    "iso2": "YAN",
    "type": "autonomous district",
    "latitude": "67.14716310",
    "longitude": "74.34154880",
    "native": "Ямало-Ненеты",
    "timezone": "Asia/Yekaterinburg",
    "translations": {}
  },
  {
    "id": 1851,
    "name": "Yaroslavl",
    "country_id": 182,
    "country_code": "RU",
    "fips_code": null,
    "iso2": "YAR",
    "type": "administrative region",
    "latitude": "57.65084320",
    "longitude": "39.87186340",
    "native": "Ярославл",
    "timezone": "Europe/Moscow",
    "translations": {}
  },
  {
    "id": 1904,
    "name": "Zabaykalsky",
    "country_id": 182,
    "country_code": "RU",
    "fips_code": null,
    "iso2": "ZAB",
    "type": "administrative territory",
    "latitude": "52.24852100",
    "longitude": "115.95632500",
    "native": "Забайкальский",
    "timezone": "Asia/Chita",
    "translations": {}
  }
]