[
  {
    "id": 85810,
    "name": "Bardo",
    "state_id": 1629,
    "state_code": "02",
    "country_id": 176,
    "country_code": "PL",
    "latitude": "50.50589000",
    "longitude": "16.73986000",
    "native": null,
    "timezone": null,
    "translations": {}
  },
  {
    "id": 85853,
    "name": "Bielany Wrocławskie",
    "state_id": 1629,
    "state_code": "02",
    "country_id": 176,
    "country_code": "PL",
    "latitude": "51.03610000",
    "longitude": "16.96770000",
    "native": null,
    "timezone": null,
    "translations": {}
  },
  {
    "id": 85854,
    "name": "Bielawa",
    "state_id": 1629,
    "state_code": "02",
    "country_id": 176,
    "country_code": "PL",
    "latitude": "50.69075000",
    "longitude": "16.62300000",
    "native": null,
    "timezone": null,
    "translations": {}
  },
  {
    "id": 85866,
    "name": "Bierutów",
    "state_id": 1629,
    "state_code": "02",
    "country_id": 176,
    "country_code": "PL",
    "latitude": "51.12443000",
    "longitude": "17.54607000",
    "native": null,
    "timezone": null,
    "translations": {}
  },
  {
    "id": 85875,
    "name": "Biskupin",
    "state_id": 1629,
    "state_code": "02",
    "country_id": 176,
    "country_code": "PL",
    "latitude": "51.10097000",
    "longitude": "17.10442000",
    "native": null,
    "timezone": null,
    "translations": {}
  },
  {
    "id": 85895,
    "name": "Bogatynia",
    "state_id": 1629,
    "state_code": "02",
    "country_id": 176,
    "country_code": "PL",
    "latitude": "50.90747000",
    "longitude": "14.95634000",
    "native": null,
    "timezone": null,
    "translations": {}
  },
  {
    "id": 85899,
    "name": "Boguszów-Gorce",
    "state_id": 1629,
    "state_code": "02",
    "country_id": 176,
    "country_code": "PL",
    "latitude": "50.75514000",
    "longitude": "16.20494000",
    "native": null,
    "timezone": null,
    "translations": {}
  },
  {
    "id": 85911,
    "name": "Bolesławiec",
    "state_id": 1629,
    "state_code": "02",
    "country_id": 176,
    "country_code": "PL",
    "latitude": "51.26418000",
    "longitude": "15.56970000",
    "native": null,
    "timezone": null,
    "translations": {}
  },
  {
    "id": 85914,
    "name": "Bolków",
    "state_id": 1629,
    "state_code": "02",
    "country_id": 176,
    "country_code": "PL",
    "latitude": "50.92203000",
    "longitude": "16.10111000",
    "native": null,
    "timezone": null,
    "translations": {}
  },
  {
    "id": 85932,
    "name": "Bozkow",
    "state_id": 1629,
    "state_code": "02",
    "country_id": 176,
    "country_code": "PL",
    "latitude": "50.51315000",
    "longitude": "16.57528000",
    "native": null,
    "timezone": null,
    "translations": {}
  },
  {
    "id": 85959,
    "name": "Brzeg Dolny",
    "state_id": 1629,
    "state_code": "02",
    "country_id": 176,
    "country_code": "PL",
    "latitude": "51.27299000",
    "longitude": "16.70815000",
    "native": null,
    "timezone": null,
    "translations": {}
  },
  {
    "id": 85985,
    "name": "Budzów",
    "state_id": 1629,
    "state_code": "02",
    "country_id": 176,
    "country_code": "PL",
    "latitude": "50.59337000",
    "longitude": "16.71038000",
    "native": null,
    "timezone": null,
    "translations": {}
  },
  {
    "id": 86002,
    "name": "Bystrzyca",
    "state_id": 1629,
    "state_code": "02",
    "country_id": 176,
    "country_code": "PL",
    "latitude": "50.96048000",
    "longitude": "17.39702000",
    "native": null,
    "timezone": null,
    "translations": {}
  },
  {
    "id": 86003,
    "name": "Bystrzyca Kłodzka",
    "state_id": 1629,
    "state_code": "02",
    "country_id": 176,
    "country_code": "PL",
    "latitude": "50.30179000",
    "longitude": "16.64231000",
    "native": null,
    "timezone": null,
    "translations": {}
  },
  {
    "id": 86039,
    "name": "Chocianów",
    "state_id": 1629,
    "state_code": "02",
    "country_id": 176,
    "country_code": "PL",
    "latitude": "51.41867000",
    "longitude": "15.90172000",
    "native": null,
    "timezone": null,
    "translations": {}
  },
  {
    "id": 86050,
    "name": "Chojnów",
    "state_id": 1629,
    "state_code": "02",
    "country_id": 176,
    "country_code": "PL",
    "latitude": "51.27373000",
    "longitude": "15.93661000",
    "native": null,
    "timezone": null,
    "translations": {}
  },
  {
    "id": 86080,
    "name": "Ciechów",
    "state_id": 1629,
    "state_code": "02",
    "country_id": 176,
    "country_code": "PL",
    "latitude": "51.13218000",
    "longitude": "16.56773000",
    "native": null,
    "timezone": null,
    "translations": {}
  },
  {
    "id": 86084,
    "name": "Cieplice Śląskie Zdrój",
    "state_id": 1629,
    "state_code": "02",
    "country_id": 176,
    "country_code": "PL",
    "latitude": "50.86545000",
    "longitude": "15.68367000",
    "native": null,
    "timezone": null,
    "translations": {}
  },
  {
    "id": 86085,
    "name": "Ciepłowody",
    "state_id": 1629,
    "state_code": "02",
    "country_id": 176,
    "country_code": "PL",
    "latitude": "50.67477000",
    "longitude": "16.90871000",
    "native": null,
    "timezone": null,
    "translations": {}
  },
  {
    "id": 86087,
    "name": "Cieszków",
    "state_id": 1629,
    "state_code": "02",
    "country_id": 176,
    "country_code": "PL",
    "latitude": "51.63104000",
    "longitude": "17.35726000",
    "native": null,
    "timezone": null,
    "translations": {}
  },
  {
    "id": 86117,
    "name": "Czarny Bór",
    "state_id": 1629,
    "state_code": "02",
    "country_id": 176,
    "country_code": "PL",
    "latitude": "50.77083000",
    "longitude": "16.13050000",
    "native": null,
    "timezone": null,
    "translations": {}
  },
  {
    "id": 86129,
    "name": "Czernica",
    "state_id": 1629,
    "state_code": "02",
    "country_id": 176,
    "country_code": "PL",
    "latitude": "51.04609000",
    "longitude": "17.24510000",
    "native": null,
    "timezone": null,
    "translations": {}
  },
  {
    "id": 86235,
    "name": "Dąbie",
    "state_id": 1629,
    "state_code": "02",
    "country_id": 176,
    "country_code": "PL",
    "latitude": "51.10573000",
    "longitude": "17.08108000",
    "native": null,
    "timezone": null,
    "translations": {}
  },
  {
    "id": 86261,
    "name": "Długołęka",
    "state_id": 1629,
    "state_code": "02",
    "country_id": 176,
    "country_code": "PL",
    "latitude": "51.17902000",
    "longitude": "17.19137000",
    "native": null,
    "timezone": null,
    "translations": {}
  },
  {
    "id": 86174,
    "name": "Dobroszyce",
    "state_id": 1629,
    "state_code": "02",
    "country_id": 176,
    "country_code": "PL",
    "latitude": "51.26776000",
    "longitude": "17.34205000",
    "native": null,
    "timezone": null,
    "translations": {}
  },
  {
    "id": 86209,
    "name": "Duszniki-Zdrój",
    "state_id": 1629,
    "state_code": "02",
    "country_id": 176,
    "country_code": "PL",
    "latitude": "50.40327000",
    "longitude": "16.39091000",
    "native": null,
    "timezone": null,
    "translations": {}
  },
  {
    "id": 86215,
    "name": "Dziadowa Kłoda",
    "state_id": 1629,
    "state_code": "02",
    "country_id": 176,
    "country_code": "PL",
    "latitude": "51.23543000",
    "longitude": "17.70919000",
    "native": null,
    "timezone": null,
    "translations": {}
  },
  {
    "id": 86227,
    "name": "Dziećmorowice",
    "state_id": 1629,
    "state_code": "02",
    "country_id": 176,
    "country_code": "PL",
    "latitude": "50.76947000",
    "longitude": "16.35212000",
    "native": null,
    "timezone": null,
    "translations": {}
  },
  {
    "id": 86225,
    "name": "Dzierżoniów",
    "state_id": 1629,
    "state_code": "02",
    "country_id": 176,
    "country_code": "PL",
    "latitude": "50.72820000",
    "longitude": "16.65141000",
    "native": null,
    "timezone": null,
    "translations": {}
  },
  {
    "id": 86423,
    "name": "Gądów Mały",
    "state_id": 1629,
    "state_code": "02",
    "country_id": 176,
    "country_code": "PL",
    "latitude": "51.11853000",
    "longitude": "16.98596000",
    "native": null,
    "timezone": null,
    "translations": {}
  },
  {
    "id": 86288,
    "name": "Gaworzyce",
    "state_id": 1629,
    "state_code": "02",
    "country_id": 176,
    "country_code": "PL",
    "latitude": "51.62773000",
    "longitude": "15.88198000",
    "native": null,
    "timezone": null,
    "translations": {}
  },
  {
    "id": 86427,
    "name": "Głogów",
    "state_id": 1629,
    "state_code": "02",
    "country_id": 176,
    "country_code": "PL",
    "latitude": "51.66361000",
    "longitude": "16.08450000",
    "native": null,
    "timezone": null,
    "translations": {}
  },
  {
    "id": 86435,
    "name": "Głuszyca",
    "state_id": 1629,
    "state_code": "02",
    "country_id": 176,
    "country_code": "PL",
    "latitude": "50.68743000",
    "longitude": "16.37173000",
    "native": null,
    "timezone": null,
    "translations": {}
  },
  {
    "id": 86436,
    "name": "Głuszyca Górna",
    "state_id": 1629,
    "state_code": "02",
    "country_id": 176,
    "country_code": "PL",
    "latitude": "50.66606000",
    "longitude": "16.37585000",
    "native": null,
    "timezone": null,
    "translations": {}
  },
  {
    "id": 86309,
    "name": "Gniechowice",
    "state_id": 1629,
    "state_code": "02",
    "country_id": 176,
    "country_code": "PL",
    "latitude": "50.98804000",
    "longitude": "16.83363000",
    "native": null,
    "timezone": null,
    "translations": {}
  },
  {
    "id": 86408,
    "name": "Góra",
    "state_id": 1629,
    "state_code": "02",
    "country_id": 176,
    "country_code": "PL",
    "latitude": "51.66638000",
    "longitude": "16.53494000",
    "native": null,
    "timezone": null,
    "translations": {}
  },
  {
    "id": 86363,
    "name": "Grabiszyn",
    "state_id": 1629,
    "state_code": "02",
    "country_id": 176,
    "country_code": "PL",
    "latitude": "51.09369000",
    "longitude": "16.97819000",
    "native": null,
    "timezone": null,
    "translations": {}
  },
  {
    "id": 86364,
    "name": "Grabiszynek",
    "state_id": 1629,
    "state_code": "02",
    "country_id": 176,
    "country_code": "PL",
    "latitude": "51.08703000",
    "longitude": "16.98629000",
    "native": null,
    "timezone": null,
    "translations": {}
  },
  {
    "id": 86401,
    "name": "Grębocice",
    "state_id": 1629,
    "state_code": "02",
    "country_id": 176,
    "country_code": "PL",
    "latitude": "51.59909000",
    "longitude": "16.16741000",
    "native": null,
    "timezone": null,
    "translations": {}
  },
  {
    "id": 86380,
    "name": "Gromadka",
    "state_id": 1629,
    "state_code": "02",
    "country_id": 176,
    "country_code": "PL",
    "latitude": "51.36063000",
    "longitude": "15.76452000",
    "native": null,
    "timezone": null,
    "translations": {}
  },
  {
    "id": 86392,
    "name": "Gryfów Śląski",
    "state_id": 1629,
    "state_code": "02",
    "country_id": 176,
    "country_code": "PL",
    "latitude": "51.03081000",
    "longitude": "15.42017000",
    "native": null,
    "timezone": null,
    "translations": {}
  },
  {
    "id": 86447,
    "name": "Henryków",
    "state_id": 1629,
    "state_code": "02",
    "country_id": 176,
    "country_code": "PL",
    "latitude": "50.65327000",
    "longitude": "17.01027000",
    "native": null,
    "timezone": null,
    "translations": {}
  },
  {
    "id": 86499,
    "name": "Janowice Wielkie",
    "state_id": 1629,
    "state_code": "02",
    "country_id": 176,
    "country_code": "PL",
    "latitude": "50.87569000",
    "longitude": "15.92322000",
    "native": null,
    "timezone": null,
    "translations": {}
  },
  {
    "id": 86507,
    "name": "Jarnołtów-Jerzmanowo",
    "state_id": 1629,
    "state_code": "02",
    "country_id": 176,
    "country_code": "PL",
    "latitude": "51.12163000",
    "longitude": "16.86621000",
    "native": null,
    "timezone": null,
    "translations": {}
  },
  {
    "id": 86531,
    "name": "Jawor",
    "state_id": 1629,
    "state_code": "02",
    "country_id": 176,
    "country_code": "PL",
    "latitude": "51.05132000",
    "longitude": "16.19347000",
    "native": null,
    "timezone": null,
    "translations": {}
  },
  {
    "id": 86537,
    "name": "Jaworzyna Śląska",
    "state_id": 1629,
    "state_code": "02",
    "country_id": 176,
    "country_code": "PL",
    "latitude": "50.91340000",
    "longitude": "16.43241000",
    "native": null,
    "timezone": null,
    "translations": {}
  },
  {
    "id": 86541,
    "name": "Jedlina-Zdrój",
    "state_id": 1629,
    "state_code": "02",
    "country_id": 176,
    "country_code": "PL",
    "latitude": "50.72005000",
    "longitude": "16.34645000",
    "native": null,
    "timezone": null,
    "translations": {}
  },
  {
    "id": 86548,
    "name": "Jelcz",
    "state_id": 1629,
    "state_code": "02",
    "country_id": 176,
    "country_code": "PL",
    "latitude": "51.02102000",
    "longitude": "17.32095000",
    "native": null,
    "timezone": null,
    "translations": {}
  },
  {
    "id": 86549,
    "name": "Jelcz Laskowice",
    "state_id": 1629,
    "state_code": "02",
    "country_id": 176,
    "country_code": "PL",
    "latitude": "51.02134000",
    "longitude": "17.31649000",
    "native": null,
    "timezone": null,
    "translations": {}
  },
  {
    "id": 86550,
    "name": "Jelenia Góra",
    "state_id": 1629,
    "state_code": "02",
    "country_id": 176,
    "country_code": "PL",
    "latitude": "50.89973000",
    "longitude": "15.72899000",
    "native": null,
    "timezone": null,
    "translations": {}
  },
  {
    "id": 86561,
    "name": "Jeżów Sudecki",
    "state_id": 1629,
    "state_code": "02",
    "country_id": 176,
    "country_code": "PL",
    "latitude": "50.93507000",
    "longitude": "15.74306000",
    "native": null,
    "timezone": null,
    "translations": {}
  },
  {
    "id": 86569,
    "name": "Jordanów Śląski",
    "state_id": 1629,
    "state_code": "02",
    "country_id": 176,
    "country_code": "PL",
    "latitude": "50.86421000",
    "longitude": "16.86873000",
    "native": null,
    "timezone": null,
    "translations": {}
  },
  {
    "id": 86570,
    "name": "Jugów",
    "state_id": 1629,
    "state_code": "02",
    "country_id": 176,
    "country_code": "PL",
    "latitude": "50.62758000",
    "longitude": "16.51812000",
    "native": null,
    "timezone": null,
    "translations": {}
  },
  {
    "id": 86594,
    "name": "Kamieniec Wrocławski",
    "state_id": 1629,
    "state_code": "02",
    "country_id": 176,
    "country_code": "PL",
    "latitude": "51.07182000",
    "longitude": "17.18193000",
    "native": null,
    "timezone": null,
    "translations": {}
  },
  {
    "id": 86595,
    "name": "Kamieniec Ząbkowicki",
    "state_id": 1629,
    "state_code": "02",
    "country_id": 176,
    "country_code": "PL",
    "latitude": "50.52541000",
    "longitude": "16.87921000",
    "native": null,
    "timezone": null,
    "translations": {}
  },
  {
    "id": 86596,
    "name": "Kamienna Góra",
    "state_id": 1629,
    "state_code": "02",
    "country_id": 176,
    "country_code": "PL",
    "latitude": "50.78314000",
    "longitude": "16.03037000",
    "native": null,
    "timezone": null,
    "translations": {}
  },
  {
    "id": 86618,
    "name": "Karłowice",
    "state_id": 1629,
    "state_code": "02",
    "country_id": 176,
    "country_code": "PL",
    "latitude": "51.14132000",
    "longitude": "17.05212000",
    "native": null,
    "timezone": null,
    "translations": {}
  },
  {
    "id": 86615,
    "name": "Karpacz",
    "state_id": 1629,
    "state_code": "02",
    "country_id": 176,
    "country_code": "PL",
    "latitude": "50.77669000",
    "longitude": "15.75594000",
    "native": null,
    "timezone": null,
    "translations": {}
  },
  {
    "id": 86852,
    "name": "Kąty Wrocławskie",
    "state_id": 1629,
    "state_code": "02",
    "country_id": 176,
    "country_code": "PL",
    "latitude": "51.03098000",
    "longitude": "16.76767000",
    "native": null,
    "timezone": null,
    "translations": {}
  },
  {
    "id": 86636,
    "name": "Kiełczów",
    "state_id": 1629,
    "state_code": "02",
    "country_id": 176,
    "country_code": "PL",
    "latitude": "51.13999000",
    "longitude": "17.17798000",
    "native": null,
    "timezone": null,
    "translations": {}
  },
  {
    "id": 86866,
    "name": "Kłodzko",
    "state_id": 1629,
    "state_code": "02",
    "country_id": 176,
    "country_code": "PL",
    "latitude": "50.43488000",
    "longitude": "16.66145000",
    "native": null,
    "timezone": null,
    "translations": {}
  },
  {
    "id": 86661,
    "name": "Kobierzyce",
    "state_id": 1629,
    "state_code": "02",
    "country_id": 176,
    "country_code": "PL",
    "latitude": "50.97054000",
    "longitude": "16.93508000",
    "native": null,
    "timezone": null,
    "translations": {}
  },
  {
    "id": 86722,
    "name": "Kotla",
    "state_id": 1629,
    "state_code": "02",
    "country_id": 176,
    "country_code": "PL",
    "latitude": "51.74542000",
    "longitude": "16.03575000",
    "native": null,
    "timezone": null,
    "translations": {}
  },
  {
    "id": 86729,
    "name": "Kowale-Popiele",
    "state_id": 1629,
    "state_code": "02",
    "country_id": 176,
    "country_code": "PL",
    "latitude": "51.13090000",
    "longitude": "17.10175000",
    "native": null,
    "timezone": null,
    "translations": {}
  },
  {
    "id": 86731,
    "name": "Kowary",
    "state_id": 1629,
    "state_code": "02",
    "country_id": 176,
    "country_code": "PL",
    "latitude": "50.79313000",
    "longitude": "15.83559000",
    "native": null,
    "timezone": null,
    "translations": {}
  },
  {
    "id": 86733,
    "name": "Kozanów",
    "state_id": 1629,
    "state_code": "02",
    "country_id": 176,
    "country_code": "PL",
    "latitude": "51.14447000",
    "longitude": "16.96937000",
    "native": null,
    "timezone": null,
    "translations": {}
  },
  {
    "id": 86789,
    "name": "Krośnice",
    "state_id": 1629,
    "state_code": "02",
    "country_id": 176,
    "country_code": "PL",
    "latitude": "51.47641000",
    "longitude": "17.35917000",
    "native": null,
    "timezone": null,
    "translations": {}
  },
  {
    "id": 86811,
    "name": "Krzeszów",
    "state_id": 1629,
    "state_code": "02",
    "country_id": 176,
    "country_code": "PL",
    "latitude": "50.73434000",
    "longitude": "16.06991000",
    "native": null,
    "timezone": null,
    "translations": {}
  },
  {
    "id": 86813,
    "name": "Krzyki",
    "state_id": 1629,
    "state_code": "02",
    "country_id": 176,
    "country_code": "PL",
    "latitude": "51.07085000",
    "longitude": "16.99475000",
    "native": null,
    "timezone": null,
    "translations": {}
  },
  {
    "id": 86831,
    "name": "Księże Małe-Księże Wielkie",
    "state_id": 1629,
    "state_code": "02",
    "country_id": 176,
    "country_code": "PL",
    "latitude": "51.07293000",
    "longitude": "17.08881000",
    "native": null,
    "timezone": null,
    "translations": {}
  },
  {
    "id": 86835,
    "name": "Kudowa-Zdrój",
    "state_id": 1629,
    "state_code": "02",
    "country_id": 176,
    "country_code": "PL",
    "latitude": "50.44297000",
    "longitude": "16.24397000",
    "native": null,
    "timezone": null,
    "translations": {}
  },
  {
    "id": 86837,
    "name": "Kunice",
    "state_id": 1629,
    "state_code": "02",
    "country_id": 176,
    "country_code": "PL",
    "latitude": "51.22231000",
    "longitude": "16.24809000",
    "native": null,
    "timezone": null,
    "translations": {}
  },
  {
    "id": 86977,
    "name": "Lądek-Zdrój",
    "state_id": 1629,
    "state_code": "02",
    "country_id": 176,
    "country_code": "PL",
    "latitude": "50.34371000",
    "longitude": "16.87946000",
    "native": null,
    "timezone": null,
    "translations": {}
  },
  {
    "id": 86877,
    "name": "Legnica",
    "state_id": 1629,
    "state_code": "02",
    "country_id": 176,
    "country_code": "PL",
    "latitude": "51.21006000",
    "longitude": "16.16190000",
    "native": null,
    "timezone": null,
    "translations": {}
  },
  {
    "id": 86878,
    "name": "Legnickie Pole",
    "state_id": 1629,
    "state_code": "02",
    "country_id": 176,
    "country_code": "PL",
    "latitude": "51.14419000",
    "longitude": "16.24208000",
    "native": null,
    "timezone": null,
    "translations": {}
  },
  {
    "id": 86889,
    "name": "Leśna",
    "state_id": 1629,
    "state_code": "02",
    "country_id": 176,
    "country_code": "PL",
    "latitude": "51.02431000",
    "longitude": "15.26413000",
    "native": null,
    "timezone": null,
    "translations": {}
  },
  {
    "id": 86893,
    "name": "Leśnica-Ratyń-Pustki",
    "state_id": 1629,
    "state_code": "02",
    "country_id": 176,
    "country_code": "PL",
    "latitude": "51.14228000",
    "longitude": "16.84773000",
    "native": null,
    "timezone": null,
    "translations": {}
  },
  {
    "id": 86886,
    "name": "Lewin Kłodzki",
    "state_id": 1629,
    "state_code": "02",
    "country_id": 176,
    "country_code": "PL",
    "latitude": "50.40559000",
    "longitude": "16.29101000",
    "native": null,
    "timezone": null,
    "translations": {}
  },
  {
    "id": 86936,
    "name": "Lubań",
    "state_id": 1629,
    "state_code": "02",
    "country_id": 176,
    "country_code": "PL",
    "latitude": "51.12014000",
    "longitude": "15.28768000",
    "native": null,
    "timezone": null,
    "translations": {}
  },
  {
    "id": 86935,
    "name": "Lubawka",
    "state_id": 1629,
    "state_code": "02",
    "country_id": 176,
    "country_code": "PL",
    "latitude": "50.70456000",
    "longitude": "16.00026000",
    "native": null,
    "timezone": null,
    "translations": {}
  },
  {
    "id": 86944,
    "name": "Lubin",
    "state_id": 1629,
    "state_code": "02",
    "country_id": 176,
    "country_code": "PL",
    "latitude": "51.40089000",
    "longitude": "16.20149000",
    "native": null,
    "timezone": null,
    "translations": {}
  },
  {
    "id": 86953,
    "name": "Lubomierz",
    "state_id": 1629,
    "state_code": "02",
    "country_id": 176,
    "country_code": "PL",
    "latitude": "51.01278000",
    "longitude": "15.50969000",
    "native": null,
    "timezone": null,
    "translations": {}
  },
  {
    "id": 86963,
    "name": "Ludwikowice Kłodzkie",
    "state_id": 1629,
    "state_code": "02",
    "country_id": 176,
    "country_code": "PL",
    "latitude": "50.62464000",
    "longitude": "16.46052000",
    "native": null,
    "timezone": null,
    "translations": {}
  },
  {
    "id": 86974,
    "name": "Lwówek Śląski",
    "state_id": 1629,
    "state_code": "02",
    "country_id": 176,
    "country_code": "PL",
    "latitude": "51.11074000",
    "longitude": "15.58582000",
    "native": null,
    "timezone": null,
    "translations": {}
  },
  {
    "id": 88758,
    "name": "Łagiewniki",
    "state_id": 1629,
    "state_code": "02",
    "country_id": 176,
    "country_code": "PL",
    "latitude": "50.79088000",
    "longitude": "16.84457000",
    "native": null,
    "timezone": null,
    "translations": {}
  },
  {
    "id": 88760,
    "name": "Łagów",
    "state_id": 1629,
    "state_code": "02",
    "country_id": 176,
    "country_code": "PL",
    "latitude": "51.15835000",
    "longitude": "15.04372000",
    "native": null,
    "timezone": null,
    "translations": {}
  },
  {
    "id": 86987,
    "name": "Malczyce",
    "state_id": 1629,
    "state_code": "02",
    "country_id": 176,
    "country_code": "PL",
    "latitude": "51.22038000",
    "longitude": "16.49365000",
    "native": null,
    "timezone": null,
    "translations": {}
  },
  {
    "id": 86991,
    "name": "Marciszów",
    "state_id": 1629,
    "state_code": "02",
    "country_id": 176,
    "country_code": "PL",
    "latitude": "50.84470000",
    "longitude": "16.02116000",
    "native": null,
    "timezone": null,
    "translations": {}
  },
  {
    "id": 86998,
    "name": "Marszowice",
    "state_id": 1629,
    "state_code": "02",
    "country_id": 176,
    "country_code": "PL",
    "latitude": "51.17198000",
    "longitude": "16.88441000",
    "native": null,
    "timezone": null,
    "translations": {}
  },
  {
    "id": 87011,
    "name": "Maślice Małe",
    "state_id": 1629,
    "state_code": "02",
    "country_id": 176,
    "country_code": "PL",
    "latitude": "51.14937000",
    "longitude": "16.94191000",
    "native": null,
    "timezone": null,
    "translations": {}
  },
  {
    "id": 87012,
    "name": "Maślice Wielkie",
    "state_id": 1629,
    "state_code": "02",
    "country_id": 176,
    "country_code": "PL",
    "latitude": "51.16333000",
    "longitude": "16.92837000",
    "native": null,
    "timezone": null,
    "translations": {}
  },
  {
    "id": 87060,
    "name": "Międzybórz",
    "state_id": 1629,
    "state_code": "02",
    "country_id": 176,
    "country_code": "PL",
    "latitude": "51.39626000",
    "longitude": "17.66610000",
    "native": null,
    "timezone": null,
    "translations": {}
  },
  {
    "id": 87063,
    "name": "Międzylesie",
    "state_id": 1629,
    "state_code": "02",
    "country_id": 176,
    "country_code": "PL",
    "latitude": "50.14778000",
    "longitude": "16.66712000",
    "native": null,
    "timezone": null,
    "translations": {}
  },
  {
    "id": 87068,
    "name": "Miękinia",
    "state_id": 1629,
    "state_code": "02",
    "country_id": 176,
    "country_code": "PL",
    "latitude": "51.18844000",
    "longitude": "16.73595000",
    "native": null,
    "timezone": null,
    "translations": {}
  },
  {
    "id": 87038,
    "name": "Mieroszów",
    "state_id": 1629,
    "state_code": "02",
    "country_id": 176,
    "country_code": "PL",
    "latitude": "50.66589000",
    "longitude": "16.18883000",
    "native": null,
    "timezone": null,
    "translations": {}
  },
  {
    "id": 87050,
    "name": "Milicz",
    "state_id": 1629,
    "state_code": "02",
    "country_id": 176,
    "country_code": "PL",
    "latitude": "51.52770000",
    "longitude": "17.27137000",
    "native": null,
    "timezone": null,
    "translations": {}
  },
  {
    "id": 87071,
    "name": "Miłkowice",
    "state_id": 1629,
    "state_code": "02",
    "country_id": 176,
    "country_code": "PL",
    "latitude": "51.25601000",
    "longitude": "16.07231000",
    "native": null,
    "timezone": null,
    "translations": {}
  },
  {
    "id": 87053,
    "name": "Mirków",
    "state_id": 1629,
    "state_code": "02",
    "country_id": 176,
    "country_code": "PL",
    "latitude": "51.16105000",
    "longitude": "17.17026000",
    "native": null,
    "timezone": null,
    "translations": {}
  },
  {
    "id": 87056,
    "name": "Mirsk",
    "state_id": 1629,
    "state_code": "02",
    "country_id": 176,
    "country_code": "PL",
    "latitude": "50.97054000",
    "longitude": "15.38567000",
    "native": null,
    "timezone": null,
    "translations": {}
  },
  {
    "id": 87103,
    "name": "Mrozów",
    "state_id": 1629,
    "state_code": "02",
    "country_id": 176,
    "country_code": "PL",
    "latitude": "51.18817000",
    "longitude": "16.78831000",
    "native": null,
    "timezone": null,
    "translations": {}
  },
  {
    "id": 87120,
    "name": "Mysłakowice",
    "state_id": 1629,
    "state_code": "02",
    "country_id": 176,
    "country_code": "PL",
    "latitude": "50.84123000",
    "longitude": "15.77894000",
    "native": null,
    "timezone": null,
    "translations": {}
  },
  {
    "id": 87163,
    "name": "Niemcza",
    "state_id": 1629,
    "state_code": "02",
    "country_id": 176,
    "country_code": "PL",
    "latitude": "50.72007000",
    "longitude": "16.83573000",
    "native": null,
    "timezone": null,
    "translations": {}
  },
  {
    "id": 87173,
    "name": "Nowa Ruda",
    "state_id": 1629,
    "state_code": "02",
    "country_id": 176,
    "country_code": "PL",
    "latitude": "50.58008000",
    "longitude": "16.50164000",
    "native": null,
    "timezone": null,
    "translations": {}
  },
  {
    "id": 87195,
    "name": "Nowogrodziec",
    "state_id": 1629,
    "state_code": "02",
    "country_id": 176,
    "country_code": "PL",
    "latitude": "51.19543000",
    "longitude": "15.39854000",
    "native": null,
    "timezone": null,
    "translations": {}
  },
  {
    "id": 87217,
    "name": "Oborniki Śląskie",
    "state_id": 1629,
    "state_code": "02",
    "country_id": 176,
    "country_code": "PL",
    "latitude": "51.30137000",
    "longitude": "16.91465000",
    "native": null,
    "timezone": null,
    "translations": {}
  },
  {
    "id": 87241,
    "name": "Oleśnica",
    "state_id": 1629,
    "state_code": "02",
    "country_id": 176,
    "country_code": "PL",
    "latitude": "51.21338000",
    "longitude": "17.38986000",
    "native": null,
    "timezone": null,
    "translations": {}
  },
  {
    "id": 87245,
    "name": "Olszanica",
    "state_id": 1629,
    "state_code": "02",
    "country_id": 176,
    "country_code": "PL",
    "latitude": "51.20672000",
    "longitude": "15.80040000",
    "native": null,
    "timezone": null,
    "translations": {}
  },
  {
    "id": 87250,
    "name": "Olszyna",
    "state_id": 1629,
    "state_code": "02",
    "country_id": 176,
    "country_code": "PL",
    "latitude": "51.06710000",
    "longitude": "15.37228000",
    "native": null,
    "timezone": null,
    "translations": {}
  },
  {
    "id": 87322,
    "name": "Oława",
    "state_id": 1629,
    "state_code": "02",
    "country_id": 176,
    "country_code": "PL",
    "latitude": "50.94660000",
    "longitude": "17.29260000",
    "native": null,
    "timezone": null,
    "translations": {}
  },
  {
    "id": 87280,
    "name": "Osiedle Henrykowskie",
    "state_id": 1629,
    "state_code": "02",
    "country_id": 176,
    "country_code": "PL",
    "latitude": "51.08999000",
    "longitude": "17.05289000",
    "native": null,
    "timezone": null,
    "translations": {}
  },
  {
    "id": 87281,
    "name": "Osiedle Kosmonautów",
    "state_id": 1629,
    "state_code": "02",
    "country_id": 176,
    "country_code": "PL",
    "latitude": "51.12753000",
    "longitude": "16.96186000",
    "native": null,
    "timezone": null,
    "translations": {}
  },
  {
    "id": 87286,
    "name": "Osiek",
    "state_id": 1629,
    "state_code": "02",
    "country_id": 176,
    "country_code": "PL",
    "latitude": "51.36717000",
    "longitude": "16.23380000",
    "native": null,
    "timezone": null,
    "translations": {}
  },
  {
    "id": 87298,
    "name": "Ostroszowice",
    "state_id": 1629,
    "state_code": "02",
    "country_id": 176,
    "country_code": "PL",
    "latitude": "50.64576000",
    "longitude": "16.63965000",
    "native": null,
    "timezone": null,
    "translations": {}
  },
  {
    "id": 87348,
    "name": "Partynice",
    "state_id": 1629,
    "state_code": "02",
    "country_id": 176,
    "country_code": "PL",
    "latitude": "51.06798000",
    "longitude": "17.01394000",
    "native": null,
    "timezone": null,
    "translations": {}
  },
  {
    "id": 87352,
    "name": "Paszowice",
    "state_id": 1629,
    "state_code": "02",
    "country_id": 176,
    "country_code": "PL",
    "latitude": "51.01078000",
    "longitude": "16.15273000",
    "native": null,
    "timezone": null,
    "translations": {}
  },
  {
    "id": 87358,
    "name": "Pawłowice-Kłokoczyce",
    "state_id": 1629,
    "state_code": "02",
    "country_id": 176,
    "country_code": "PL",
    "latitude": "51.16495000",
    "longitude": "17.09822000",
    "native": null,
    "timezone": null,
    "translations": {}
  },
  {
    "id": 87373,
    "name": "Piechowice",
    "state_id": 1629,
    "state_code": "02",
    "country_id": 176,
    "country_code": "PL",
    "latitude": "50.84963000",
    "longitude": "15.59887000",
    "native": null,
    "timezone": null,
    "translations": {}
  },
  {
    "id": 87386,
    "name": "Pieńsk",
    "state_id": 1629,
    "state_code": "02",
    "country_id": 176,
    "country_code": "PL",
    "latitude": "51.24900000",
    "longitude": "15.04685000",
    "native": null,
    "timezone": null,
    "translations": {}
  },
  {
    "id": 87383,
    "name": "Pieszyce",
    "state_id": 1629,
    "state_code": "02",
    "country_id": 176,
    "country_code": "PL",
    "latitude": "50.71287000",
    "longitude": "16.58232000",
    "native": null,
    "timezone": null,
    "translations": {}
  },
  {
    "id": 87389,
    "name": "Pilczyce",
    "state_id": 1629,
    "state_code": "02",
    "country_id": 176,
    "country_code": "PL",
    "latitude": "51.13704000",
    "longitude": "16.95752000",
    "native": null,
    "timezone": null,
    "translations": {}
  },
  {
    "id": 87404,
    "name": "Piława Górna",
    "state_id": 1629,
    "state_code": "02",
    "country_id": 176,
    "country_code": "PL",
    "latitude": "50.68357000",
    "longitude": "16.74359000",
    "native": null,
    "timezone": null,
    "translations": {}
  },
  {
    "id": 87396,
    "name": "Pisarzowice",
    "state_id": 1629,
    "state_code": "02",
    "country_id": 176,
    "country_code": "PL",
    "latitude": "51.14479000",
    "longitude": "15.23057000",
    "native": null,
    "timezone": null,
    "translations": {}
  },
  {
    "id": 87416,
    "name": "Podgórzyn",
    "state_id": 1629,
    "state_code": "02",
    "country_id": 176,
    "country_code": "PL",
    "latitude": "50.83261000",
    "longitude": "15.68161000",
    "native": null,
    "timezone": null,
    "translations": {}
  },
  {
    "id": 87430,
    "name": "Polanica-Zdrój",
    "state_id": 1629,
    "state_code": "02",
    "country_id": 176,
    "country_code": "PL",
    "latitude": "50.40373000",
    "longitude": "16.51271000",
    "native": null,
    "timezone": null,
    "translations": {}
  },
  {
    "id": 87436,
    "name": "Polkowice",
    "state_id": 1629,
    "state_code": "02",
    "country_id": 176,
    "country_code": "PL",
    "latitude": "51.50391000",
    "longitude": "16.07261000",
    "native": null,
    "timezone": null,
    "translations": {}
  },
  {
    "id": 87782,
    "name": "Poświętne",
    "state_id": 1629,
    "state_code": "02",
    "country_id": 176,
    "country_code": "PL",
    "latitude": "51.15702000",
    "longitude": "17.02904000",
    "native": null,
    "timezone": null,
    "translations": {}
  },
  {
    "id": 87471,
    "name": "Powiat bolesławiecki",
    "state_id": 1629,
    "state_code": "02",
    "country_id": 176,
    "country_code": "PL",
    "latitude": "51.32174000",
    "longitude": "15.53215000",
    "native": null,
    "timezone": null,
    "translations": {}
  },
  {
    "id": 87495,
    "name": "Powiat dzierżoniowski",
    "state_id": 1629,
    "state_code": "02",
    "country_id": 176,
    "country_code": "PL",
    "latitude": "50.73506000",
    "longitude": "16.69192000",
    "native": null,
    "timezone": null,
    "translations": {}
  },
  {
    "id": 87520,
    "name": "Powiat głogowski",
    "state_id": 1629,
    "state_code": "02",
    "country_id": 176,
    "country_code": "PL",
    "latitude": "51.67132000",
    "longitude": "16.09486000",
    "native": null,
    "timezone": null,
    "translations": {}
  },
  {
    "id": 87519,
    "name": "Powiat górowski",
    "state_id": 1629,
    "state_code": "02",
    "country_id": 176,
    "country_code": "PL",
    "latitude": "51.63666000",
    "longitude": "16.54815000",
    "native": null,
    "timezone": null,
    "translations": {}
  },
  {
    "id": 87530,
    "name": "Powiat jaworski",
    "state_id": 1629,
    "state_code": "02",
    "country_id": 176,
    "country_code": "PL",
    "latitude": "51.03967000",
    "longitude": "16.16364000",
    "native": null,
    "timezone": null,
    "translations": {}
  },
  {
    "id": 87531,
    "name": "Powiat jeleniogórski",
    "state_id": 1629,
    "state_code": "02",
    "country_id": 176,
    "country_code": "PL",
    "latitude": "50.89654000",
    "longitude": "15.63835000",
    "native": null,
    "timezone": null,
    "translations": {}
  },
  {
    "id": 87534,
    "name": "Powiat kamiennogórski",
    "state_id": 1629,
    "state_code": "02",
    "country_id": 176,
    "country_code": "PL",
    "latitude": "50.75603000",
    "longitude": "16.00471000",
    "native": null,
    "timezone": null,
    "translations": {}
  },
  {
    "id": 87563,
    "name": "Powiat kłodzki",
    "state_id": 1629,
    "state_code": "02",
    "country_id": 176,
    "country_code": "PL",
    "latitude": "50.38882000",
    "longitude": "16.61185000",
    "native": null,
    "timezone": null,
    "translations": {}
  },
  {
    "id": 87565,
    "name": "Powiat legnicki",
    "state_id": 1629,
    "state_code": "02",
    "country_id": 176,
    "country_code": "PL",
    "latitude": "51.24113000",
    "longitude": "16.10744000",
    "native": null,
    "timezone": null,
    "translations": {}
  },
  {
    "id": 87575,
    "name": "Powiat lubański",
    "state_id": 1629,
    "state_code": "02",
    "country_id": 176,
    "country_code": "PL",
    "latitude": "51.04506000",
    "longitude": "15.27739000",
    "native": null,
    "timezone": null,
    "translations": {}
  },
  {
    "id": 87577,
    "name": "Powiat lubiński",
    "state_id": 1629,
    "state_code": "02",
    "country_id": 176,
    "country_code": "PL",
    "latitude": "51.44172000",
    "longitude": "16.24318000",
    "native": null,
    "timezone": null,
    "translations": {}
  },
  {
    "id": 87579,
    "name": "Powiat lwówecki",
    "state_id": 1629,
    "state_code": "02",
    "country_id": 176,
    "country_code": "PL",
    "latitude": "51.01559000",
    "longitude": "15.52144000",
    "native": null,
    "timezone": null,
    "translations": {}
  },
  {
    "id": 87586,
    "name": "Powiat milicki",
    "state_id": 1629,
    "state_code": "02",
    "country_id": 176,
    "country_code": "PL",
    "latitude": "51.50792000",
    "longitude": "17.28292000",
    "native": null,
    "timezone": null,
    "translations": {}
  },
  {
    "id": 87612,
    "name": "Powiat oleśnicki",
    "state_id": 1629,
    "state_code": "02",
    "country_id": 176,
    "country_code": "PL",
    "latitude": "51.25458000",
    "longitude": "17.51679000",
    "native": null,
    "timezone": null,
    "translations": {}
  },
  {
    "id": 87626,
    "name": "Powiat oławski",
    "state_id": 1629,
    "state_code": "02",
    "country_id": 176,
    "country_code": "PL",
    "latitude": "50.96062000",
    "longitude": "17.30601000",
    "native": null,
    "timezone": null,
    "translations": {}
  },
  {
    "id": 87639,
    "name": "Powiat polkowicki",
    "state_id": 1629,
    "state_code": "02",
    "country_id": 176,
    "country_code": "PL",
    "latitude": "51.49982000",
    "longitude": "16.01528000",
    "native": null,
    "timezone": null,
    "translations": {}
  },
  {
    "id": 87756,
    "name": "Powiat średzki",
    "state_id": 1629,
    "state_code": "02",
    "country_id": 176,
    "country_code": "PL",
    "latitude": "51.12628000",
    "longitude": "16.61904000",
    "native": null,
    "timezone": null,
    "translations": {}
  },
  {
    "id": 87686,
    "name": "Powiat strzeliński",
    "state_id": 1629,
    "state_code": "02",
    "country_id": 176,
    "country_code": "PL",
    "latitude": "50.76688000",
    "longitude": "17.10629000",
    "native": null,
    "timezone": null,
    "translations": {}
  },
  {
    "id": 87759,
    "name": "Powiat świdnicki",
    "state_id": 1629,
    "state_code": "02",
    "country_id": 176,
    "country_code": "PL",
    "latitude": "50.87051000",
    "longitude": "16.43043000",
    "native": null,
    "timezone": null,
    "translations": {}
  },
  {
    "id": 87709,
    "name": "Powiat trzebnicki",
    "state_id": 1629,
    "state_code": "02",
    "country_id": 176,
    "country_code": "PL",
    "latitude": "51.37195000",
    "longitude": "17.04989000",
    "native": null,
    "timezone": null,
    "translations": {}
  },
  {
    "id": 87714,
    "name": "Powiat wałbrzyski",
    "state_id": 1629,
    "state_code": "02",
    "country_id": 176,
    "country_code": "PL",
    "latitude": "50.75340000",
    "longitude": "16.19865000",
    "native": null,
    "timezone": null,
    "translations": {}
  },
  {
    "id": 87723,
    "name": "Powiat wołowski",
    "state_id": 1629,
    "state_code": "02",
    "country_id": 176,
    "country_code": "PL",
    "latitude": "51.37202000",
    "longitude": "16.61399000",
    "native": null,
    "timezone": null,
    "translations": {}
  },
  {
    "id": 87724,
    "name": "Powiat wrocławski",
    "state_id": 1629,
    "state_code": "02",
    "country_id": 176,
    "country_code": "PL",
    "latitude": "51.04278000",
    "longitude": "16.97115000",
    "native": null,
    "timezone": null,
    "translations": {}
  },
  {
    "id": 87744,
    "name": "Powiat ząbkowicki",
    "state_id": 1629,
    "state_code": "02",
    "country_id": 176,
    "country_code": "PL",
    "latitude": "50.55669000",
    "longitude": "16.87221000",
    "native": null,
    "timezone": null,
    "translations": {}
  },
  {
    "id": 87741,
    "name": "Powiat zgorzelecki",
    "state_id": 1629,
    "state_code": "02",
    "country_id": 176,
    "country_code": "PL",
    "latitude": "51.16297000",
    "longitude": "15.07863000",
    "native": null,
    "timezone": null,
    "translations": {}
  },
  {
    "id": 87745,
    "name": "Powiat złotoryjski",
    "state_id": 1629,
    "state_code": "02",
    "country_id": 176,
    "country_code": "PL",
    "latitude": "51.09129000",
    "longitude": "15.87948000",
    "native": null,
    "timezone": null,
    "translations": {}
  },
  {
    "id": 87771,
    "name": "Powstańców Śląskich Wschód",
    "state_id": 1629,
    "state_code": "02",
    "country_id": 176,
    "country_code": "PL",
    "latitude": "51.09164000",
    "longitude": "17.02470000",
    "native": null,
    "timezone": null,
    "translations": {}
  },
  {
    "id": 87772,
    "name": "Powstańców Śląskich Zachód-Centrum Południow",
    "state_id": 1629,
    "state_code": "02",
    "country_id": 176,
    "country_code": "PL",
    "latitude": "51.09607000",
    "longitude": "17.01770000",
    "native": null,
    "timezone": null,
    "translations": {}
  },
  {
    "id": 87784,
    "name": "Pracze Odrzańskie-Janówek",
    "state_id": 1629,
    "state_code": "02",
    "country_id": 176,
    "country_code": "PL",
    "latitude": "51.18780000",
    "longitude": "16.90824000",
    "native": null,
    "timezone": null,
    "translations": {}
  },
  {
    "id": 87789,
    "name": "Prochowice",
    "state_id": 1629,
    "state_code": "02",
    "country_id": 176,
    "country_code": "PL",
    "latitude": "51.27307000",
    "longitude": "16.36532000",
    "native": null,
    "timezone": null,
    "translations": {}
  },
  {
    "id": 87796,
    "name": "Prusice",
    "state_id": 1629,
    "state_code": "02",
    "country_id": 176,
    "country_code": "PL",
    "latitude": "51.37116000",
    "longitude": "16.96025000",
    "native": null,
    "timezone": null,
    "translations": {}
  },
  {
    "id": 87811,
    "name": "Przemków",
    "state_id": 1629,
    "state_code": "02",
    "country_id": 176,
    "country_code": "PL",
    "latitude": "51.52530000",
    "longitude": "15.79441000",
    "native": null,
    "timezone": null,
    "translations": {}
  },
  {
    "id": 87815,
    "name": "Przeworno",
    "state_id": 1629,
    "state_code": "02",
    "country_id": 176,
    "country_code": "PL",
    "latitude": "50.68629000",
    "longitude": "17.16588000",
    "native": null,
    "timezone": null,
    "translations": {}
  },
  {
    "id": 87839,
    "name": "Psary",
    "state_id": 1629,
    "state_code": "02",
    "country_id": 176,
    "country_code": "PL",
    "latitude": "51.18712000",
    "longitude": "17.03173000",
    "native": null,
    "timezone": null,
    "translations": {}
  },
  {
    "id": 87841,
    "name": "Psie Pole Południe-Kiełczów",
    "state_id": 1629,
    "state_code": "02",
    "country_id": 176,
    "country_code": "PL",
    "latitude": "51.14783000",
    "longitude": "17.12744000",
    "native": null,
    "timezone": null,
    "translations": {}
  },
  {
    "id": 87881,
    "name": "Radków",
    "state_id": 1629,
    "state_code": "02",
    "country_id": 176,
    "country_code": "PL",
    "latitude": "50.50426000",
    "longitude": "16.40061000",
    "native": null,
    "timezone": null,
    "translations": {}
  },
  {
    "id": 87892,
    "name": "Radwanice",
    "state_id": 1629,
    "state_code": "02",
    "country_id": 176,
    "country_code": "PL",
    "latitude": "51.05413000",
    "longitude": "17.10932000",
    "native": null,
    "timezone": null,
    "translations": {}
  },
  {
    "id": 87917,
    "name": "Ratowice",
    "state_id": 1629,
    "state_code": "02",
    "country_id": 176,
    "country_code": "PL",
    "latitude": "51.03308000",
    "longitude": "17.27205000",
    "native": null,
    "timezone": null,
    "translations": {}
  },
  {
    "id": 87925,
    "name": "Rejon alei Kromera",
    "state_id": 1629,
    "state_code": "02",
    "country_id": 176,
    "country_code": "PL",
    "latitude": "51.13375000",
    "longitude": "17.07107000",
    "native": null,
    "timezone": null,
    "translations": {}
  },
  {
    "id": 87926,
    "name": "Rejon placu Grunwaldzkiego",
    "state_id": 1629,
    "state_code": "02",
    "country_id": 176,
    "country_code": "PL",
    "latitude": "51.11669000",
    "longitude": "17.06126000",
    "native": null,
    "timezone": null,
    "translations": {}
  },
  {
    "id": 87927,
    "name": "Rejon placu Świętego Macieja",
    "state_id": 1629,
    "state_code": "02",
    "country_id": 176,
    "country_code": "PL",
    "latitude": "51.12056000",
    "longitude": "17.03761000",
    "native": null,
    "timezone": null,
    "translations": {}
  },
  {
    "id": 87928,
    "name": "Rejon ulicy Borowskiej-Południe",
    "state_id": 1629,
    "state_code": "02",
    "country_id": 176,
    "country_code": "PL",
    "latitude": "51.07660000",
    "longitude": "17.02582000",
    "native": null,
    "timezone": null,
    "translations": {}
  },
  {
    "id": 87929,
    "name": "Rejon ulicy Klęczkowskiej",
    "state_id": 1629,
    "state_code": "02",
    "country_id": 176,
    "country_code": "PL",
    "latitude": "51.12970000",
    "longitude": "17.03376000",
    "native": null,
    "timezone": null,
    "translations": {}
  },
  {
    "id": 87930,
    "name": "Rejon ulicy Mieleckiej",
    "state_id": 1629,
    "state_code": "02",
    "country_id": 176,
    "country_code": "PL",
    "latitude": "51.09145000",
    "longitude": "17.00207000",
    "native": null,
    "timezone": null,
    "translations": {}
  },
  {
    "id": 87931,
    "name": "Rejon ulicy Saperów",
    "state_id": 1629,
    "state_code": "02",
    "country_id": 176,
    "country_code": "PL",
    "latitude": "51.08614000",
    "longitude": "17.00050000",
    "native": null,
    "timezone": null,
    "translations": {}
  },
  {
    "id": 87932,
    "name": "Rejon ulicy Traugutta",
    "state_id": 1629,
    "state_code": "02",
    "country_id": 176,
    "country_code": "PL",
    "latitude": "51.10247000",
    "longitude": "17.04827000",
    "native": null,
    "timezone": null,
    "translations": {}
  },
  {
    "id": 88034,
    "name": "Różanka-Polanka",
    "state_id": 1629,
    "state_code": "02",
    "country_id": 176,
    "country_code": "PL",
    "latitude": "51.14344000",
    "longitude": "17.01987000",
    "native": null,
    "timezone": null,
    "translations": {}
  },
  {
    "id": 87975,
    "name": "Rudna",
    "state_id": 1629,
    "state_code": "02",
    "country_id": 176,
    "country_code": "PL",
    "latitude": "51.50981000",
    "longitude": "16.26363000",
    "native": null,
    "timezone": null,
    "translations": {}
  },
  {
    "id": 88829,
    "name": "Ścinawa",
    "state_id": 1629,
    "state_code": "02",
    "country_id": 176,
    "country_code": "PL",
    "latitude": "51.41626000",
    "longitude": "16.42510000",
    "native": null,
    "timezone": null,
    "translations": {}
  },
  {
    "id": 88331,
    "name": "Sępolno",
    "state_id": 1629,
    "state_code": "02",
    "country_id": 176,
    "country_code": "PL",
    "latitude": "51.10995000",
    "longitude": "17.10200000",
    "native": null,
    "timezone": null,
    "translations": {}
  },
  {
    "id": 88063,
    "name": "Siechnice",
    "state_id": 1629,
    "state_code": "02",
    "country_id": 176,
    "country_code": "PL",
    "latitude": "51.03384000",
    "longitude": "17.14743000",
    "native": null,
    "timezone": null,
    "translations": {}
  },
  {
    "id": 88070,
    "name": "Siekierczyn",
    "state_id": 1629,
    "state_code": "02",
    "country_id": 176,
    "country_code": "PL",
    "latitude": "51.12217000",
    "longitude": "15.19375000",
    "native": null,
    "timezone": null,
    "translations": {}
  },
  {
    "id": 88125,
    "name": "Smolec",
    "state_id": 1629,
    "state_code": "02",
    "country_id": 176,
    "country_code": "PL",
    "latitude": "51.07322000",
    "longitude": "16.88221000",
    "native": null,
    "timezone": null,
    "translations": {}
  },
  {
    "id": 88133,
    "name": "Sobótka",
    "state_id": 1629,
    "state_code": "02",
    "country_id": 176,
    "country_code": "PL",
    "latitude": "50.89992000",
    "longitude": "16.74441000",
    "native": null,
    "timezone": null,
    "translations": {}
  },
  {
    "id": 88155,
    "name": "Sołtysowice",
    "state_id": 1629,
    "state_code": "02",
    "country_id": 176,
    "country_code": "PL",
    "latitude": "51.15282000",
    "longitude": "17.07103000",
    "native": null,
    "timezone": null,
    "translations": {}
  },
  {
    "id": 88154,
    "name": "Sosnówka",
    "state_id": 1629,
    "state_code": "02",
    "country_id": 176,
    "country_code": "PL",
    "latitude": "50.81830000",
    "longitude": "15.72315000",
    "native": null,
    "timezone": null,
    "translations": {}
  },
  {
    "id": 88839,
    "name": "Środa Śląska",
    "state_id": 1629,
    "state_code": "02",
    "country_id": 176,
    "country_code": "PL",
    "latitude": "51.16406000",
    "longitude": "16.59508000",
    "native": null,
    "timezone": null,
    "translations": {}
  },
  {
    "id": 88164,
    "name": "Stabłowice",
    "state_id": 1629,
    "state_code": "02",
    "country_id": 176,
    "country_code": "PL",
    "latitude": "51.15375000",
    "longitude": "16.90020000",
    "native": null,
    "timezone": null,
    "translations": {}
  },
  {
    "id": 88172,
    "name": "Stanowice",
    "state_id": 1629,
    "state_code": "02",
    "country_id": 176,
    "country_code": "PL",
    "latitude": "50.93106000",
    "longitude": "16.37426000",
    "native": null,
    "timezone": null,
    "translations": {}
  },
  {
    "id": 88175,
    "name": "Stara Kamienica",
    "state_id": 1629,
    "state_code": "02",
    "country_id": 176,
    "country_code": "PL",
    "latitude": "50.91602000",
    "longitude": "15.57286000",
    "native": null,
    "timezone": null,
    "translations": {}
  },
  {
    "id": 88182,
    "name": "Stare Bogaczowice",
    "state_id": 1629,
    "state_code": "02",
    "country_id": 176,
    "country_code": "PL",
    "latitude": "50.84752000",
    "longitude": "16.19308000",
    "native": null,
    "timezone": null,
    "translations": {}
  },
  {
    "id": 88208,
    "name": "Stoszowice",
    "state_id": 1629,
    "state_code": "02",
    "country_id": 176,
    "country_code": "PL",
    "latitude": "50.59986000",
    "longitude": "16.73896000",
    "native": null,
    "timezone": null,
    "translations": {}
  },
  {
    "id": 88209,
    "name": "Strachocin-Wojnów",
    "state_id": 1629,
    "state_code": "02",
    "country_id": 176,
    "country_code": "PL",
    "latitude": "51.10486000",
    "longitude": "17.15073000",
    "native": null,
    "timezone": null,
    "translations": {}
  },
  {
    "id": 88217,
    "name": "Stronie Śląskie",
    "state_id": 1629,
    "state_code": "02",
    "country_id": 176,
    "country_code": "PL",
    "latitude": "50.29554000",
    "longitude": "16.87397000",
    "native": null,
    "timezone": null,
    "translations": {}
  },
  {
    "id": 88224,
    "name": "Strzegom",
    "state_id": 1629,
    "state_code": "02",
    "country_id": 176,
    "country_code": "PL",
    "latitude": "50.96264000",
    "longitude": "16.35006000",
    "native": null,
    "timezone": null,
    "translations": {}
  },
  {
    "id": 88231,
    "name": "Strzelin",
    "state_id": 1629,
    "state_code": "02",
    "country_id": 176,
    "country_code": "PL",
    "latitude": "50.78157000",
    "longitude": "17.06477000",
    "native": null,
    "timezone": null,
    "translations": {}
  },
  {
    "id": 88259,
    "name": "Sulików",
    "state_id": 1629,
    "state_code": "02",
    "country_id": 176,
    "country_code": "PL",
    "latitude": "51.07624000",
    "longitude": "15.06792000",
    "native": null,
    "timezone": null,
    "translations": {}
  },
  {
    "id": 88274,
    "name": "Sułów",
    "state_id": 1629,
    "state_code": "02",
    "country_id": 176,
    "country_code": "PL",
    "latitude": "51.49966000",
    "longitude": "17.16811000",
    "native": null,
    "timezone": null,
    "translations": {}
  },
  {
    "id": 88842,
    "name": "Świdnica",
    "state_id": 1629,
    "state_code": "02",
    "country_id": 176,
    "country_code": "PL",
    "latitude": "50.84378000",
    "longitude": "16.48859000",
    "native": null,
    "timezone": null,
    "translations": {}
  },
  {
    "id": 88845,
    "name": "Świebodzice",
    "state_id": 1629,
    "state_code": "02",
    "country_id": 176,
    "country_code": "PL",
    "latitude": "50.85974000",
    "longitude": "16.31966000",
    "native": null,
    "timezone": null,
    "translations": {}
  },
  {
    "id": 88851,
    "name": "Świeradów-Zdrój",
    "state_id": 1629,
    "state_code": "02",
    "country_id": 176,
    "country_code": "PL",
    "latitude": "50.90920000",
    "longitude": "15.34309000",
    "native": null,
    "timezone": null,
    "translations": {}
  },
  {
    "id": 88857,
    "name": "Świerzawa",
    "state_id": 1629,
    "state_code": "02",
    "country_id": 176,
    "country_code": "PL",
    "latitude": "51.01375000",
    "longitude": "15.89516000",
    "native": null,
    "timezone": null,
    "translations": {}
  },
  {
    "id": 88865,
    "name": "Święta Katarzyna",
    "state_id": 1629,
    "state_code": "02",
    "country_id": 176,
    "country_code": "PL",
    "latitude": "51.02596000",
    "longitude": "17.11464000",
    "native": null,
    "timezone": null,
    "translations": {}
  },
  {
    "id": 88277,
    "name": "Swojczyce",
    "state_id": 1629,
    "state_code": "02",
    "country_id": 176,
    "country_code": "PL",
    "latitude": "51.11567000",
    "longitude": "17.12535000",
    "native": null,
    "timezone": null,
    "translations": {}
  },
  {
    "id": 88278,
    "name": "Syców",
    "state_id": 1629,
    "state_code": "02",
    "country_id": 176,
    "country_code": "PL",
    "latitude": "51.30814000",
    "longitude": "17.71979000",
    "native": null,
    "timezone": null,
    "translations": {}
  },
  {
    "id": 88291,
    "name": "Szczawno-Zdrój",
    "state_id": 1629,
    "state_code": "02",
    "country_id": 176,
    "country_code": "PL",
    "latitude": "50.80352000",
    "longitude": "16.25655000",
    "native": null,
    "timezone": null,
    "translations": {}
  },
  {
    "id": 88296,
    "name": "Szczepanów",
    "state_id": 1629,
    "state_code": "02",
    "country_id": 176,
    "country_code": "PL",
    "latitude": "51.19796000",
    "longitude": "16.61064000",
    "native": null,
    "timezone": null,
    "translations": {}
  },
  {
    "id": 88304,
    "name": "Szczytna",
    "state_id": 1629,
    "state_code": "02",
    "country_id": 176,
    "country_code": "PL",
    "latitude": "50.41343000",
    "longitude": "16.44743000",
    "native": null,
    "timezone": null,
    "translations": {}
  },
  {
    "id": 88310,
    "name": "Szklarska Poręba",
    "state_id": 1629,
    "state_code": "02",
    "country_id": 176,
    "country_code": "PL",
    "latitude": "50.82567000",
    "longitude": "15.52274000",
    "native": null,
    "timezone": null,
    "translations": {}
  },
  {
    "id": 88408,
    "name": "Trzebnica",
    "state_id": 1629,
    "state_code": "02",
    "country_id": 176,
    "country_code": "PL",
    "latitude": "51.31076000",
    "longitude": "17.06331000",
    "native": null,
    "timezone": null,
    "translations": {}
  },
  {
    "id": 88432,
    "name": "Twardogóra",
    "state_id": 1629,
    "state_code": "02",
    "country_id": 176,
    "country_code": "PL",
    "latitude": "51.36487000",
    "longitude": "17.46878000",
    "native": null,
    "timezone": null,
    "translations": {}
  },
  {
    "id": 88441,
    "name": "Tyniec Mały",
    "state_id": 1629,
    "state_code": "02",
    "country_id": 176,
    "country_code": "PL",
    "latitude": "51.01948000",
    "longitude": "16.91998000",
    "native": null,
    "timezone": null,
    "translations": {}
  },
  {
    "id": 88446,
    "name": "Uciechów",
    "state_id": 1629,
    "state_code": "02",
    "country_id": 176,
    "country_code": "PL",
    "latitude": "50.75487000",
    "longitude": "16.68175000",
    "native": null,
    "timezone": null,
    "translations": {}
  },
  {
    "id": 88447,
    "name": "Udanin",
    "state_id": 1629,
    "state_code": "02",
    "country_id": 176,
    "country_code": "PL",
    "latitude": "51.03740000",
    "longitude": "16.45469000",
    "native": null,
    "timezone": null,
    "translations": {}
  },
  {
    "id": 88475,
    "name": "Walim",
    "state_id": 1629,
    "state_code": "02",
    "country_id": 176,
    "country_code": "PL",
    "latitude": "50.69749000",
    "longitude": "16.44482000",
    "native": null,
    "timezone": null,
    "translations": {}
  },
  {
    "id": 88487,
    "name": "Wałbrzych",
    "state_id": 1629,
    "state_code": "02",
    "country_id": 176,
    "country_code": "PL",
    "latitude": "50.77141000",
    "longitude": "16.28432000",
    "native": null,
    "timezone": null,
    "translations": {}
  },
  {
    "id": 88636,
    "name": "Wąsosz",
    "state_id": 1629,
    "state_code": "02",
    "country_id": 176,
    "country_code": "PL",
    "latitude": "51.56224000",
    "longitude": "16.69059000",
    "native": null,
    "timezone": null,
    "translations": {}
  },
  {
    "id": 88639,
    "name": "Węgliniec",
    "state_id": 1629,
    "state_code": "02",
    "country_id": 176,
    "country_code": "PL",
    "latitude": "51.28753000",
    "longitude": "15.22894000",
    "native": null,
    "timezone": null,
    "translations": {}
  },
  {
    "id": 88556,
    "name": "Wiązów",
    "state_id": 1629,
    "state_code": "02",
    "country_id": 176,
    "country_code": "PL",
    "latitude": "50.81399000",
    "longitude": "17.20214000",
    "native": null,
    "timezone": null,
    "translations": {}
  },
  {
    "id": 88495,
    "name": "Widawa-Lipa Piotrowska-Polanowice",
    "state_id": 1629,
    "state_code": "02",
    "country_id": 176,
    "country_code": "PL",
    "latitude": "51.17093000",
    "longitude": "17.02164000",
    "native": null,
    "timezone": null,
    "translations": {}
  },
  {
    "id": 88521,
    "name": "Wierzbno",
    "state_id": 1629,
    "state_code": "02",
    "country_id": 176,
    "country_code": "PL",
    "latitude": "50.93674000",
    "longitude": "17.17961000",
    "native": null,
    "timezone": null,
    "translations": {}
  },
  {
    "id": 88535,
    "name": "Wilczyce",
    "state_id": 1629,
    "state_code": "02",
    "country_id": 176,
    "country_code": "PL",
    "latitude": "51.12944000",
    "longitude": "17.15472000",
    "native": null,
    "timezone": null,
    "translations": {}
  },
  {
    "id": 88543,
    "name": "Wilków",
    "state_id": 1629,
    "state_code": "02",
    "country_id": 176,
    "country_code": "PL",
    "latitude": "51.09212000",
    "longitude": "15.92824000",
    "native": null,
    "timezone": null,
    "translations": {}
  },
  {
    "id": 88559,
    "name": "Wińsko",
    "state_id": 1629,
    "state_code": "02",
    "country_id": 176,
    "country_code": "PL",
    "latitude": "51.47032000",
    "longitude": "16.61390000",
    "native": null,
    "timezone": null,
    "translations": {}
  },
  {
    "id": 88565,
    "name": "Wleń",
    "state_id": 1629,
    "state_code": "02",
    "country_id": 176,
    "country_code": "PL",
    "latitude": "51.01635000",
    "longitude": "15.67474000",
    "native": null,
    "timezone": null,
    "translations": {}
  },
  {
    "id": 88575,
    "name": "Wojcieszów",
    "state_id": 1629,
    "state_code": "02",
    "country_id": 176,
    "country_code": "PL",
    "latitude": "50.95194000",
    "longitude": "15.92185000",
    "native": null,
    "timezone": null,
    "translations": {}
  },
  {
    "id": 88578,
    "name": "Wojszyce",
    "state_id": 1629,
    "state_code": "02",
    "country_id": 176,
    "country_code": "PL",
    "latitude": "51.05837000",
    "longitude": "17.04513000",
    "native": null,
    "timezone": null,
    "translations": {}
  },
  {
    "id": 88601,
    "name": "Wołów",
    "state_id": 1629,
    "state_code": "02",
    "country_id": 176,
    "country_code": "PL",
    "latitude": "51.33656000",
    "longitude": "16.64429000",
    "native": null,
    "timezone": null,
    "translations": {}
  },
  {
    "id": 88604,
    "name": "Wrocław",
    "state_id": 1629,
    "state_code": "02",
    "country_id": 176,
    "country_code": "PL",
    "latitude": "51.10810000",
    "longitude": "17.03859000",
    "native": null,
    "timezone": null,
    "translations": {}
  },
  {
    "id": 88739,
    "name": "Ząbkowice Śląskie",
    "state_id": 1629,
    "state_code": "02",
    "country_id": 176,
    "country_code": "PL",
    "latitude": "50.58969000",
    "longitude": "16.81239000",
    "native": null,
    "timezone": null,
    "translations": {}
  },
  {
    "id": 88664,
    "name": "Zacisze",
    "state_id": 1629,
    "state_code": "02",
    "country_id": 176,
    "country_code": "PL",
    "latitude": "51.12303000",
    "longitude": "17.07465000",
    "native": null,
    "timezone": null,
    "translations": {}
  },
  {
    "id": 88667,
    "name": "Zagrodno",
    "state_id": 1629,
    "state_code": "02",
    "country_id": 176,
    "country_code": "PL",
    "latitude": "51.19134000",
    "longitude": "15.86533000",
    "native": null,
    "timezone": null,
    "translations": {}
  },
  {
    "id": 88681,
    "name": "Zakrzów",
    "state_id": 1629,
    "state_code": "02",
    "country_id": 176,
    "country_code": "PL",
    "latitude": "51.16624000",
    "longitude": "17.13688000",
    "native": null,
    "timezone": null,
    "translations": {}
  },
  {
    "id": 88686,
    "name": "Zalesie i Stadion",
    "state_id": 1629,
    "state_code": "02",
    "country_id": 176,
    "country_code": "PL",
    "latitude": "51.11970000",
    "longitude": "17.09194000",
    "native": null,
    "timezone": null,
    "translations": {}
  },
  {
    "id": 88878,
    "name": "Żarów",
    "state_id": 1629,
    "state_code": "02",
    "country_id": 176,
    "country_code": "PL",
    "latitude": "50.94116000",
    "longitude": "16.49466000",
    "native": null,
    "timezone": null,
    "translations": {}
  },
  {
    "id": 88886,
    "name": "Żerniki Wrocławskie",
    "state_id": 1629,
    "state_code": "02",
    "country_id": 176,
    "country_code": "PL",
    "latitude": "51.03308000",
    "longitude": "17.05662000",
    "native": null,
    "timezone": null,
    "translations": {}
  },
  {
    "id": 88725,
    "name": "Zgorzelec",
    "state_id": 1629,
    "state_code": "02",
    "country_id": 176,
    "country_code": "PL",
    "latitude": "51.14942000",
    "longitude": "15.00835000",
    "native": null,
    "timezone": null,
    "translations": {}
  },
  {
    "id": 88726,
    "name": "Zgorzelisko",
    "state_id": 1629,
    "state_code": "02",
    "country_id": 176,
    "country_code": "PL",
    "latitude": "51.13833000",
    "longitude": "17.13365000",
    "native": null,
    "timezone": null,
    "translations": {}
  },
  {
    "id": 88731,
    "name": "Ziębice",
    "state_id": 1629,
    "state_code": "02",
    "country_id": 176,
    "country_code": "PL",
    "latitude": "50.60122000",
    "longitude": "17.04065000",
    "native": null,
    "timezone": null,
    "translations": {}
  },
  {
    "id": 88747,
    "name": "Złotniki",
    "state_id": 1629,
    "state_code": "02",
    "country_id": 176,
    "country_code": "PL",
    "latitude": "51.13769000",
    "longitude": "16.88923000",
    "native": null,
    "timezone": null,
    "translations": {}
  },
  {
    "id": 88749,
    "name": "Złotoryja",
    "state_id": 1629,
    "state_code": "02",
    "country_id": 176,
    "country_code": "PL",
    "latitude": "51.12637000",
    "longitude": "15.91979000",
    "native": null,
    "timezone": null,
    "translations": {}
  },
  {
    "id": 88750,
    "name": "Złoty Stok",
    "state_id": 1629,
    "state_code": "02",
    "country_id": 176,
    "country_code": "PL",
    "latitude": "50.44472000",
    "longitude": "16.87586000",
    "native": null,
    "timezone": null,
    "translations": {}
  },
  {
    "id": 88887,
    "name": "Żmigród",
    "state_id": 1629,
    "state_code": "02",
    "country_id": 176,
    "country_code": "PL",
    "latitude": "51.46672000",
    "longitude": "16.90564000",
    "native": null,
    "timezone": null,
    "translations": {}
  },
  {
    "id": 88902,
    "name": "Żórawina",
    "state_id": 1629,
    "state_code": "02",
    "country_id": 176,
    "country_code": "PL",
    "latitude": "50.98080000",
    "longitude": "17.03671000",
    "native": null,
    "timezone": null,
    "translations": {}
  }
]