[
  {
    "id": 303,
    "name": "Abia",
    "country_id": 161,
    "country_code": "NG",
    "fips_code": null,
    "iso2": "AB",
    "type": "state",
    "latitude": "5.45409530",
    "longitude": "7.51530710",
    "native": "Abia",
    "timezone": "Africa/Lagos",
    "translations": {}
  },
  {
    "id": 293,
    "name": "Abuja Federal Capital Territory",
    "country_id": 161,
    "country_code": "NG",
    "fips_code": null,
    "iso2": "FC",
    "type": "capital territory",
    "latitude": "8.83112280",
    "longitude": "7.17246730",
    "native": "Abuja Federal Capital Territory",
    "timezone": "Africa/Lagos",
    "translations": {}
  },
  {
    "id": 320,
    "name": "Adamawa",
    "country_id": 161,
    "country_code": "NG",
    "fips_code": null,
    "iso2": "AD",
    "type": "state",
    "latitude": "9.51297720",
    "longitude": "12.38818870",
    "native": "Adamawa",
    "timezone": "Africa/Lagos",
    "translations": {}
  },
  {
    "id": 304,
    "name": "Akwa Ibom",
    "country_id": 161,
    "country_code": "NG",
    "fips_code": null,
    "iso2": "AK",
    "type": "state",
    "latitude": "4.99063790",
    "longitude": "7.79662050",
    "native": "Immoral",
    "timezone": "Africa/Lagos",
    "translations": {}
  },
  {
    "id": 315,
    "name": "Anambra",
    "country_id": 161,
    "country_code": "NG",
    "fips_code": null,
    "iso2": "AN",
    "type": "state",
    "latitude": "6.21831360",
    "longitude": "6.95318420",
    "native": "Anambra",
    "timezone": "Africa/Lagos",
    "translations": {}
  },
  {
    "id": 312,
    "name": "Bauchi",
    "country_id": 161,
    "country_code": "NG",
    "fips_code": null,
    "iso2": "BA",
    "type": "state",
    "latitude": "10.62282840",
    "longitude": "10.02877540",
    "native": "Bauchi",
    "timezone": "Africa/Lagos",
    "translations": {}
  },
  {
    "id": 305,
    "name": "Bayelsa",
    "country_id": 161,
    "country_code": "NG",
    "fips_code": null,
    "iso2": "BY",
    "type": "state",
    "latitude": "4.76297860",
    "longitude": "6.02889800",
    "native": "Bayelsa",
    "timezone": "Africa/Lagos",
    "translations": {}
  },
  {
    "id": 291,
    "name": "Benue",
    "country_id": 161,
    "country_code": "NG",
    "fips_code": null,
    "iso2": "BE",
    "type": "state",
    "latitude": "7.35057470",
    "longitude": "8.77728770",
    "native": "Benue",
    "timezone": "Africa/Lagos",
    "translations": {}
  },
  {
    "id": 307,
    "name": "Borno",
    "country_id": 161,
    "country_code": "NG",
    "fips_code": null,
    "iso2": "BO",
    "type": "state",
    "latitude": "12.18753920",
    "longitude": "13.30800340",
    "native": "Borno",
    "timezone": "Africa/Lagos",
    "translations": {}
  },
  {
    "id": 314,
    "name": "Cross River",
    "country_id": 161,
    "country_code": "NG",
    "fips_code": null,
    "iso2": "CR",
    "type": "state",
    "latitude": "5.86719660",
    "longitude": "8.52047740",
    "native": "Cross River",
    "timezone": "Africa/Lagos",
    "translations": {}
  },
  {
    "id": 316,
    "name": "Delta",
    "country_id": 161,
    "country_code": "NG",
    "fips_code": null,
    "iso2": "DE",
    "type": "state",
    "latitude": "5.52730610",
    "longitude": "6.17841670",
    "native": "Delta",
    "timezone": "Africa/Lagos",
    "translations": {}
  },
  {
    "id": 311,
    "name": "Ebonyi",
    "country_id": 161,
    "country_code": "NG",
    "fips_code": null,
    "iso2": "EB",
    "type": "state",
    "latitude": "6.19969180",
    "longitude": "8.03489060",
    "native": "Ebonyi",
    "timezone": "Africa/Lagos",
    "translations": {}
  },
  {
    "id": 318,
    "name": "Edo",
    "country_id": 161,
    "country_code": "NG",
    "fips_code": null,
    "iso2": "ED",
    "type": "state",
    "latitude": "6.60765750",
    "longitude": "5.97227130",
    "native": "Or",
    "timezone": "Africa/Lagos",
    "translations": {}
  },
  {
    "id": 309,
    "name": "Ekiti",
    "country_id": 161,
    "country_code": "NG",
    "fips_code": null,
    "iso2": "EK",
    "type": "state",
    "latitude": "7.73689100",
    "longitude": "5.27383260",
    "native": "Ekiti",
    "timezone": "Africa/Lagos",
    "translations": {}
  },
  {
    "id": 289,
    "name": "Enugu",
    "country_id": 161,
    "country_code": "NG",
    "fips_code": null,
    "iso2": "EN",
    "type": "state",
    "latitude": "6.55360940",
    "longitude": "7.41430610",
    "native": "Enugu",
    "timezone": "Africa/Lagos",
    "translations": {}
  },
  {
    "id": 310,
    "name": "Gombe",
    "country_id": 161,
    "country_code": "NG",
    "fips_code": null,
    "iso2": "GO",
    "type": "state",
    "latitude": "10.43040180",
    "longitude": "11.20654080",
    "native": "Gombe",
    "timezone": "Africa/Lagos",
    "translations": {}
  },
  {
    "id": 308,
    "name": "Imo",
    "country_id": 161,
    "country_code": "NG",
    "fips_code": null,
    "iso2": "IM",
    "type": "state",
    "latitude": "5.58594560",
    "longitude": "7.06696510",
    "native": "Imo",
    "timezone": "Africa/Lagos",
    "translations": {}
  },
  {
    "id": 288,
    "name": "Jigawa",
    "country_id": 161,
    "country_code": "NG",
    "fips_code": null,
    "iso2": "JI",
    "type": "state",
    "latitude": "12.32523620",
    "longitude": "9.51032960",
    "native": "Jigawa",
    "timezone": "Africa/Lagos",
    "translations": {}
  },
  {
    "id": 294,
    "name": "Kaduna",
    "country_id": 161,
    "country_code": "NG",
    "fips_code": null,
    "iso2": "KD",
    "type": "state",
    "latitude": "10.38253180",
    "longitude": "7.85332260",
    "native": "Kaduna",
    "timezone": "Africa/Lagos",
    "translations": {}
  },
  {
    "id": 300,
    "name": "Kano",
    "country_id": 161,
    "country_code": "NG",
    "fips_code": null,
    "iso2": "KN",
    "type": "state",
    "latitude": "11.89483890",
    "longitude": "8.53641360",
    "native": "Kano",
    "timezone": "Africa/Lagos",
    "translations": {}
  },
  {
    "id": 313,
    "name": "Katsina",
    "country_id": 161,
    "country_code": "NG",
    "fips_code": null,
    "iso2": "KT",
    "type": "state",
    "latitude": "12.56308250",
    "longitude": "7.62070630",
    "native": "Katsina",
    "timezone": "Africa/Lagos",
    "translations": {}
  },
  {
    "id": 290,
    "name": "Kebbi",
    "country_id": 161,
    "country_code": "NG",
    "fips_code": null,
    "iso2": "KE",
    "type": "state",
    "latitude": "11.41675740",
    "longitude": "4.10745450",
    "native": "Kebbi",
    "timezone": "Africa/Lagos",
    "translations": {}
  },
  {
    "id": 298,
    "name": "Kogi",
    "country_id": 161,
    "country_code": "NG",
    "fips_code": null,
    "iso2": "KO",
    "type": "state",
    "latitude": "7.79496020",
    "longitude": "6.68686690",
    "native": "Kogi",
    "timezone": "Africa/Lagos",
    "translations": {}
  },
  {
    "id": 295,
    "name": "Kwara",
    "country_id": 161,
    "country_code": "NG",
    "fips_code": null,
    "iso2": "KW",
    "type": "state",
    "latitude": "8.83678910",
    "longitude": "4.66884870",
    "native": "Kwara",
    "timezone": "Africa/Lagos",
    "translations": {}
  },
  {
    "id": 306,
    "name": "Lagos",
    "country_id": 161,
    "country_code": "NG",
    "fips_code": null,
    "iso2": "LA",
    "type": "state",
    "latitude": "6.45505750",
    "longitude": "3.39417950",
    "native": "Lagos",
    "timezone": "Africa/Lagos",
    "translations": {}
  },
  {
    "id": 301,
    "name": "Nasarawa",
    "country_id": 161,
    "country_code": "NG",
    "fips_code": null,
    "iso2": "NA",
    "type": "state",
    "latitude": "8.43878680",
    "longitude": "8.23828490",
    "native": "Nasarawa",
    "timezone": "Africa/Lagos",
    "translations": {}
  },
  {
    "id": 317,
    "name": "Niger",
    "country_id": 161,
    "country_code": "NG",
    "fips_code": null,
    "iso2": "NI",
    "type": "state",
    "latitude": "9.93260830",
    "longitude": "5.65110880",
    "native": "Niger",
    "timezone": "Africa/Lagos",
    "translations": {}
  },
  {
    "id": 323,
    "name": "Ogun",
    "country_id": 161,
    "country_code": "NG",
    "fips_code": null,
    "iso2": "OG",
    "type": "state",
    "latitude": "6.97885820",
    "longitude": "3.43892930",
    "native": "Ogun",
    "timezone": "Africa/Lagos",
    "translations": {}
  },
  {
    "id": 321,
    "name": "Ondo",
    "country_id": 161,
    "country_code": "NG",
    "fips_code": null,
    "iso2": "ON",
    "type": "state",
    "latitude": "7.02096860",
    "longitude": "5.05674770",
    "native": "Ondo",
    "timezone": "Africa/Lagos",
    "translations": {}
  },
  {
    "id": 322,
    "name": "Osun",
    "country_id": 161,
    "country_code": "NG",
    "fips_code": null,
    "iso2": "OS",
    "type": "state",
    "latitude": "7.54840470",
    "longitude": "4.49783070",
    "native": "Osun",
    "timezone": "Africa/Lagos",
    "translations": {}
  },
  {
    "id": 296,
    "name": "Oyo",
    "country_id": 161,
    "country_code": "NG",
    "fips_code": null,
    "iso2": "OY",
    "type": "state",
    "latitude": "8.21512490",
    "longitude": "3.56428970",
    "native": "Oyo",
    "timezone": "Africa/Lagos",
    "translations": {}
  },
  {
    "id": 302,
    "name": "Plateau",
    "country_id": 161,
    "country_code": "NG",
    "fips_code": null,
    "iso2": "PL",
    "type": "state",
    "latitude": "9.05834460",
    "longitude": "9.68262890",
    "native": "Plateau",
    "timezone": "Africa/Lagos",
    "translations": {}
  },
  {
    "id": 4926,
    "name": "Rivers",
    "country_id": 161,
    "country_code": "NG",
    "fips_code": null,
    "iso2": "RI",
    "type": "state",
    "latitude": "4.84160280",
    "longitude": "6.86040880",
    "native": "Rivers",
    "timezone": "Africa/Lagos",
    "translations": {}
  },
  {
    "id": 292,
    "name": "Sokoto",
    "country_id": 161,
    "country_code": "NG",
    "fips_code": null,
    "iso2": "SO",
    "type": "state",
    "latitude": "13.06111950",
    "longitude": "5.31522030",
    "native": "Sokoto",
    "timezone": "Africa/Lagos",
    "translations": {}
  },
  {
    "id": 319,
    "name": "Taraba",
    "country_id": 161,
    "country_code": "NG",
    "fips_code": null,
    "iso2": "TA",
    "type": "state",
    "latitude": "8.01413340",
    "longitude": "10.73763360",
    "native": "Taraba",
    "timezone": "Africa/Lagos",
    "translations": {}
  },
  {
    "id": 297,
    "name": "Yobe",
    "country_id": 161,
    "country_code": "NG",
    "fips_code": null,
    "iso2": "YO",
    "type": "state",
    "latitude": "12.12332420",
    "longitude": "11.50659370",
    "native": "Yobe",
    "timezone": "Africa/Lagos",
    "translations": {}
  },
  {
    "id": 299,
    "name": "Zamfara",
    "country_id": 161,
    "country_code": "NG",
    "fips_code": null,
    "iso2": "ZA",
    "type": "state",
    "latitude": "12.00789980",
    "longitude": "6.41914320",
    "native": "Zamfara",
    "timezone": "Africa/Lagos",
    "translations": {}
  }
]