[
  {
    "id": 52414,
    "name": "Agrínio",
    "state_id": 2096,
    "state_code": "G",
    "country_id": 85,
    "country_code": "GR",
    "latitude": "38.62139000",
    "longitude": "21.40778000",
    "native": null,
    "timezone": null,
    "translations": {}
  },
  {
    "id": 52522,
    "name": "Aígio",
    "state_id": 2096,
    "state_code": "G",
    "country_id": 85,
    "country_code": "GR",
    "latitude": "38.24861000",
    "longitude": "22.08194000",
    "native": null,
    "timezone": null,
    "translations": {}
  },
  {
    "id": 52432,
    "name": "Aitolikó",
    "state_id": 2096,
    "state_code": "G",
    "country_id": 85,
    "country_code": "GR",
    "latitude": "38.43704000",
    "longitude": "21.35358000",
    "native": null,
    "timezone": null,
    "translations": {}
  },
  {
    "id": 52523,
    "name": "Aíyira",
    "state_id": 2096,
    "state_code": "G",
    "country_id": 85,
    "country_code": "GR",
    "latitude": "38.14846000",
    "longitude": "22.35426000",
    "native": null,
    "timezone": null,
    "translations": {}
  },
  {
    "id": 52437,
    "name": "Akráta",
    "state_id": 2096,
    "state_code": "G",
    "country_id": 85,
    "country_code": "GR",
    "latitude": "38.15469000",
    "longitude": "22.31830000",
    "native": null,
    "timezone": null,
    "translations": {}
  },
  {
    "id": 52438,
    "name": "Aktaío",
    "state_id": 2096,
    "state_code": "G",
    "country_id": 85,
    "country_code": "GR",
    "latitude": "38.30444000",
    "longitude": "21.79440000",
    "native": null,
    "timezone": null,
    "translations": {}
  },
  {
    "id": 52442,
    "name": "Alfeioúsa",
    "state_id": 2096,
    "state_code": "G",
    "country_id": 85,
    "country_code": "GR",
    "latitude": "37.64019000",
    "longitude": "21.53750000",
    "native": null,
    "timezone": null,
    "translations": {}
  },
  {
    "id": 52447,
    "name": "Amaliáda",
    "state_id": 2096,
    "state_code": "G",
    "country_id": 85,
    "country_code": "GR",
    "latitude": "37.79842000",
    "longitude": "21.35068000",
    "native": null,
    "timezone": null,
    "translations": {}
  },
  {
    "id": 52449,
    "name": "Amfilochía",
    "state_id": 2096,
    "state_code": "G",
    "country_id": 85,
    "country_code": "GR",
    "latitude": "38.85944000",
    "longitude": "21.16639000",
    "native": null,
    "timezone": null,
    "translations": {}
  },
  {
    "id": 52463,
    "name": "Andravída",
    "state_id": 2096,
    "state_code": "G",
    "country_id": 85,
    "country_code": "GR",
    "latitude": "37.90588000",
    "longitude": "21.26936000",
    "native": null,
    "timezone": null,
    "translations": {}
  },
  {
    "id": 52466,
    "name": "Angelókastro",
    "state_id": 2096,
    "state_code": "G",
    "country_id": 85,
    "country_code": "GR",
    "latitude": "38.56585000",
    "longitude": "21.29631000",
    "native": null,
    "timezone": null,
    "translations": {}
  },
  {
    "id": 53391,
    "name": "Áno Kastrítsi",
    "state_id": 2096,
    "state_code": "G",
    "country_id": 85,
    "country_code": "GR",
    "latitude": "38.27228000",
    "longitude": "21.83600000",
    "native": null,
    "timezone": null,
    "translations": {}
  },
  {
    "id": 52474,
    "name": "Antirrio",
    "state_id": 2096,
    "state_code": "G",
    "country_id": 85,
    "country_code": "GR",
    "latitude": "38.33014000",
    "longitude": "21.76413000",
    "native": null,
    "timezone": null,
    "translations": {}
  },
  {
    "id": 52482,
    "name": "Archaía Olympía",
    "state_id": 2096,
    "state_code": "G",
    "country_id": 85,
    "country_code": "GR",
    "latitude": "37.64788000",
    "longitude": "21.62710000",
    "native": null,
    "timezone": null,
    "translations": {}
  },
  {
    "id": 52483,
    "name": "Archontochóri",
    "state_id": 2096,
    "state_code": "G",
    "country_id": 85,
    "country_code": "GR",
    "latitude": "38.70053000",
    "longitude": "21.03896000",
    "native": null,
    "timezone": null,
    "translations": {}
  },
  {
    "id": 52495,
    "name": "Arkoúdi",
    "state_id": 2096,
    "state_code": "G",
    "country_id": 85,
    "country_code": "GR",
    "latitude": "37.84681000",
    "longitude": "21.11022000",
    "native": null,
    "timezone": null,
    "translations": {}
  },
  {
    "id": 52509,
    "name": "Astakós",
    "state_id": 2096,
    "state_code": "G",
    "country_id": 85,
    "country_code": "GR",
    "latitude": "38.53556000",
    "longitude": "21.08135000",
    "native": null,
    "timezone": null,
    "translations": {}
  },
  {
    "id": 53411,
    "name": "Áyios Konstandínos",
    "state_id": 2096,
    "state_code": "G",
    "country_id": 85,
    "country_code": "GR",
    "latitude": "38.63337000",
    "longitude": "21.39950000",
    "native": null,
    "timezone": null,
    "translations": {}
  },
  {
    "id": 52525,
    "name": "Chalandrítsa",
    "state_id": 2096,
    "state_code": "G",
    "country_id": 85,
    "country_code": "GR",
    "latitude": "38.10843000",
    "longitude": "21.78349000",
    "native": null,
    "timezone": null,
    "translations": {}
  },
  {
    "id": 52542,
    "name": "Chávari",
    "state_id": 2096,
    "state_code": "G",
    "country_id": 85,
    "country_code": "GR",
    "latitude": "37.84842000",
    "longitude": "21.38403000",
    "native": null,
    "timezone": null,
    "translations": {}
  },
  {
    "id": 52550,
    "name": "Dhokímion",
    "state_id": 2096,
    "state_code": "G",
    "country_id": 85,
    "country_code": "GR",
    "latitude": "38.61352000",
    "longitude": "21.38072000",
    "native": null,
    "timezone": null,
    "translations": {}
  },
  {
    "id": 52588,
    "name": "Epitálio",
    "state_id": 2096,
    "state_code": "G",
    "country_id": 85,
    "country_code": "GR",
    "latitude": "37.62675000",
    "longitude": "21.49528000",
    "native": null,
    "timezone": null,
    "translations": {}
  },
  {
    "id": 52614,
    "name": "Fyteíes",
    "state_id": 2096,
    "state_code": "G",
    "country_id": 85,
    "country_code": "GR",
    "latitude": "38.69524000",
    "longitude": "21.18467000",
    "native": null,
    "timezone": null,
    "translations": {}
  },
  {
    "id": 52622,
    "name": "Galatás",
    "state_id": 2096,
    "state_code": "G",
    "country_id": 85,
    "country_code": "GR",
    "latitude": "38.35742000",
    "longitude": "21.56222000",
    "native": null,
    "timezone": null,
    "translations": {}
  },
  {
    "id": 52629,
    "name": "Gastoúni",
    "state_id": 2096,
    "state_code": "G",
    "country_id": 85,
    "country_code": "GR",
    "latitude": "37.85000000",
    "longitude": "21.25000000",
    "native": null,
    "timezone": null,
    "translations": {}
  },
  {
    "id": 52630,
    "name": "Gavaloú",
    "state_id": 2096,
    "state_code": "G",
    "country_id": 85,
    "country_code": "GR",
    "latitude": "38.52903000",
    "longitude": "21.53226000",
    "native": null,
    "timezone": null,
    "translations": {}
  },
  {
    "id": 52640,
    "name": "Goúmero",
    "state_id": 2096,
    "state_code": "G",
    "country_id": 85,
    "country_code": "GR",
    "latitude": "37.76236000",
    "longitude": "21.61853000",
    "native": null,
    "timezone": null,
    "translations": {}
  },
  {
    "id": 52672,
    "name": "Kainoúryion",
    "state_id": 2096,
    "state_code": "G",
    "country_id": 85,
    "country_code": "GR",
    "latitude": "38.60453000",
    "longitude": "21.48776000",
    "native": null,
    "timezone": null,
    "translations": {}
  },
  {
    "id": 52688,
    "name": "Kalávryta",
    "state_id": 2096,
    "state_code": "G",
    "country_id": 85,
    "country_code": "GR",
    "latitude": "38.03222000",
    "longitude": "22.11250000",
    "native": null,
    "timezone": null,
    "translations": {}
  },
  {
    "id": 52699,
    "name": "Kamárai",
    "state_id": 2096,
    "state_code": "G",
    "country_id": 85,
    "country_code": "GR",
    "latitude": "38.29881000",
    "longitude": "21.99892000",
    "native": null,
    "timezone": null,
    "translations": {}
  },
  {
    "id": 52702,
    "name": "Kandíla",
    "state_id": 2096,
    "state_code": "G",
    "country_id": 85,
    "country_code": "GR",
    "latitude": "38.70564000",
    "longitude": "20.94749000",
    "native": null,
    "timezone": null,
    "translations": {}
  },
  {
    "id": 52720,
    "name": "Karátoula",
    "state_id": 2096,
    "state_code": "G",
    "country_id": 85,
    "country_code": "GR",
    "latitude": "37.73564000",
    "longitude": "21.53578000",
    "native": null,
    "timezone": null,
    "translations": {}
  },
  {
    "id": 52707,
    "name": "Kardamás",
    "state_id": 2096,
    "state_code": "G",
    "country_id": 85,
    "country_code": "GR",
    "latitude": "37.76729000",
    "longitude": "21.33946000",
    "native": null,
    "timezone": null,
    "translations": {}
  },
  {
    "id": 52805,
    "name": "Káto Achaḯa",
    "state_id": 2096,
    "state_code": "G",
    "country_id": 85,
    "country_code": "GR",
    "latitude": "38.15000000",
    "longitude": "21.55000000",
    "native": null,
    "timezone": null,
    "translations": {}
  },
  {
    "id": 52813,
    "name": "Káto Mazaráki",
    "state_id": 2096,
    "state_code": "G",
    "country_id": 85,
    "country_code": "GR",
    "latitude": "38.07035000",
    "longitude": "21.65097000",
    "native": null,
    "timezone": null,
    "translations": {}
  },
  {
    "id": 52731,
    "name": "Katochí",
    "state_id": 2096,
    "state_code": "G",
    "country_id": 85,
    "country_code": "GR",
    "latitude": "38.41237000",
    "longitude": "21.25258000",
    "native": null,
    "timezone": null,
    "translations": {}
  },
  {
    "id": 52732,
    "name": "Katoúna",
    "state_id": 2096,
    "state_code": "G",
    "country_id": 85,
    "country_code": "GR",
    "latitude": "38.78547000",
    "longitude": "21.11417000",
    "native": null,
    "timezone": null,
    "translations": {}
  },
  {
    "id": 52736,
    "name": "Kavásila",
    "state_id": 2096,
    "state_code": "G",
    "country_id": 85,
    "country_code": "GR",
    "latitude": "37.87581000",
    "longitude": "21.26422000",
    "native": null,
    "timezone": null,
    "translations": {}
  },
  {
    "id": 52791,
    "name": "Kréstena",
    "state_id": 2096,
    "state_code": "G",
    "country_id": 85,
    "country_code": "GR",
    "latitude": "37.59193000",
    "longitude": "21.62034000",
    "native": null,
    "timezone": null,
    "translations": {}
  },
  {
    "id": 52792,
    "name": "Kríkellos",
    "state_id": 2096,
    "state_code": "G",
    "country_id": 85,
    "country_code": "GR",
    "latitude": "38.94532000",
    "longitude": "21.17910000",
    "native": null,
    "timezone": null,
    "translations": {}
  },
  {
    "id": 52795,
    "name": "Kyllíni",
    "state_id": 2096,
    "state_code": "G",
    "country_id": 85,
    "country_code": "GR",
    "latitude": "37.93542000",
    "longitude": "21.14503000",
    "native": null,
    "timezone": null,
    "translations": {}
  },
  {
    "id": 52873,
    "name": "Lálas",
    "state_id": 2096,
    "state_code": "G",
    "country_id": 85,
    "country_code": "GR",
    "latitude": "37.70936000",
    "longitude": "21.72117000",
    "native": null,
    "timezone": null,
    "translations": {}
  },
  {
    "id": 52874,
    "name": "Lápas",
    "state_id": 2096,
    "state_code": "G",
    "country_id": 85,
    "country_code": "GR",
    "latitude": "38.09755000",
    "longitude": "21.41861000",
    "native": null,
    "timezone": null,
    "translations": {}
  },
  {
    "id": 52839,
    "name": "Lechainá",
    "state_id": 2096,
    "state_code": "G",
    "country_id": 85,
    "country_code": "GR",
    "latitude": "37.93333000",
    "longitude": "21.26667000",
    "native": null,
    "timezone": null,
    "translations": {}
  },
  {
    "id": 52846,
    "name": "Lepenoú",
    "state_id": 2096,
    "state_code": "G",
    "country_id": 85,
    "country_code": "GR",
    "latitude": "38.70839000",
    "longitude": "21.28970000",
    "native": null,
    "timezone": null,
    "translations": {}
  },
  {
    "id": 52854,
    "name": "Limnokhórion",
    "state_id": 2096,
    "state_code": "G",
    "country_id": 85,
    "country_code": "GR",
    "latitude": "38.14115000",
    "longitude": "21.48047000",
    "native": null,
    "timezone": null,
    "translations": {}
  },
  {
    "id": 52890,
    "name": "Makrísia",
    "state_id": 2096,
    "state_code": "G",
    "country_id": 85,
    "country_code": "GR",
    "latitude": "37.60957000",
    "longitude": "21.60509000",
    "native": null,
    "timezone": null,
    "translations": {}
  },
  {
    "id": 52896,
    "name": "Manoláda",
    "state_id": 2096,
    "state_code": "G",
    "country_id": 85,
    "country_code": "GR",
    "latitude": "38.04708000",
    "longitude": "21.34814000",
    "native": null,
    "timezone": null,
    "translations": {}
  },
  {
    "id": 52905,
    "name": "Mataránga",
    "state_id": 2096,
    "state_code": "G",
    "country_id": 85,
    "country_code": "GR",
    "latitude": "38.52359000",
    "longitude": "21.47325000",
    "native": null,
    "timezone": null,
    "translations": {}
  },
  {
    "id": 52914,
    "name": "Megáli Khóra",
    "state_id": 2096,
    "state_code": "G",
    "country_id": 85,
    "country_code": "GR",
    "latitude": "38.64629000",
    "longitude": "21.37309000",
    "native": null,
    "timezone": null,
    "translations": {}
  },
  {
    "id": 52925,
    "name": "Menídi",
    "state_id": 2096,
    "state_code": "G",
    "country_id": 85,
    "country_code": "GR",
    "latitude": "39.04213000",
    "longitude": "21.11875000",
    "native": null,
    "timezone": null,
    "translations": {}
  },
  {
    "id": 52928,
    "name": "Mesolóngi",
    "state_id": 2096,
    "state_code": "G",
    "country_id": 85,
    "country_code": "GR",
    "latitude": "38.37138000",
    "longitude": "21.43151000",
    "native": null,
    "timezone": null,
    "translations": {}
  },
  {
    "id": 52936,
    "name": "Mindilóglion",
    "state_id": 2096,
    "state_code": "G",
    "country_id": 85,
    "country_code": "GR",
    "latitude": "38.18387000",
    "longitude": "21.70133000",
    "native": null,
    "timezone": null,
    "translations": {}
  },
  {
    "id": 52941,
    "name": "Monastiráki",
    "state_id": 2096,
    "state_code": "G",
    "country_id": 85,
    "country_code": "GR",
    "latitude": "38.85053000",
    "longitude": "20.94458000",
    "native": null,
    "timezone": null,
    "translations": {}
  },
  {
    "id": 52951,
    "name": "Myrsíni",
    "state_id": 2096,
    "state_code": "G",
    "country_id": 85,
    "country_code": "GR",
    "latitude": "37.92117000",
    "longitude": "21.23700000",
    "native": null,
    "timezone": null,
    "translations": {}
  },
  {
    "id": 52994,
    "name": "Náfpaktos",
    "state_id": 2096,
    "state_code": "G",
    "country_id": 85,
    "country_code": "GR",
    "latitude": "38.39167000",
    "longitude": "21.82750000",
    "native": null,
    "timezone": null,
    "translations": {}
  },
  {
    "id": 53018,
    "name": "Néa Manoláda",
    "state_id": 2096,
    "state_code": "G",
    "country_id": 85,
    "country_code": "GR",
    "latitude": "38.05378000",
    "longitude": "21.38189000",
    "native": null,
    "timezone": null,
    "translations": {}
  },
  {
    "id": 52974,
    "name": "Neápolis",
    "state_id": 2096,
    "state_code": "G",
    "country_id": 85,
    "country_code": "GR",
    "latitude": "38.67144000",
    "longitude": "21.36274000",
    "native": null,
    "timezone": null,
    "translations": {}
  },
  {
    "id": 52968,
    "name": "Neochóri",
    "state_id": 2096,
    "state_code": "G",
    "country_id": 85,
    "country_code": "GR",
    "latitude": "37.90794000",
    "longitude": "21.20392000",
    "native": null,
    "timezone": null,
    "translations": {}
  },
  {
    "id": 52969,
    "name": "Neochórion",
    "state_id": 2096,
    "state_code": "G",
    "country_id": 85,
    "country_code": "GR",
    "latitude": "38.40847000",
    "longitude": "21.27511000",
    "native": null,
    "timezone": null,
    "translations": {}
  },
  {
    "id": 52978,
    "name": "Nomós Achaḯas",
    "state_id": 2096,
    "state_code": "G",
    "country_id": 85,
    "country_code": "GR",
    "latitude": "38.00000000",
    "longitude": "22.00000000",
    "native": null,
    "timezone": null,
    "translations": {}
  },
  {
    "id": 52979,
    "name": "Nomós Aitolías kai Akarnanías",
    "state_id": 2096,
    "state_code": "G",
    "country_id": 85,
    "country_code": "GR",
    "latitude": "38.50000000",
    "longitude": "21.50000000",
    "native": null,
    "timezone": null,
    "translations": {}
  },
  {
    "id": 52984,
    "name": "Nomós Ileías",
    "state_id": 2096,
    "state_code": "G",
    "country_id": 85,
    "country_code": "GR",
    "latitude": "37.75000000",
    "longitude": "21.58333000",
    "native": null,
    "timezone": null,
    "translations": {}
  },
  {
    "id": 53067,
    "name": "Ovriá",
    "state_id": 2096,
    "state_code": "G",
    "country_id": 85,
    "country_code": "GR",
    "latitude": "38.18866000",
    "longitude": "21.72903000",
    "native": null,
    "timezone": null,
    "translations": {}
  },
  {
    "id": 53162,
    "name": "Pálairos",
    "state_id": 2096,
    "state_code": "G",
    "country_id": 85,
    "country_code": "GR",
    "latitude": "38.78300000",
    "longitude": "20.88183000",
    "native": null,
    "timezone": null,
    "translations": {}
  },
  {
    "id": 53085,
    "name": "Panaitólion",
    "state_id": 2096,
    "state_code": "G",
    "country_id": 85,
    "country_code": "GR",
    "latitude": "38.58316000",
    "longitude": "21.44729000",
    "native": null,
    "timezone": null,
    "translations": {}
  },
  {
    "id": 53087,
    "name": "Pappadhátai",
    "state_id": 2096,
    "state_code": "G",
    "country_id": 85,
    "country_code": "GR",
    "latitude": "38.52816000",
    "longitude": "21.45016000",
    "native": null,
    "timezone": null,
    "translations": {}
  },
  {
    "id": 53090,
    "name": "Paralía",
    "state_id": 2096,
    "state_code": "G",
    "country_id": 85,
    "country_code": "GR",
    "latitude": "38.19833000",
    "longitude": "21.70263000",
    "native": null,
    "timezone": null,
    "translations": {}
  },
  {
    "id": 53098,
    "name": "Paravóla",
    "state_id": 2096,
    "state_code": "G",
    "country_id": 85,
    "country_code": "GR",
    "latitude": "38.61472000",
    "longitude": "21.52046000",
    "native": null,
    "timezone": null,
    "translations": {}
  },
  {
    "id": 53169,
    "name": "Pátra",
    "state_id": 2096,
    "state_code": "G",
    "country_id": 85,
    "country_code": "GR",
    "latitude": "38.24444000",
    "longitude": "21.73444000",
    "native": null,
    "timezone": null,
    "translations": {}
  },
  {
    "id": 53104,
    "name": "Pelópi",
    "state_id": 2096,
    "state_code": "G",
    "country_id": 85,
    "country_code": "GR",
    "latitude": "37.67444000",
    "longitude": "21.59344000",
    "native": null,
    "timezone": null,
    "translations": {}
  },
  {
    "id": 53130,
    "name": "Plátanos",
    "state_id": 2096,
    "state_code": "G",
    "country_id": 85,
    "country_code": "GR",
    "latitude": "37.66731000",
    "longitude": "21.61108000",
    "native": null,
    "timezone": null,
    "translations": {}
  },
  {
    "id": 53184,
    "name": "Pýrgos",
    "state_id": 2096,
    "state_code": "G",
    "country_id": 85,
    "country_code": "GR",
    "latitude": "37.67513000",
    "longitude": "21.44102000",
    "native": null,
    "timezone": null,
    "translations": {}
  },
  {
    "id": 53200,
    "name": "Río",
    "state_id": 2096,
    "state_code": "G",
    "country_id": 85,
    "country_code": "GR",
    "latitude": "38.29558000",
    "longitude": "21.78504000",
    "native": null,
    "timezone": null,
    "translations": {}
  },
  {
    "id": 53194,
    "name": "Rododáfni",
    "state_id": 2096,
    "state_code": "G",
    "country_id": 85,
    "country_code": "GR",
    "latitude": "38.26976000",
    "longitude": "22.04875000",
    "native": null,
    "timezone": null,
    "translations": {}
  },
  {
    "id": 53199,
    "name": "Royítika",
    "state_id": 2096,
    "state_code": "G",
    "country_id": 85,
    "country_code": "GR",
    "latitude": "38.18268000",
    "longitude": "21.68414000",
    "native": null,
    "timezone": null,
    "translations": {}
  },
  {
    "id": 53206,
    "name": "Sardínia",
    "state_id": 2096,
    "state_code": "G",
    "country_id": 85,
    "country_code": "GR",
    "latitude": "38.89003000",
    "longitude": "21.20619000",
    "native": null,
    "timezone": null,
    "translations": {}
  },
  {
    "id": 53208,
    "name": "Savália",
    "state_id": 2096,
    "state_code": "G",
    "country_id": 85,
    "country_code": "GR",
    "latitude": "37.82158000",
    "longitude": "21.29425000",
    "native": null,
    "timezone": null,
    "translations": {}
  },
  {
    "id": 53256,
    "name": "Stános",
    "state_id": 2096,
    "state_code": "G",
    "country_id": 85,
    "country_code": "GR",
    "latitude": "38.80453000",
    "longitude": "21.17461000",
    "native": null,
    "timezone": null,
    "translations": {}
  },
  {
    "id": 53261,
    "name": "Sylivainiótika",
    "state_id": 2096,
    "state_code": "G",
    "country_id": 85,
    "country_code": "GR",
    "latitude": "38.16139000",
    "longitude": "22.33156000",
    "native": null,
    "timezone": null,
    "translations": {}
  },
  {
    "id": 53262,
    "name": "Synoikismós Chavaríou",
    "state_id": 2096,
    "state_code": "G",
    "country_id": 85,
    "country_code": "GR",
    "latitude": "37.85575000",
    "longitude": "21.38789000",
    "native": null,
    "timezone": null,
    "translations": {}
  },
  {
    "id": 53301,
    "name": "Témeni",
    "state_id": 2096,
    "state_code": "G",
    "country_id": 85,
    "country_code": "GR",
    "latitude": "38.23707000",
    "longitude": "22.12533000",
    "native": null,
    "timezone": null,
    "translations": {}
  },
  {
    "id": 53284,
    "name": "Thérmo",
    "state_id": 2096,
    "state_code": "G",
    "country_id": 85,
    "country_code": "GR",
    "latitude": "38.57358000",
    "longitude": "21.66628000",
    "native": null,
    "timezone": null,
    "translations": {}
  },
  {
    "id": 53288,
    "name": "Triandaíika",
    "state_id": 2096,
    "state_code": "G",
    "country_id": 85,
    "country_code": "GR",
    "latitude": "38.65530000",
    "longitude": "21.38315000",
    "native": null,
    "timezone": null,
    "translations": {}
  },
  {
    "id": 53339,
    "name": "Várda",
    "state_id": 2096,
    "state_code": "G",
    "country_id": 85,
    "country_code": "GR",
    "latitude": "38.03058000",
    "longitude": "21.36506000",
    "native": null,
    "timezone": null,
    "translations": {}
  },
  {
    "id": 53309,
    "name": "Vartholomió",
    "state_id": 2096,
    "state_code": "G",
    "country_id": 85,
    "country_code": "GR",
    "latitude": "37.86219000",
    "longitude": "21.20575000",
    "native": null,
    "timezone": null,
    "translations": {}
  },
  {
    "id": 53310,
    "name": "Varvásaina",
    "state_id": 2096,
    "state_code": "G",
    "country_id": 85,
    "country_code": "GR",
    "latitude": "37.67106000",
    "longitude": "21.49886000",
    "native": null,
    "timezone": null,
    "translations": {}
  },
  {
    "id": 53346,
    "name": "Vónitsa",
    "state_id": 2096,
    "state_code": "G",
    "country_id": 85,
    "country_code": "GR",
    "latitude": "38.91639000",
    "longitude": "20.88639000",
    "native": null,
    "timezone": null,
    "translations": {}
  },
  {
    "id": 53332,
    "name": "Vrachnaíika",
    "state_id": 2096,
    "state_code": "G",
    "country_id": 85,
    "country_code": "GR",
    "latitude": "38.16253000",
    "longitude": "21.66693000",
    "native": null,
    "timezone": null,
    "translations": {}
  },
  {
    "id": 53356,
    "name": "Zacháro",
    "state_id": 2096,
    "state_code": "G",
    "country_id": 85,
    "country_code": "GR",
    "latitude": "37.48333000",
    "longitude": "21.65000000",
    "native": null,
    "timezone": null,
    "translations": {}
  }
]