[
  {
    "id": 5298,
    "name": "Brändö",
    "country_id": 2,
    "country_code": "AX",
    "fips_code": null,
    "iso2": "12",
    "type": "municipality",
    "latitude": "60.41358730",
    "longitude": "21.04404980",
    "native": "Brändö",
    "timezone": "Europe/Mariehamn",
    "translations": {}
  },
  {
    "id": 5294,
    "name": "Eckerö",
    "country_id": 2,
    "country_code": "AX",
    "fips_code": null,
    "iso2": "08",
    "type": "municipality",
    "latitude": "60.22318140",
    "longitude": "19.53893790",
    "native": "Eckerö",
    "timezone": "Europe/Mariehamn",
    "translations": {}
  },
  {
    "id": 5289,
    "name": "Finström",
    "country_id": 2,
    "country_code": "AX",
    "fips_code": null,
    "iso2": "03",
    "type": "municipality",
    "latitude": "60.23105190",
    "longitude": "19.98672590",
    "native": "Finström",
    "timezone": "Europe/Mariehamn",
    "translations": {}
  },
  {
    "id": 5295,
    "name": "Föglö",
    "country_id": 2,
    "country_code": "AX",
    "fips_code": null,
    "iso2": "09",
    "type": "municipality",
    "latitude": "60.01073250",
    "longitude": "20.42469970",
    "native": "Föglö",
    "timezone": "Europe/Mariehamn",
    "translations": {}
  },
  {
    "id": 5296,
    "name": "Geta",
    "country_id": 2,
    "country_code": "AX",
    "fips_code": null,
    "iso2": "10",
    "type": "municipality",
    "latitude": "60.37401570",
    "longitude": "19.84981280",
    "native": "Geta",
    "timezone": "Europe/Mariehamn",
    "translations": {}
  },
  {
    "id": 5292,
    "name": "Hammarland",
    "country_id": 2,
    "country_code": "AX",
    "fips_code": null,
    "iso2": "06",
    "type": "municipality",
    "latitude": "60.21967580",
    "longitude": "19.73784810",
    "native": "Hammarland",
    "timezone": "Europe/Mariehamn",
    "translations": {}
  },
  {
    "id": 5288,
    "name": "Jomala",
    "country_id": 2,
    "country_code": "AX",
    "fips_code": null,
    "iso2": "02",
    "type": "municipality",
    "latitude": "60.15229470",
    "longitude": "19.94891440",
    "native": "Jomala",
    "timezone": "Europe/Mariehamn",
    "translations": {}
  },
  {
    "id": 5301,
    "name": "Kökar",
    "country_id": 2,
    "country_code": "AX",
    "fips_code": null,
    "iso2": "15",
    "type": "municipality",
    "latitude": "59.92117090",
    "longitude": "20.91035140",
    "native": "Kökar",
    "timezone": "Europe/Mariehamn",
    "translations": {}
  },
  {
    "id": 5300,
    "name": "Kumlinge",
    "country_id": 2,
    "country_code": "AX",
    "fips_code": null,
    "iso2": "14",
    "type": "municipality",
    "latitude": "60.25876930",
    "longitude": "20.77822920",
    "native": "Kumlinge",
    "timezone": "Europe/Mariehamn",
    "translations": {}
  },
  {
    "id": 5290,
    "name": "Lemland",
    "country_id": 2,
    "country_code": "AX",
    "fips_code": null,
    "iso2": "04",
    "type": "municipality",
    "latitude": "60.06901690",
    "longitude": "20.08600810",
    "native": "Lemland",
    "timezone": "Europe/Mariehamn",
    "translations": {}
  },
  {
    "id": 5299,
    "name": "Lumparland",
    "country_id": 2,
    "country_code": "AX",
    "fips_code": null,
    "iso2": "13",
    "type": "municipality",
    "latitude": "60.11683850",
    "longitude": "20.26105830",
    "native": "Lumparland",
    "timezone": "Europe/Mariehamn",
    "translations": {}
  },
  {
    "id": 5287,
    "name": "Mariehamn",
    "country_id": 2,
    "country_code": "AX",
    "fips_code": null,
    "iso2": "01",
    "type": "municipality",
    "latitude": "60.10242300",
    "longitude": "19.94126000",
    "native": "Mariehamn",
    "timezone": "Europe/Mariehamn",
    "translations": {}
  },
  {
    "id": 5291,
    "name": "Saltvik",
    "country_id": 2,
    "country_code": "AX",
    "fips_code": null,
    "iso2": "05",
    "type": "municipality",
    "latitude": "60.27557560",
    "longitude": "20.06120650",
    "native": "Saltvik",
    "timezone": "Europe/Mariehamn",
    "translations": {}
  },
  {
    "id": 5302,
    "name": "Sottunga",
    "country_id": 2,
    "country_code": "AX",
    "fips_code": null,
    "iso2": "16",
    "type": "municipality",
    "latitude": "60.13079770",
    "longitude": "20.64598210",
    "native": "Sot",
    "timezone": "Europe/Mariehamn",
    "translations": {}
  },
  {
    "id": 5293,
    "name": "Sund",
    "country_id": 2,
    "country_code": "AX",
    "fips_code": null,
    "iso2": "07",
    "type": "municipality",
    "latitude": "60.25303320",
    "longitude": "20.11986370",
    "native": "Hälsosam",
    "timezone": "Europe/Mariehamn",
    "translations": {}
  },
  {
    "id": 5297,
    "name": "Vårdö",
    "country_id": 2,
    "country_code": "AX",
    "fips_code": null,
    "iso2": "11",
    "type": "municipality",
    "latitude": "60.24216920",
    "longitude": "20.37442610",
    "native": "Vårdö",
    "timezone": "Europe/Mariehamn",
    "translations": {}
  }
]