[
  {
    "id": 149104,
    "name": "Biakoye",
    "state_id": 4961,
    "state_code": "OT",
    "country_id": 83,
    "country_code": "GH",
    "latitude": "7.11698690",
    "longitude": "0.32324300",
    "native": null,
    "timezone": null,
    "translations": {}
  },
  {
    "id": 149105,
    "name": "Jasikan",
    "state_id": 4961,
    "state_code": "OT",
    "country_id": 83,
    "country_code": "GH",
    "latitude": "7.40940880",
    "longitude": "0.44301500",
    "native": null,
    "timezone": null,
    "translations": {}
  },
  {
    "id": 149106,
    "name": "Kadjebi",
    "state_id": 4961,
    "state_code": "OT",
    "country_id": 83,
    "country_code": "GH",
    "latitude": "7.52631920",
    "longitude": "0.46704770",
    "native": null,
    "timezone": null,
    "translations": {}
  },
  {
    "id": 149107,
    "name": "Krachi East",
    "state_id": 4961,
    "state_code": "OT",
    "country_id": 83,
    "country_code": "GH",
    "latitude": "7.77196980",
    "longitude": "-0.07763760",
    "native": null,
    "timezone": null,
    "translations": {}
  },
  {
    "id": 149108,
    "name": "Krachi Nchumuru",
    "state_id": 4961,
    "state_code": "OT",
    "country_id": 83,
    "country_code": "GH",
    "latitude": "8.14849800",
    "longitude": "-0.16349880",
    "native": null,
    "timezone": null,
    "translations": {}
  },
  {
    "id": 149109,
    "name": "Krachi West",
    "state_id": 4961,
    "state_code": "OT",
    "country_id": 83,
    "country_code": "GH",
    "latitude": "7.98282160",
    "longitude": "-0.34886270",
    "native": null,
    "timezone": null,
    "translations": {}
  },
  {
    "id": 149110,
    "name": "Nkwanta North",
    "state_id": 4961,
    "state_code": "OT",
    "country_id": 83,
    "country_code": "GH",
    "latitude": "8.35180760",
    "longitude": "0.12217620",
    "native": null,
    "timezone": null,
    "translations": {}
  },
  {
    "id": 149111,
    "name": "Nkwanta South",
    "state_id": 4961,
    "state_code": "OT",
    "country_id": 83,
    "country_code": "GH",
    "latitude": "8.25931340",
    "longitude": "0.50185190",
    "native": null,
    "timezone": null,
    "translations": {}
  }
]