[
  {
    "id": 107344,
    "name": "Beytüşşebap",
    "state_id": 2225,
    "state_code": "73",
    "country_id": 225,
    "country_code": "TR",
    "latitude": "37.57144000",
    "longitude": "43.16515000",
    "native": null,
    "timezone": null,
    "translations": {}
  },
  {
    "id": 107436,
    "name": "Cizre",
    "state_id": 2225,
    "state_code": "73",
    "country_id": 225,
    "country_code": "TR",
    "latitude": "37.33024000",
    "longitude": "42.18484000",
    "native": null,
    "timezone": null,
    "translations": {}
  },
  {
    "id": 107763,
    "name": "Güçlükonak",
    "state_id": 2225,
    "state_code": "73",
    "country_id": 225,
    "country_code": "TR",
    "latitude": "37.47133000",
    "longitude": "41.91298000",
    "native": null,
    "timezone": null,
    "translations": {}
  },
  {
    "id": 108879,
    "name": "İdil",
    "state_id": 2225,
    "state_code": "73",
    "country_id": 225,
    "country_code": "TR",
    "latitude": "37.33481000",
    "longitude": "41.88944000",
    "native": null,
    "timezone": null,
    "translations": {}
  },
  {
    "id": 108966,
    "name": "Merkez",
    "state_id": 2225,
    "state_code": "73",
    "country_id": 225,
    "country_code": "TR",
    "latitude": "37.51393000",
    "longitude": "42.45432000",
    "native": null,
    "timezone": null,
    "translations": {}
  },
  {
    "id": 108461,
    "name": "Silopi",
    "state_id": 2225,
    "state_code": "73",
    "country_id": 225,
    "country_code": "TR",
    "latitude": "37.24379000",
    "longitude": "42.46345000",
    "native": null,
    "timezone": null,
    "translations": {}
  },
  {
    "id": 108626,
    "name": "Uludere",
    "state_id": 2225,
    "state_code": "73",
    "country_id": 225,
    "country_code": "TR",
    "latitude": "37.44074000",
    "longitude": "42.85236000",
    "native": null,
    "timezone": null,
    "translations": {}
  }
]