[
  {
    "id": 104956,
    "name": "Al Ḩarāk",
    "state_id": 2945,
    "state_code": "DR",
    "country_id": 215,
    "country_code": "SY",
    "latitude": "32.74932000",
    "longitude": "36.30994000",
    "native": null,
    "timezone": null,
    "translations": {}
  },
  {
    "id": 104949,
    "name": "Al Muzayrīb",
    "state_id": 2945,
    "state_code": "DR",
    "country_id": 215,
    "country_code": "SY",
    "latitude": "32.71084000",
    "longitude": "36.02751000",
    "native": null,
    "timezone": null,
    "translations": {}
  },
  {
    "id": 104963,
    "name": "Al-Sanamayn District",
    "state_id": 2945,
    "state_code": "DR",
    "country_id": 215,
    "country_code": "SY",
    "latitude": "33.12559000",
    "longitude": "36.27540000",
    "native": null,
    "timezone": null,
    "translations": {}
  },
  {
    "id": 104984,
    "name": "Aş Şanamayn",
    "state_id": 2945,
    "state_code": "DR",
    "country_id": 215,
    "country_code": "SY",
    "latitude": "33.07186000",
    "longitude": "36.18316000",
    "native": null,
    "timezone": null,
    "translations": {}
  },
  {
    "id": 104979,
    "name": "Ash Shaykh Miskīn",
    "state_id": 2945,
    "state_code": "DR",
    "country_id": 215,
    "country_code": "SY",
    "latitude": "32.82944000",
    "longitude": "36.15933000",
    "native": null,
    "timezone": null,
    "translations": {}
  },
  {
    "id": 104986,
    "name": "Buşrá ash Shām",
    "state_id": 2945,
    "state_code": "DR",
    "country_id": 215,
    "country_code": "SY",
    "latitude": "32.52013000",
    "longitude": "36.48256000",
    "native": null,
    "timezone": null,
    "translations": {}
  },
  {
    "id": 104990,
    "name": "Dar‘ā",
    "state_id": 2945,
    "state_code": "DR",
    "country_id": 215,
    "country_code": "SY",
    "latitude": "32.61889000",
    "longitude": "36.10213000",
    "native": null,
    "timezone": null,
    "translations": {}
  },
  {
    "id": 104996,
    "name": "Ghabāghib",
    "state_id": 2945,
    "state_code": "DR",
    "country_id": 215,
    "country_code": "SY",
    "latitude": "33.18235000",
    "longitude": "36.22534000",
    "native": null,
    "timezone": null,
    "translations": {}
  },
  {
    "id": 105003,
    "name": "Inkhil",
    "state_id": 2945,
    "state_code": "DR",
    "country_id": 215,
    "country_code": "SY",
    "latitude": "33.01809000",
    "longitude": "36.12828000",
    "native": null,
    "timezone": null,
    "translations": {}
  },
  {
    "id": 105004,
    "name": "Izra District",
    "state_id": 2945,
    "state_code": "DR",
    "country_id": 215,
    "country_code": "SY",
    "latitude": "32.90121000",
    "longitude": "36.16144000",
    "native": null,
    "timezone": null,
    "translations": {}
  },
  {
    "id": 105005,
    "name": "Izra‘",
    "state_id": 2945,
    "state_code": "DR",
    "country_id": 215,
    "country_code": "SY",
    "latitude": "32.87060000",
    "longitude": "36.25453000",
    "native": null,
    "timezone": null,
    "translations": {}
  },
  {
    "id": 105014,
    "name": "Jāsim",
    "state_id": 2945,
    "state_code": "DR",
    "country_id": 215,
    "country_code": "SY",
    "latitude": "32.99233000",
    "longitude": "36.06018000",
    "native": null,
    "timezone": null,
    "translations": {}
  },
  {
    "id": 105037,
    "name": "Nawá",
    "state_id": 2945,
    "state_code": "DR",
    "country_id": 215,
    "country_code": "SY",
    "latitude": "32.89044000",
    "longitude": "36.03990000",
    "native": null,
    "timezone": null,
    "translations": {}
  },
  {
    "id": 105073,
    "name": "Ţafas",
    "state_id": 2945,
    "state_code": "DR",
    "country_id": 215,
    "country_code": "SY",
    "latitude": "32.73709000",
    "longitude": "36.06654000",
    "native": null,
    "timezone": null,
    "translations": {}
  },
  {
    "id": 105061,
    "name": "Tasīl",
    "state_id": 2945,
    "state_code": "DR",
    "country_id": 215,
    "country_code": "SY",
    "latitude": "32.83395000",
    "longitude": "35.96973000",
    "native": null,
    "timezone": null,
    "translations": {}
  }
]