[
  {
    "id": 52054,
    "name": "Bich’vinta",
    "state_id": 901,
    "state_code": "AB",
    "country_id": 81,
    "country_code": "GE",
    "latitude": "43.16197000",
    "longitude": "40.34102000",
    "native": null,
    "timezone": null,
    "translations": {}
  },
  {
    "id": 52063,
    "name": "Dranda",
    "state_id": 901,
    "state_code": "AB",
    "country_id": 81,
    "country_code": "GE",
    "latitude": "42.87167000",
    "longitude": "41.15333000",
    "native": null,
    "timezone": null,
    "translations": {}
  },
  {
    "id": 52065,
    "name": "Gagra",
    "state_id": 901,
    "state_code": "AB",
    "country_id": 81,
    "country_code": "GE",
    "latitude": "43.27858000",
    "longitude": "40.27124000",
    "native": null,
    "timezone": null,
    "translations": {}
  },
  {
    "id": 52066,
    "name": "Gali",
    "state_id": 901,
    "state_code": "AB",
    "country_id": 81,
    "country_code": "GE",
    "latitude": "42.62655000",
    "longitude": "41.73808000",
    "native": null,
    "timezone": null,
    "translations": {}
  },
  {
    "id": 52067,
    "name": "Gantiadi",
    "state_id": 901,
    "state_code": "AB",
    "country_id": 81,
    "country_code": "GE",
    "latitude": "43.38111000",
    "longitude": "40.07944000",
    "native": null,
    "timezone": null,
    "translations": {}
  },
  {
    "id": 52073,
    "name": "Gudauta",
    "state_id": 901,
    "state_code": "AB",
    "country_id": 81,
    "country_code": "GE",
    "latitude": "43.10547000",
    "longitude": "40.62067000",
    "native": null,
    "timezone": null,
    "translations": {}
  },
  {
    "id": 52078,
    "name": "Kelasuri",
    "state_id": 901,
    "state_code": "AB",
    "country_id": 81,
    "country_code": "GE",
    "latitude": "42.97877000",
    "longitude": "41.07067000",
    "native": null,
    "timezone": null,
    "translations": {}
  },
  {
    "id": 52105,
    "name": "Och’amch’ire",
    "state_id": 901,
    "state_code": "AB",
    "country_id": 81,
    "country_code": "GE",
    "latitude": "42.71232000",
    "longitude": "41.46863000",
    "native": null,
    "timezone": null,
    "translations": {}
  },
  {
    "id": 52111,
    "name": "P’rimorsk’oe",
    "state_id": 901,
    "state_code": "AB",
    "country_id": 81,
    "country_code": "GE",
    "latitude": "43.09236000",
    "longitude": "40.69650000",
    "native": null,
    "timezone": null,
    "translations": {}
  },
  {
    "id": 52122,
    "name": "Sokhumi",
    "state_id": 901,
    "state_code": "AB",
    "country_id": 81,
    "country_code": "GE",
    "latitude": "43.00697000",
    "longitude": "40.98930000",
    "native": null,
    "timezone": null,
    "translations": {}
  },
  {
    "id": 52123,
    "name": "Stantsiya Novyy Afon",
    "state_id": 901,
    "state_code": "AB",
    "country_id": 81,
    "country_code": "GE",
    "latitude": "43.08056000",
    "longitude": "40.83833000",
    "native": null,
    "timezone": null,
    "translations": {}
  },
  {
    "id": 52130,
    "name": "Tqvarch'eli",
    "state_id": 901,
    "state_code": "AB",
    "country_id": 81,
    "country_code": "GE",
    "latitude": "42.84035000",
    "longitude": "41.68007000",
    "native": null,
    "timezone": null,
    "translations": {}
  }
]