[
  {
    "id": 3404,
    "name": "Changhua",
    "country_id": 216,
    "country_code": "TW",
    "fips_code": null,
    "iso2": "CHA",
    "type": "county",
    "latitude": "24.07556670",
    "longitude": "120.54446670",
    "native": "Changhua",
    "timezone": "Asia/Taipei",
    "translations": {}
  },
  {
    "id": 3408,
    "name": "Chiayi",
    "country_id": 216,
    "country_code": "TW",
    "fips_code": null,
    "iso2": "CYI",
    "type": "city",
    "latitude": "23.45916640",
    "longitude": "120.29300040",
    "native": "Chiayi",
    "timezone": "Asia/Taipei",
    "translations": {}
  },
  {
    "id": 3418,
    "name": "Chiayi",
    "country_id": 216,
    "country_code": "TW",
    "fips_code": null,
    "iso2": "CYQ",
    "type": "county",
    "latitude": "23.45916640",
    "longitude": "120.29300040",
    "native": "Chiayi",
    "timezone": "Asia/Taipei",
    "translations": {}
  },
  {
    "id": 3423,
    "name": "Hsinchu",
    "country_id": 216,
    "country_code": "TW",
    "fips_code": null,
    "iso2": "HSQ",
    "type": "county",
    "latitude": "24.83872260",
    "longitude": "121.01772460",
    "native": "Hsinchu",
    "timezone": "Asia/Taipei",
    "translations": {}
  },
  {
    "id": 3417,
    "name": "Hsinchu",
    "country_id": 216,
    "country_code": "TW",
    "fips_code": null,
    "iso2": "HSZ",
    "type": "city",
    "latitude": "24.81382870",
    "longitude": "120.96747980",
    "native": "Hsinchu",
    "timezone": "Asia/Taipei",
    "translations": {}
  },
  {
    "id": 3411,
    "name": "Hualien",
    "country_id": 216,
    "country_code": "TW",
    "fips_code": null,
    "iso2": "HUA",
    "type": "county",
    "latitude": "23.98715890",
    "longitude": "121.60157140",
    "native": "Hualien",
    "timezone": "Asia/Taipei",
    "translations": {}
  },
  {
    "id": 3412,
    "name": "Kaohsiung",
    "country_id": 216,
    "country_code": "TW",
    "fips_code": null,
    "iso2": "KHH",
    "type": "special municipality",
    "latitude": "22.62033480",
    "longitude": "120.31203750",
    "native": "Kaohsiung",
    "timezone": "Asia/Taipei",
    "translations": {}
  },
  {
    "id": 4965,
    "name": "Keelung",
    "country_id": 216,
    "country_code": "TW",
    "fips_code": null,
    "iso2": "KEE",
    "type": "city",
    "latitude": "25.13172320",
    "longitude": "121.74465200",
    "native": "Keelung",
    "timezone": "Asia/Taipei",
    "translations": {}
  },
  {
    "id": 3415,
    "name": "Kinmen",
    "country_id": 216,
    "country_code": "TW",
    "fips_code": null,
    "iso2": "KIN",
    "type": "county",
    "latitude": "24.43676380",
    "longitude": "118.31864350",
    "native": "Kinmen",
    "timezone": "Asia/Taipei",
    "translations": {}
  },
  {
    "id": 3420,
    "name": "Lienchiang",
    "country_id": 216,
    "country_code": "TW",
    "fips_code": null,
    "iso2": "LIE",
    "type": "county",
    "latitude": "26.15779510",
    "longitude": "119.95197560",
    "native": "Lienchiang",
    "timezone": "Asia/Taipei",
    "translations": {}
  },
  {
    "id": 3413,
    "name": "Miaoli",
    "country_id": 216,
    "country_code": "TW",
    "fips_code": null,
    "iso2": "MIA",
    "type": "county",
    "latitude": "24.56015900",
    "longitude": "120.82142650",
    "native": "Miaoli",
    "timezone": "Asia/Taipei",
    "translations": {}
  },
  {
    "id": 3407,
    "name": "Nantou",
    "country_id": 216,
    "country_code": "TW",
    "fips_code": null,
    "iso2": "NAN",
    "type": "county",
    "latitude": "23.90235000",
    "longitude": "120.69091670",
    "native": "Nantou",
    "timezone": "Asia/Taipei",
    "translations": {}
  },
  {
    "id": 4966,
    "name": "New Taipei",
    "country_id": 216,
    "country_code": "TW",
    "fips_code": null,
    "iso2": "NWT",
    "type": "special municipality",
    "latitude": "25.01199700",
    "longitude": "121.46566190",
    "native": "New Taipei",
    "timezone": "Asia/Taipei",
    "translations": {}
  },
  {
    "id": 3403,
    "name": "Penghu",
    "country_id": 216,
    "country_code": "TW",
    "fips_code": null,
    "iso2": "PEN",
    "type": "county",
    "latitude": "23.56969400",
    "longitude": "119.56645430",
    "native": "Penghu",
    "timezone": "Asia/Taipei",
    "translations": {}
  },
  {
    "id": 3405,
    "name": "Pingtung",
    "country_id": 216,
    "country_code": "TW",
    "fips_code": null,
    "iso2": "PIF",
    "type": "county",
    "latitude": "22.66284680",
    "longitude": "120.49156770",
    "native": "Pingtung",
    "timezone": "Asia/Taipei",
    "translations": {}
  },
  {
    "id": 3406,
    "name": "Taichung",
    "country_id": 216,
    "country_code": "TW",
    "fips_code": null,
    "iso2": "TXG",
    "type": "special municipality",
    "latitude": "24.16316200",
    "longitude": "120.64782820",
    "native": "Taichung",
    "timezone": "Asia/Taipei",
    "translations": {}
  },
  {
    "id": 3421,
    "name": "Tainan",
    "country_id": 216,
    "country_code": "TW",
    "fips_code": null,
    "iso2": "TNN",
    "type": "special municipality",
    "latitude": "22.99123480",
    "longitude": "120.18498200",
    "native": "Tainan",
    "timezone": "Asia/Taipei",
    "translations": {}
  },
  {
    "id": 3422,
    "name": "Taipei",
    "country_id": 216,
    "country_code": "TW",
    "fips_code": null,
    "iso2": "TPE",
    "type": "special municipality",
    "latitude": "25.03296940",
    "longitude": "121.56541770",
    "native": "Taipei",
    "timezone": "Asia/Taipei",
    "translations": {}
  },
  {
    "id": 3410,
    "name": "Taitung",
    "country_id": 216,
    "country_code": "TW",
    "fips_code": null,
    "iso2": "TTT",
    "type": "county",
    "latitude": "22.75604470",
    "longitude": "121.14565380",
    "native": "Taitung",
    "timezone": "Asia/Taipei",
    "translations": {}
  },
  {
    "id": 3419,
    "name": "Taoyuan",
    "country_id": 216,
    "country_code": "TW",
    "fips_code": null,
    "iso2": "TAO",
    "type": "special municipality",
    "latitude": "24.99362810",
    "longitude": "121.30097980",
    "native": "Taoyuan",
    "timezone": "Asia/Taipei",
    "translations": {}
  },
  {
    "id": 3402,
    "name": "Yilan",
    "country_id": 216,
    "country_code": "TW",
    "fips_code": null,
    "iso2": "ILA",
    "type": "county",
    "latitude": "24.73027910",
    "longitude": "121.76311490",
    "native": "Yilan",
    "timezone": "Asia/Taipei",
    "translations": {}
  },
  {
    "id": 3416,
    "name": "Yunlin",
    "country_id": 216,
    "country_code": "TW",
    "fips_code": null,
    "iso2": "YUN",
    "type": "county",
    "latitude": "23.69907750",
    "longitude": "120.52455110",
    "native": "Yunlin",
    "timezone": "Asia/Taipei",
    "translations": {}
  }
]