[
  {
    "id": 885,
    "name": "Al Jazirah",
    "country_id": 209,
    "country_code": "SD",
    "fips_code": null,
    "iso2": "GZ",
    "type": "state",
    "latitude": "14.66715370",
    "longitude": "33.22236100",
    "native": "Al Jazirah",
    "timezone": "Africa/Khartoum",
    "translations": {}
  },
  {
    "id": 886,
    "name": "Al Qadarif",
    "country_id": 209,
    "country_code": "SD",
    "fips_code": null,
    "iso2": "GD",
    "type": "state",
    "latitude": "14.04094100",
    "longitude": "35.39883200",
    "native": "Al Qadarif",
    "timezone": "Africa/Khartoum",
    "translations": {}
  },
  {
    "id": 887,
    "name": "Blue Nile",
    "country_id": 209,
    "country_code": "SD",
    "fips_code": null,
    "iso2": "NB",
    "type": "state",
    "latitude": "11.95669720",
    "longitude": "34.12289400",
    "native": "النيل الأزرق",
    "timezone": "Africa/Khartoum",
    "translations": {}
  },
  {
    "id": 896,
    "name": "Central Darfur",
    "country_id": 209,
    "country_code": "SD",
    "fips_code": null,
    "iso2": "DC",
    "type": "state",
    "latitude": "12.12970930",
    "longitude": "23.35416870",
    "native": "وسط دارفور",
    "timezone": "Africa/Khartoum",
    "translations": {}
  },
  {
    "id": 892,
    "name": "East Darfur",
    "country_id": 209,
    "country_code": "SD",
    "fips_code": null,
    "iso2": "DE",
    "type": "state",
    "latitude": "11.22319830",
    "longitude": "26.58580410",
    "native": "شرق دارفور",
    "timezone": "Africa/Khartoum",
    "translations": {}
  },
  {
    "id": 884,
    "name": "Kassala",
    "country_id": 209,
    "country_code": "SD",
    "fips_code": null,
    "iso2": "KA",
    "type": "state",
    "latitude": "15.45201100",
    "longitude": "36.37706990",
    "native": "كاسالا",
    "timezone": "Africa/Khartoum",
    "translations": {}
  },
  {
    "id": 881,
    "name": "Khartoum",
    "country_id": 209,
    "country_code": "SD",
    "fips_code": null,
    "iso2": "KH",
    "type": "state",
    "latitude": "15.50383010",
    "longitude": "32.57389790",
    "native": "Khartoum",
    "timezone": "Africa/Khartoum",
    "translations": {}
  },
  {
    "id": 890,
    "name": "North Darfur",
    "country_id": 209,
    "country_code": "SD",
    "fips_code": null,
    "iso2": "DN",
    "type": "state",
    "latitude": "16.00000000",
    "longitude": "26.00000000",
    "native": "شمال دارفور",
    "timezone": "Africa/Khartoum",
    "translations": {}
  },
  {
    "id": 893,
    "name": "North Kordofan",
    "country_id": 209,
    "country_code": "SD",
    "fips_code": null,
    "iso2": "KN",
    "type": "state",
    "latitude": "14.41693020",
    "longitude": "29.46836900",
    "native": "شمال كوردوفان",
    "timezone": "Africa/Khartoum",
    "translations": {}
  },
  {
    "id": 895,
    "name": "Northern",
    "country_id": 209,
    "country_code": "SD",
    "fips_code": null,
    "iso2": "NO",
    "type": "state",
    "latitude": "19.00000000",
    "longitude": "30.00000000",
    "native": "شمالي",
    "timezone": "Africa/Khartoum",
    "translations": {}
  },
  {
    "id": 880,
    "name": "Red Sea",
    "country_id": 209,
    "country_code": "SD",
    "fips_code": null,
    "iso2": "RS",
    "type": "state",
    "latitude": "20.00000000",
    "longitude": "36.00000000",
    "native": "البحر الأحمر",
    "timezone": "Africa/Khartoum",
    "translations": {}
  },
  {
    "id": 891,
    "name": "River Nile",
    "country_id": 209,
    "country_code": "SD",
    "fips_code": null,
    "iso2": "NR",
    "type": "state",
    "latitude": "19.01055960",
    "longitude": "33.01831800",
    "native": "نهر النيل",
    "timezone": "Africa/Khartoum",
    "translations": {}
  },
  {
    "id": 882,
    "name": "Sennar",
    "country_id": 209,
    "country_code": "SD",
    "fips_code": null,
    "iso2": "SI",
    "type": "state",
    "latitude": "13.54240540",
    "longitude": "33.61035550",
    "native": "سنار",
    "timezone": "Africa/Khartoum",
    "translations": {}
  },
  {
    "id": 894,
    "name": "South Darfur",
    "country_id": 209,
    "country_code": "SD",
    "fips_code": null,
    "iso2": "DS",
    "type": "state",
    "latitude": "11.00000000",
    "longitude": "25.00000000",
    "native": "جنوب دارفور",
    "timezone": "Africa/Khartoum",
    "translations": {}
  },
  {
    "id": 883,
    "name": "South Kordofan",
    "country_id": 209,
    "country_code": "SD",
    "fips_code": null,
    "iso2": "KS",
    "type": "state",
    "latitude": "11.00000000",
    "longitude": "31.00000000",
    "native": "جنوب كوردوفان",
    "timezone": "Africa/Khartoum",
    "translations": {}
  },
  {
    "id": 888,
    "name": "West Darfur",
    "country_id": 209,
    "country_code": "SD",
    "fips_code": null,
    "iso2": "DW",
    "type": "state",
    "latitude": "13.51100520",
    "longitude": "22.70334270",
    "native": "غرب دارفور",
    "timezone": "Africa/Khartoum",
    "translations": {}
  },
  {
    "id": 889,
    "name": "West Kordofan",
    "country_id": 209,
    "country_code": "SD",
    "fips_code": null,
    "iso2": "GK",
    "type": "state",
    "latitude": "11.75228030",
    "longitude": "28.20460260",
    "native": "غرب كوردوفان",
    "timezone": "Africa/Khartoum",
    "translations": {}
  },
  {
    "id": 879,
    "name": "White Nile",
    "country_id": 209,
    "country_code": "SD",
    "fips_code": null,
    "iso2": "NW",
    "type": "state",
    "latitude": "12.49998380",
    "longitude": "32.50001660",
    "native": "النيل الأبيض",
    "timezone": "Africa/Khartoum",
    "translations": {}
  }
]