[
  {
    "id": 110984,
    "name": "Abingdon",
    "state_id": 1427,
    "state_code": "VA",
    "country_id": 233,
    "country_code": "US",
    "latitude": "36.70983000",
    "longitude": "-81.97735000",
    "native": null,
    "timezone": null,
    "translations": {}
  },
  {
    "id": 110994,
    "name": "Accomac",
    "state_id": 1427,
    "state_code": "VA",
    "country_id": 233,
    "country_code": "US",
    "latitude": "37.71957000",
    "longitude": "-75.66548000",
    "native": null,
    "timezone": null,
    "translations": {}
  },
  {
    "id": 110995,
    "name": "Accomack County",
    "state_id": 1427,
    "state_code": "VA",
    "country_id": 233,
    "country_code": "US",
    "latitude": "37.76494000",
    "longitude": "-75.75656000",
    "native": null,
    "timezone": null,
    "translations": {}
  },
  {
    "id": 111050,
    "name": "Adwolf",
    "state_id": 1427,
    "state_code": "VA",
    "country_id": 233,
    "country_code": "US",
    "latitude": "36.78928000",
    "longitude": "-81.58206000",
    "native": null,
    "timezone": null,
    "translations": {}
  },
  {
    "id": 111116,
    "name": "Albemarle County",
    "state_id": 1427,
    "state_code": "VA",
    "country_id": 233,
    "country_code": "US",
    "latitude": "38.02289000",
    "longitude": "-78.55654000",
    "native": null,
    "timezone": null,
    "translations": {}
  },
  {
    "id": 111151,
    "name": "Alexandria",
    "state_id": 1427,
    "state_code": "VA",
    "country_id": 233,
    "country_code": "US",
    "latitude": "38.80510950",
    "longitude": "-77.04702290",
    "native": null,
    "timezone": null,
    "translations": {}
  },
  {
    "id": 111184,
    "name": "Alleghany County",
    "state_id": 1427,
    "state_code": "VA",
    "country_id": 233,
    "country_code": "US",
    "latitude": "37.78760000",
    "longitude": "-80.00699000",
    "native": null,
    "timezone": null,
    "translations": {}
  },
  {
    "id": 111238,
    "name": "Altavista",
    "state_id": 1427,
    "state_code": "VA",
    "country_id": 233,
    "country_code": "US",
    "latitude": "37.11181000",
    "longitude": "-79.28558000",
    "native": null,
    "timezone": null,
    "translations": {}
  },
  {
    "id": 111269,
    "name": "Amelia County",
    "state_id": 1427,
    "state_code": "VA",
    "country_id": 233,
    "country_code": "US",
    "latitude": "37.33603000",
    "longitude": "-77.97614000",
    "native": null,
    "timezone": null,
    "translations": {}
  },
  {
    "id": 111270,
    "name": "Amelia Court House",
    "state_id": 1427,
    "state_code": "VA",
    "country_id": 233,
    "country_code": "US",
    "latitude": "37.34293000",
    "longitude": "-77.98056000",
    "native": null,
    "timezone": null,
    "translations": {}
  },
  {
    "id": 111281,
    "name": "Amherst",
    "state_id": 1427,
    "state_code": "VA",
    "country_id": 233,
    "country_code": "US",
    "latitude": "37.58514000",
    "longitude": "-79.05141000",
    "native": null,
    "timezone": null,
    "translations": {}
  },
  {
    "id": 111286,
    "name": "Amherst County",
    "state_id": 1427,
    "state_code": "VA",
    "country_id": 233,
    "country_code": "US",
    "latitude": "37.60477000",
    "longitude": "-79.14511000",
    "native": null,
    "timezone": null,
    "translations": {}
  },
  {
    "id": 111349,
    "name": "Annandale",
    "state_id": 1427,
    "state_code": "VA",
    "country_id": 233,
    "country_code": "US",
    "latitude": "38.83039000",
    "longitude": "-77.19637000",
    "native": null,
    "timezone": null,
    "translations": {}
  },
  {
    "id": 111390,
    "name": "Appalachia",
    "state_id": 1427,
    "state_code": "VA",
    "country_id": 233,
    "country_code": "US",
    "latitude": "36.90676000",
    "longitude": "-82.78183000",
    "native": null,
    "timezone": null,
    "translations": {}
  },
  {
    "id": 111392,
    "name": "Apple Mountain Lake",
    "state_id": 1427,
    "state_code": "VA",
    "country_id": 233,
    "country_code": "US",
    "latitude": "38.92428000",
    "longitude": "-78.10139000",
    "native": null,
    "timezone": null,
    "translations": {}
  },
  {
    "id": 111401,
    "name": "Appomattox",
    "state_id": 1427,
    "state_code": "VA",
    "country_id": 233,
    "country_code": "US",
    "latitude": "37.35709000",
    "longitude": "-78.82529000",
    "native": null,
    "timezone": null,
    "translations": {}
  },
  {
    "id": 111402,
    "name": "Appomattox County",
    "state_id": 1427,
    "state_code": "VA",
    "country_id": 233,
    "country_code": "US",
    "latitude": "37.37229000",
    "longitude": "-78.81212000",
    "native": null,
    "timezone": null,
    "translations": {}
  },
  {
    "id": 111406,
    "name": "Aquia Harbour",
    "state_id": 1427,
    "state_code": "VA",
    "country_id": 233,
    "country_code": "US",
    "latitude": "38.46262000",
    "longitude": "-77.38887000",
    "native": null,
    "timezone": null,
    "translations": {}
  },
  {
    "id": 111463,
    "name": "Arlington",
    "state_id": 1427,
    "state_code": "VA",
    "country_id": 233,
    "country_code": "US",
    "latitude": "38.88101000",
    "longitude": "-77.10428000",
    "native": null,
    "timezone": null,
    "translations": {}
  },
  {
    "id": 111471,
    "name": "Arlington County",
    "state_id": 1427,
    "state_code": "VA",
    "country_id": 233,
    "country_code": "US",
    "latitude": "38.87862000",
    "longitude": "-77.10096000",
    "native": null,
    "timezone": null,
    "translations": {}
  },
  {
    "id": 111514,
    "name": "Ashburn",
    "state_id": 1427,
    "state_code": "VA",
    "country_id": 233,
    "country_code": "US",
    "latitude": "39.04372000",
    "longitude": "-77.48749000",
    "native": null,
    "timezone": null,
    "translations": {}
  },
  {
    "id": 111532,
    "name": "Ashland",
    "state_id": 1427,
    "state_code": "VA",
    "country_id": 233,
    "country_code": "US",
    "latitude": "37.75903000",
    "longitude": "-77.47998000",
    "native": null,
    "timezone": null,
    "translations": {}
  },
  {
    "id": 111585,
    "name": "Atkins",
    "state_id": 1427,
    "state_code": "VA",
    "country_id": 233,
    "country_code": "US",
    "latitude": "36.86734000",
    "longitude": "-81.42344000",
    "native": null,
    "timezone": null,
    "translations": {}
  },
  {
    "id": 111652,
    "name": "Augusta County",
    "state_id": 1427,
    "state_code": "VA",
    "country_id": 233,
    "country_code": "US",
    "latitude": "38.16452000",
    "longitude": "-79.13383000",
    "native": null,
    "timezone": null,
    "translations": {}
  },
  {
    "id": 111731,
    "name": "Baileys Crossroads",
    "state_id": 1427,
    "state_code": "VA",
    "country_id": 233,
    "country_code": "US",
    "latitude": "38.85039000",
    "longitude": "-77.12970000",
    "native": null,
    "timezone": null,
    "translations": {}
  },
  {
    "id": 111881,
    "name": "Bassett",
    "state_id": 1427,
    "state_code": "VA",
    "country_id": 233,
    "country_code": "US",
    "latitude": "36.75930000",
    "longitude": "-79.99032000",
    "native": null,
    "timezone": null,
    "translations": {}
  },
  {
    "id": 111886,
    "name": "Basye",
    "state_id": 1427,
    "state_code": "VA",
    "country_id": 233,
    "country_code": "US",
    "latitude": "38.80706000",
    "longitude": "-78.79224000",
    "native": null,
    "timezone": null,
    "translations": {}
  },
  {
    "id": 111902,
    "name": "Bath County",
    "state_id": 1427,
    "state_code": "VA",
    "country_id": 233,
    "country_code": "US",
    "latitude": "38.05869000",
    "longitude": "-79.74109000",
    "native": null,
    "timezone": null,
    "translations": {}
  },
  {
    "id": 111972,
    "name": "Bealeton",
    "state_id": 1427,
    "state_code": "VA",
    "country_id": 233,
    "country_code": "US",
    "latitude": "38.57179000",
    "longitude": "-77.76388000",
    "native": null,
    "timezone": null,
    "translations": {}
  },
  {
    "id": 112020,
    "name": "Bedford",
    "state_id": 1427,
    "state_code": "VA",
    "country_id": 233,
    "country_code": "US",
    "latitude": "37.31239050",
    "longitude": "-79.53990030",
    "native": null,
    "timezone": null,
    "translations": {}
  },
  {
    "id": 112027,
    "name": "Bedford County",
    "state_id": 1427,
    "state_code": "VA",
    "country_id": 233,
    "country_code": "US",
    "latitude": "37.31494000",
    "longitude": "-79.52422000",
    "native": null,
    "timezone": null,
    "translations": {}
  },
  {
    "id": 112085,
    "name": "Belle Haven",
    "state_id": 1427,
    "state_code": "VA",
    "country_id": 233,
    "country_code": "US",
    "latitude": "38.78539000",
    "longitude": "-77.06303000",
    "native": null,
    "timezone": null,
    "translations": {}
  },
  {
    "id": 112130,
    "name": "Bellwood",
    "state_id": 1427,
    "state_code": "VA",
    "country_id": 233,
    "country_code": "US",
    "latitude": "37.42181000",
    "longitude": "-77.43748000",
    "native": null,
    "timezone": null,
    "translations": {}
  },
  {
    "id": 112137,
    "name": "Belmont",
    "state_id": 1427,
    "state_code": "VA",
    "country_id": 233,
    "country_code": "US",
    "latitude": "39.06483000",
    "longitude": "-77.50999000",
    "native": null,
    "timezone": null,
    "translations": {}
  },
  {
    "id": 112144,
    "name": "Belmont Estates",
    "state_id": 1427,
    "state_code": "VA",
    "country_id": 233,
    "country_code": "US",
    "latitude": "38.45271000",
    "longitude": "-78.91979000",
    "native": null,
    "timezone": null,
    "translations": {}
  },
  {
    "id": 112181,
    "name": "Bensley",
    "state_id": 1427,
    "state_code": "VA",
    "country_id": 233,
    "country_code": "US",
    "latitude": "37.44681000",
    "longitude": "-77.44332000",
    "native": null,
    "timezone": null,
    "translations": {}
  },
  {
    "id": 112255,
    "name": "Berryville",
    "state_id": 1427,
    "state_code": "VA",
    "country_id": 233,
    "country_code": "US",
    "latitude": "39.15177000",
    "longitude": "-77.98222000",
    "native": null,
    "timezone": null,
    "translations": {}
  },
  {
    "id": 112337,
    "name": "Big Stone Gap",
    "state_id": 1427,
    "state_code": "VA",
    "country_id": 233,
    "country_code": "US",
    "latitude": "36.88176000",
    "longitude": "-82.74710000",
    "native": null,
    "timezone": null,
    "translations": {}
  },
  {
    "id": 112390,
    "name": "Blacksburg",
    "state_id": 1427,
    "state_code": "VA",
    "country_id": 233,
    "country_code": "US",
    "latitude": "37.22957000",
    "longitude": "-80.41394000",
    "native": null,
    "timezone": null,
    "translations": {}
  },
  {
    "id": 112392,
    "name": "Blackstone",
    "state_id": 1427,
    "state_code": "VA",
    "country_id": 233,
    "country_code": "US",
    "latitude": "37.08043000",
    "longitude": "-77.99723000",
    "native": null,
    "timezone": null,
    "translations": {}
  },
  {
    "id": 112420,
    "name": "Bland",
    "state_id": 1427,
    "state_code": "VA",
    "country_id": 233,
    "country_code": "US",
    "latitude": "37.10206000",
    "longitude": "-81.11620000",
    "native": null,
    "timezone": null,
    "translations": {}
  },
  {
    "id": 112421,
    "name": "Bland County",
    "state_id": 1427,
    "state_code": "VA",
    "country_id": 233,
    "country_code": "US",
    "latitude": "37.13397000",
    "longitude": "-81.13028000",
    "native": null,
    "timezone": null,
    "translations": {}
  },
  {
    "id": 112476,
    "name": "Blue Ridge",
    "state_id": 1427,
    "state_code": "VA",
    "country_id": 233,
    "country_code": "US",
    "latitude": "37.37847000",
    "longitude": "-79.80698000",
    "native": null,
    "timezone": null,
    "translations": {}
  },
  {
    "id": 112478,
    "name": "Bluefield",
    "state_id": 1427,
    "state_code": "VA",
    "country_id": 233,
    "country_code": "US",
    "latitude": "37.25262000",
    "longitude": "-81.27121000",
    "native": null,
    "timezone": null,
    "translations": {}
  },
  {
    "id": 112526,
    "name": "Bon Air",
    "state_id": 1427,
    "state_code": "VA",
    "country_id": 233,
    "country_code": "US",
    "latitude": "37.52487000",
    "longitude": "-77.55777000",
    "native": null,
    "timezone": null,
    "translations": {}
  },
  {
    "id": 112593,
    "name": "Boswell's Corner",
    "state_id": 1427,
    "state_code": "VA",
    "country_id": 233,
    "country_code": "US",
    "latitude": "38.50541000",
    "longitude": "-77.37263000",
    "native": null,
    "timezone": null,
    "translations": {}
  },
  {
    "id": 112594,
    "name": "Botetourt County",
    "state_id": 1427,
    "state_code": "VA",
    "country_id": 233,
    "country_code": "US",
    "latitude": "37.55712000",
    "longitude": "-79.81233000",
    "native": null,
    "timezone": null,
    "translations": {}
  },
  {
    "id": 112631,
    "name": "Bowling Green",
    "state_id": 1427,
    "state_code": "VA",
    "country_id": 233,
    "country_code": "US",
    "latitude": "38.04958000",
    "longitude": "-77.34665000",
    "native": null,
    "timezone": null,
    "translations": {}
  },
  {
    "id": 112644,
    "name": "Boydton",
    "state_id": 1427,
    "state_code": "VA",
    "country_id": 233,
    "country_code": "US",
    "latitude": "36.66764000",
    "longitude": "-78.38750000",
    "native": null,
    "timezone": null,
    "translations": {}
  },
  {
    "id": 112654,
    "name": "Bracey",
    "state_id": 1427,
    "state_code": "VA",
    "country_id": 233,
    "country_code": "US",
    "latitude": "36.59959000",
    "longitude": "-78.14305000",
    "native": null,
    "timezone": null,
    "translations": {}
  },
  {
    "id": 112683,
    "name": "Brambleton",
    "state_id": 1427,
    "state_code": "VA",
    "country_id": 233,
    "country_code": "US",
    "latitude": "38.98205000",
    "longitude": "-77.53860000",
    "native": null,
    "timezone": null,
    "translations": {}
  },
  {
    "id": 112687,
    "name": "Brandermill",
    "state_id": 1427,
    "state_code": "VA",
    "country_id": 233,
    "country_code": "US",
    "latitude": "37.43209000",
    "longitude": "-77.64971000",
    "native": null,
    "timezone": null,
    "translations": {}
  },
  {
    "id": 112774,
    "name": "Bridgewater",
    "state_id": 1427,
    "state_code": "VA",
    "country_id": 233,
    "country_code": "US",
    "latitude": "38.38207000",
    "longitude": "-78.97670000",
    "native": null,
    "timezone": null,
    "translations": {}
  },
  {
    "id": 112795,
    "name": "Brightwood",
    "state_id": 1427,
    "state_code": "VA",
    "country_id": 233,
    "country_code": "US",
    "latitude": "38.42152000",
    "longitude": "-78.19361000",
    "native": null,
    "timezone": null,
    "translations": {}
  },
  {
    "id": 112804,
    "name": "Bristol",
    "state_id": 1427,
    "state_code": "VA",
    "country_id": 233,
    "country_code": "US",
    "latitude": "36.59596850",
    "longitude": "-82.18850090",
    "native": null,
    "timezone": null,
    "translations": {}
  },
  {
    "id": 112824,
    "name": "Broadlands",
    "state_id": 1427,
    "state_code": "VA",
    "country_id": 233,
    "country_code": "US",
    "latitude": "39.01816000",
    "longitude": "-77.52027000",
    "native": null,
    "timezone": null,
    "translations": {}
  },
  {
    "id": 112831,
    "name": "Broadway",
    "state_id": 1427,
    "state_code": "VA",
    "country_id": 233,
    "country_code": "US",
    "latitude": "38.61317000",
    "longitude": "-78.79891000",
    "native": null,
    "timezone": null,
    "translations": {}
  },
  {
    "id": 112879,
    "name": "Brookneal",
    "state_id": 1427,
    "state_code": "VA",
    "country_id": 233,
    "country_code": "US",
    "latitude": "37.05014000",
    "longitude": "-78.94418000",
    "native": null,
    "timezone": null,
    "translations": {}
  },
  {
    "id": 112952,
    "name": "Brunswick County",
    "state_id": 1427,
    "state_code": "VA",
    "country_id": 233,
    "country_code": "US",
    "latitude": "36.76478000",
    "longitude": "-77.85902000",
    "native": null,
    "timezone": null,
    "translations": {}
  },
  {
    "id": 112970,
    "name": "Buchanan",
    "state_id": 1427,
    "state_code": "VA",
    "country_id": 233,
    "country_code": "US",
    "latitude": "37.52736000",
    "longitude": "-79.67976000",
    "native": null,
    "timezone": null,
    "translations": {}
  },
  {
    "id": 112974,
    "name": "Buchanan County",
    "state_id": 1427,
    "state_code": "VA",
    "country_id": 233,
    "country_code": "US",
    "latitude": "37.26663000",
    "longitude": "-82.03603000",
    "native": null,
    "timezone": null,
    "translations": {}
  },
  {
    "id": 112980,
    "name": "Buckhall",
    "state_id": 1427,
    "state_code": "VA",
    "country_id": 233,
    "country_code": "US",
    "latitude": "38.73178000",
    "longitude": "-77.43110000",
    "native": null,
    "timezone": null,
    "translations": {}
  },
  {
    "id": 112985,
    "name": "Buckingham",
    "state_id": 1427,
    "state_code": "VA",
    "country_id": 233,
    "country_code": "US",
    "latitude": "37.55015000",
    "longitude": "-78.55556000",
    "native": null,
    "timezone": null,
    "translations": {}
  },
  {
    "id": 112986,
    "name": "Buckingham County",
    "state_id": 1427,
    "state_code": "VA",
    "country_id": 233,
    "country_code": "US",
    "latitude": "37.57224000",
    "longitude": "-78.52871000",
    "native": null,
    "timezone": null,
    "translations": {}
  },
  {
    "id": 113001,
    "name": "Buena Vista",
    "state_id": 1427,
    "state_code": "VA",
    "country_id": 233,
    "country_code": "US",
    "latitude": "37.73429620",
    "longitude": "-79.35392920",
    "native": null,
    "timezone": null,
    "translations": {}
  },
  {
    "id": 113026,
    "name": "Bull Run",
    "state_id": 1427,
    "state_code": "VA",
    "country_id": 233,
    "country_code": "US",
    "latitude": "38.78373000",
    "longitude": "-77.52055000",
    "native": null,
    "timezone": null,
    "translations": {}
  },
  {
    "id": 113027,
    "name": "Bull Run Mountain Estates",
    "state_id": 1427,
    "state_code": "VA",
    "country_id": 233,
    "country_code": "US",
    "latitude": "38.90372000",
    "longitude": "-77.66166000",
    "native": null,
    "timezone": null,
    "translations": {}
  },
  {
    "id": 113054,
    "name": "Burke",
    "state_id": 1427,
    "state_code": "VA",
    "country_id": 233,
    "country_code": "US",
    "latitude": "38.79345000",
    "longitude": "-77.27165000",
    "native": null,
    "timezone": null,
    "translations": {}
  },
  {
    "id": 113301,
    "name": "Campbell County",
    "state_id": 1427,
    "state_code": "VA",
    "country_id": 233,
    "country_code": "US",
    "latitude": "37.20564000",
    "longitude": "-79.09635000",
    "native": null,
    "timezone": null,
    "translations": {}
  },
  {
    "id": 113311,
    "name": "Cana",
    "state_id": 1427,
    "state_code": "VA",
    "country_id": 233,
    "country_code": "US",
    "latitude": "36.58958000",
    "longitude": "-80.67173000",
    "native": null,
    "timezone": null,
    "translations": {}
  },
  {
    "id": 113365,
    "name": "Cape Charles",
    "state_id": 1427,
    "state_code": "VA",
    "country_id": 233,
    "country_code": "US",
    "latitude": "37.27008000",
    "longitude": "-76.01649000",
    "native": null,
    "timezone": null,
    "translations": {}
  },
  {
    "id": 113379,
    "name": "Captains Cove",
    "state_id": 1427,
    "state_code": "VA",
    "country_id": 233,
    "country_code": "US",
    "latitude": "37.98996000",
    "longitude": "-75.42272000",
    "native": null,
    "timezone": null,
    "translations": {}
  },
  {
    "id": 113438,
    "name": "Caroline County",
    "state_id": 1427,
    "state_code": "VA",
    "country_id": 233,
    "country_code": "US",
    "latitude": "38.02682000",
    "longitude": "-77.34696000",
    "native": null,
    "timezone": null,
    "translations": {}
  },
  {
    "id": 113457,
    "name": "Carroll County",
    "state_id": 1427,
    "state_code": "VA",
    "country_id": 233,
    "country_code": "US",
    "latitude": "36.73154000",
    "longitude": "-80.73390000",
    "native": null,
    "timezone": null,
    "translations": {}
  },
  {
    "id": 113469,
    "name": "Carrollton",
    "state_id": 1427,
    "state_code": "VA",
    "country_id": 233,
    "country_code": "US",
    "latitude": "36.94682000",
    "longitude": "-76.56051000",
    "native": null,
    "timezone": null,
    "translations": {}
  },
  {
    "id": 113554,
    "name": "Castlewood",
    "state_id": 1427,
    "state_code": "VA",
    "country_id": 233,
    "country_code": "US",
    "latitude": "36.89010000",
    "longitude": "-82.27959000",
    "native": null,
    "timezone": null,
    "translations": {}
  },
  {
    "id": 113588,
    "name": "Cave Spring",
    "state_id": 1427,
    "state_code": "VA",
    "country_id": 233,
    "country_code": "US",
    "latitude": "37.22764000",
    "longitude": "-80.01282000",
    "native": null,
    "timezone": null,
    "translations": {}
  },
  {
    "id": 113602,
    "name": "Cedar Bluff",
    "state_id": 1427,
    "state_code": "VA",
    "country_id": 233,
    "country_code": "US",
    "latitude": "37.08761000",
    "longitude": "-81.75900000",
    "native": null,
    "timezone": null,
    "translations": {}
  },
  {
    "id": 113674,
    "name": "Central Garage",
    "state_id": 1427,
    "state_code": "VA",
    "country_id": 233,
    "country_code": "US",
    "latitude": "37.74403000",
    "longitude": "-77.13164000",
    "native": null,
    "timezone": null,
    "translations": {}
  },
  {
    "id": 113695,
    "name": "Centreville",
    "state_id": 1427,
    "state_code": "VA",
    "country_id": 233,
    "country_code": "US",
    "latitude": "38.84039000",
    "longitude": "-77.42888000",
    "native": null,
    "timezone": null,
    "translations": {}
  },
  {
    "id": 113719,
    "name": "Chamberlayne",
    "state_id": 1427,
    "state_code": "VA",
    "country_id": 233,
    "country_code": "US",
    "latitude": "37.62653000",
    "longitude": "-77.42859000",
    "native": null,
    "timezone": null,
    "translations": {}
  },
  {
    "id": 113738,
    "name": "Chantilly",
    "state_id": 1427,
    "state_code": "VA",
    "country_id": 233,
    "country_code": "US",
    "latitude": "38.89428000",
    "longitude": "-77.43110000",
    "native": null,
    "timezone": null,
    "translations": {}
  },
  {
    "id": 113755,
    "name": "Charles City",
    "state_id": 1427,
    "state_code": "VA",
    "country_id": 233,
    "country_code": "US",
    "latitude": "37.34348000",
    "longitude": "-77.07303000",
    "native": null,
    "timezone": null,
    "translations": {}
  },
  {
    "id": 113756,
    "name": "Charles City County",
    "state_id": 1427,
    "state_code": "VA",
    "country_id": 233,
    "country_code": "US",
    "latitude": "37.35435000",
    "longitude": "-77.05913000",
    "native": null,
    "timezone": null,
    "translations": {}
  },
  {
    "id": 113782,
    "name": "Charlotte County",
    "state_id": 1427,
    "state_code": "VA",
    "country_id": 233,
    "country_code": "US",
    "latitude": "37.01161000",
    "longitude": "-78.66164000",
    "native": null,
    "timezone": null,
    "translations": {}
  },
  {
    "id": 113783,
    "name": "Charlotte Court House",
    "state_id": 1427,
    "state_code": "VA",
    "country_id": 233,
    "country_code": "US",
    "latitude": "37.05654000",
    "longitude": "-78.63833000",
    "native": null,
    "timezone": null,
    "translations": {}
  },
  {
    "id": 113787,
    "name": "Charlottesville",
    "state_id": 1427,
    "state_code": "VA",
    "country_id": 233,
    "country_code": "US",
    "latitude": "38.02930600",
    "longitude": "-78.47667810",
    "native": null,
    "timezone": null,
    "translations": {}
  },
  {
    "id": 113791,
    "name": "Chase City",
    "state_id": 1427,
    "state_code": "VA",
    "country_id": 233,
    "country_code": "US",
    "latitude": "36.79931000",
    "longitude": "-78.45833000",
    "native": null,
    "timezone": null,
    "translations": {}
  },
  {
    "id": 113796,
    "name": "Chatham",
    "state_id": 1427,
    "state_code": "VA",
    "country_id": 233,
    "country_code": "US",
    "latitude": "36.82569000",
    "longitude": "-79.39808000",
    "native": null,
    "timezone": null,
    "translations": {}
  },
  {
    "id": 113803,
    "name": "Chatmoss",
    "state_id": 1427,
    "state_code": "VA",
    "country_id": 233,
    "country_code": "US",
    "latitude": "36.65680000",
    "longitude": "-79.81226000",
    "native": null,
    "timezone": null,
    "translations": {}
  },
  {
    "id": 113861,
    "name": "Cherry Hill",
    "state_id": 1427,
    "state_code": "VA",
    "country_id": 233,
    "country_code": "US",
    "latitude": "38.56984000",
    "longitude": "-77.26693000",
    "native": null,
    "timezone": null,
    "translations": {}
  },
  {
    "id": 113874,
    "name": "Chesapeake",
    "state_id": 1427,
    "state_code": "VA",
    "country_id": 233,
    "country_code": "US",
    "latitude": "36.81904000",
    "longitude": "-76.27494000",
    "native": null,
    "timezone": null,
    "translations": {}
  },
  {
    "id": 113886,
    "name": "Chester",
    "state_id": 1427,
    "state_code": "VA",
    "country_id": 233,
    "country_code": "US",
    "latitude": "37.35682000",
    "longitude": "-77.44165000",
    "native": null,
    "timezone": null,
    "translations": {}
  },
  {
    "id": 113907,
    "name": "Chesterfield County",
    "state_id": 1427,
    "state_code": "VA",
    "country_id": 233,
    "country_code": "US",
    "latitude": "37.37852000",
    "longitude": "-77.58694000",
    "native": null,
    "timezone": null,
    "translations": {}
  },
  {
    "id": 113908,
    "name": "Chesterfield Court House",
    "state_id": 1427,
    "state_code": "VA",
    "country_id": 233,
    "country_code": "US",
    "latitude": "37.37709000",
    "longitude": "-77.50499000",
    "native": null,
    "timezone": null,
    "translations": {}
  },
  {
    "id": 113952,
    "name": "Chilhowie",
    "state_id": 1427,
    "state_code": "VA",
    "country_id": 233,
    "country_code": "US",
    "latitude": "36.79845000",
    "longitude": "-81.68234000",
    "native": null,
    "timezone": null,
    "translations": {}
  },
  {
    "id": 113966,
    "name": "Chincoteague",
    "state_id": 1427,
    "state_code": "VA",
    "country_id": 233,
    "country_code": "US",
    "latitude": "37.93318000",
    "longitude": "-75.37881000",
    "native": null,
    "timezone": null,
    "translations": {}
  },
  {
    "id": 114000,
    "name": "Christiansburg",
    "state_id": 1427,
    "state_code": "VA",
    "country_id": 233,
    "country_code": "US",
    "latitude": "37.12985000",
    "longitude": "-80.40894000",
    "native": null,
    "timezone": null,
    "translations": {}
  },
  {
    "id": 114047,
    "name": "City of Alexandria",
    "state_id": 1427,
    "state_code": "VA",
    "country_id": 233,
    "country_code": "US",
    "latitude": "38.80440290",
    "longitude": "-77.04508880",
    "native": null,
    "timezone": null,
    "translations": {}
  },
  {
    "id": 114052,
    "name": "City of Charlottesville",
    "state_id": 1427,
    "state_code": "VA",
    "country_id": 233,
    "country_code": "US",
    "latitude": "38.03265270",
    "longitude": "-78.47831750",
    "native": null,
    "timezone": null,
    "translations": {}
  },
  {
    "id": 114053,
    "name": "City of Chesapeake",
    "state_id": 1427,
    "state_code": "VA",
    "country_id": 233,
    "country_code": "US",
    "latitude": "36.68765000",
    "longitude": "-76.31216000",
    "native": null,
    "timezone": null,
    "translations": {}
  },
  {
    "id": 114054,
    "name": "City of Colonial Heights",
    "state_id": 1427,
    "state_code": "VA",
    "country_id": 233,
    "country_code": "US",
    "latitude": "37.24404000",
    "longitude": "-77.41026000",
    "native": null,
    "timezone": null,
    "translations": {}
  },
  {
    "id": 114056,
    "name": "City of Danville",
    "state_id": 1427,
    "state_code": "VA",
    "country_id": 233,
    "country_code": "US",
    "latitude": "36.58639410",
    "longitude": "-79.39204090",
    "native": null,
    "timezone": null,
    "translations": {}
  },
  {
    "id": 114057,
    "name": "City of Emporia",
    "state_id": 1427,
    "state_code": "VA",
    "country_id": 233,
    "country_code": "US",
    "latitude": "36.70014960",
    "longitude": "-77.51470230",
    "native": null,
    "timezone": null,
    "translations": {}
  },
  {
    "id": 114058,
    "name": "City of Fairfax",
    "state_id": 1427,
    "state_code": "VA",
    "country_id": 233,
    "country_code": "US",
    "latitude": "38.84723900",
    "longitude": "-77.30361330",
    "native": null,
    "timezone": null,
    "translations": {}
  },
  {
    "id": 114059,
    "name": "City of Falls Church",
    "state_id": 1427,
    "state_code": "VA",
    "country_id": 233,
    "country_code": "US",
    "latitude": "38.89449010",
    "longitude": "-77.19012170",
    "native": null,
    "timezone": null,
    "translations": {}
  },
  {
    "id": 114061,
    "name": "City of Fredericksburg",
    "state_id": 1427,
    "state_code": "VA",
    "country_id": 233,
    "country_code": "US",
    "latitude": "38.28872360",
    "longitude": "-77.47962620",
    "native": null,
    "timezone": null,
    "translations": {}
  },
  {
    "id": 114063,
    "name": "City of Hampton",
    "state_id": 1427,
    "state_code": "VA",
    "country_id": 233,
    "country_code": "US",
    "latitude": "37.06265000",
    "longitude": "-76.33300000",
    "native": null,
    "timezone": null,
    "translations": {}
  },
  {
    "id": 114065,
    "name": "City of Hopewell",
    "state_id": 1427,
    "state_code": "VA",
    "country_id": 233,
    "country_code": "US",
    "latitude": "37.30591000",
    "longitude": "-77.28372280",
    "native": null,
    "timezone": null,
    "translations": {}
  },
  {
    "id": 114066,
    "name": "City of Lexington",
    "state_id": 1427,
    "state_code": "VA",
    "country_id": 233,
    "country_code": "US",
    "latitude": "37.77309000",
    "longitude": "-79.45244000",
    "native": null,
    "timezone": null,
    "translations": {}
  },
  {
    "id": 114068,
    "name": "City of Manassas",
    "state_id": 1427,
    "state_code": "VA",
    "country_id": 233,
    "country_code": "US",
    "latitude": "38.76156390",
    "longitude": "-77.62171210",
    "native": null,
    "timezone": null,
    "translations": {}
  },
  {
    "id": 114072,
    "name": "City of Newport News",
    "state_id": 1427,
    "state_code": "VA",
    "country_id": 233,
    "country_code": "US",
    "latitude": "37.06265000",
    "longitude": "-76.50801000",
    "native": null,
    "timezone": null,
    "translations": {}
  },
  {
    "id": 114073,
    "name": "City of Norfolk",
    "state_id": 1427,
    "state_code": "VA",
    "country_id": 233,
    "country_code": "US",
    "latitude": "36.89126000",
    "longitude": "-76.26188000",
    "native": null,
    "timezone": null,
    "translations": {}
  },
  {
    "id": 114077,
    "name": "City of Portsmouth",
    "state_id": 1427,
    "state_code": "VA",
    "country_id": 233,
    "country_code": "US",
    "latitude": "36.83649000",
    "longitude": "-76.30795000",
    "native": null,
    "timezone": null,
    "translations": {}
  },
  {
    "id": 114079,
    "name": "City of Richmond",
    "state_id": 1427,
    "state_code": "VA",
    "country_id": 233,
    "country_code": "US",
    "latitude": "37.54335910",
    "longitude": "-77.43531350",
    "native": null,
    "timezone": null,
    "translations": {}
  },
  {
    "id": 114080,
    "name": "City of Roanoke",
    "state_id": 1427,
    "state_code": "VA",
    "country_id": 233,
    "country_code": "US",
    "latitude": "37.23196910",
    "longitude": "-79.92910560",
    "native": null,
    "timezone": null,
    "translations": {}
  },
  {
    "id": 114082,
    "name": "City of Salem",
    "state_id": 1427,
    "state_code": "VA",
    "country_id": 233,
    "country_code": "US",
    "latitude": "37.29193660",
    "longitude": "-80.05707730",
    "native": null,
    "timezone": null,
    "translations": {}
  },
  {
    "id": 114084,
    "name": "City of Staunton",
    "state_id": 1427,
    "state_code": "VA",
    "country_id": 233,
    "country_code": "US",
    "latitude": "38.14931000",
    "longitude": "-79.05963000",
    "native": null,
    "timezone": null,
    "translations": {}
  },
  {
    "id": 114085,
    "name": "City of Suffolk",
    "state_id": 1427,
    "state_code": "VA",
    "country_id": 233,
    "country_code": "US",
    "latitude": "36.70848000",
    "longitude": "-76.60801000",
    "native": null,
    "timezone": null,
    "translations": {}
  },
  {
    "id": 114086,
    "name": "City of Virginia Beach",
    "state_id": 1427,
    "state_code": "VA",
    "country_id": 233,
    "country_code": "US",
    "latitude": "36.73765000",
    "longitude": "-76.00521000",
    "native": null,
    "timezone": null,
    "translations": {}
  },
  {
    "id": 114088,
    "name": "City of Williamsburg",
    "state_id": 1427,
    "state_code": "VA",
    "country_id": 233,
    "country_code": "US",
    "latitude": "37.27521850",
    "longitude": "-76.70864080",
    "native": null,
    "timezone": null,
    "translations": {}
  },
  {
    "id": 114137,
    "name": "Clarke County",
    "state_id": 1427,
    "state_code": "VA",
    "country_id": 233,
    "country_code": "US",
    "latitude": "39.11226000",
    "longitude": "-77.99673000",
    "native": null,
    "timezone": null,
    "translations": {}
  },
  {
    "id": 114157,
    "name": "Clarksville",
    "state_id": 1427,
    "state_code": "VA",
    "country_id": 233,
    "country_code": "US",
    "latitude": "36.62403000",
    "longitude": "-78.55694000",
    "native": null,
    "timezone": null,
    "translations": {}
  },
  {
    "id": 114194,
    "name": "Claypool Hill",
    "state_id": 1427,
    "state_code": "VA",
    "country_id": 233,
    "country_code": "US",
    "latitude": "37.06261000",
    "longitude": "-81.75178000",
    "native": null,
    "timezone": null,
    "translations": {}
  },
  {
    "id": 114262,
    "name": "Clifton Forge",
    "state_id": 1427,
    "state_code": "VA",
    "country_id": 233,
    "country_code": "US",
    "latitude": "37.81624000",
    "longitude": "-79.82449000",
    "native": null,
    "timezone": null,
    "translations": {}
  },
  {
    "id": 114300,
    "name": "Clintwood",
    "state_id": 1427,
    "state_code": "VA",
    "country_id": 233,
    "country_code": "US",
    "latitude": "37.15011000",
    "longitude": "-82.45598000",
    "native": null,
    "timezone": null,
    "translations": {}
  },
  {
    "id": 114310,
    "name": "Cloverdale",
    "state_id": 1427,
    "state_code": "VA",
    "country_id": 233,
    "country_code": "US",
    "latitude": "37.36514000",
    "longitude": "-79.90560000",
    "native": null,
    "timezone": null,
    "translations": {}
  },
  {
    "id": 114365,
    "name": "Coeburn",
    "state_id": 1427,
    "state_code": "VA",
    "country_id": 233,
    "country_code": "US",
    "latitude": "36.94399000",
    "longitude": "-82.46404000",
    "native": null,
    "timezone": null,
    "translations": {}
  },
  {
    "id": 114438,
    "name": "Collinsville",
    "state_id": 1427,
    "state_code": "VA",
    "country_id": 233,
    "country_code": "US",
    "latitude": "36.71514000",
    "longitude": "-79.91532000",
    "native": null,
    "timezone": null,
    "translations": {}
  },
  {
    "id": 114447,
    "name": "Colonial Beach",
    "state_id": 1427,
    "state_code": "VA",
    "country_id": 233,
    "country_code": "US",
    "latitude": "38.25457000",
    "longitude": "-76.96358000",
    "native": null,
    "timezone": null,
    "translations": {}
  },
  {
    "id": 114449,
    "name": "Colonial Heights",
    "state_id": 1427,
    "state_code": "VA",
    "country_id": 233,
    "country_code": "US",
    "latitude": "37.26804000",
    "longitude": "-77.40726000",
    "native": null,
    "timezone": null,
    "translations": {}
  },
  {
    "id": 114537,
    "name": "Concord",
    "state_id": 1427,
    "state_code": "VA",
    "country_id": 233,
    "country_code": "US",
    "latitude": "37.34264000",
    "longitude": "-78.97502000",
    "native": null,
    "timezone": null,
    "translations": {}
  },
  {
    "id": 114725,
    "name": "Countryside",
    "state_id": 1427,
    "state_code": "VA",
    "country_id": 233,
    "country_code": "US",
    "latitude": "39.04094000",
    "longitude": "-77.41360000",
    "native": null,
    "timezone": null,
    "translations": {}
  },
  {
    "id": 114728,
    "name": "Courtland",
    "state_id": 1427,
    "state_code": "VA",
    "country_id": 233,
    "country_code": "US",
    "latitude": "36.71626000",
    "longitude": "-77.06802000",
    "native": null,
    "timezone": null,
    "translations": {}
  },
  {
    "id": 114739,
    "name": "Covington",
    "state_id": 1427,
    "state_code": "VA",
    "country_id": 233,
    "country_code": "US",
    "latitude": "37.79345280",
    "longitude": "-79.99394840",
    "native": null,
    "timezone": null,
    "translations": {}
  },
  {
    "id": 114758,
    "name": "Craig County",
    "state_id": 1427,
    "state_code": "VA",
    "country_id": 233,
    "country_code": "US",
    "latitude": "37.48125000",
    "longitude": "-80.21234000",
    "native": null,
    "timezone": null,
    "translations": {}
  },
  {
    "id": 114818,
    "name": "Crewe",
    "state_id": 1427,
    "state_code": "VA",
    "country_id": 233,
    "country_code": "US",
    "latitude": "37.17321000",
    "longitude": "-78.12333000",
    "native": null,
    "timezone": null,
    "translations": {}
  },
  {
    "id": 114820,
    "name": "Crimora",
    "state_id": 1427,
    "state_code": "VA",
    "country_id": 233,
    "country_code": "US",
    "latitude": "38.15402000",
    "longitude": "-78.85030000",
    "native": null,
    "timezone": null,
    "translations": {}
  },
  {
    "id": 114871,
    "name": "Crozet",
    "state_id": 1427,
    "state_code": "VA",
    "country_id": 233,
    "country_code": "US",
    "latitude": "38.06958000",
    "longitude": "-78.70058000",
    "native": null,
    "timezone": null,
    "translations": {}
  },
  {
    "id": 114900,
    "name": "Culpeper",
    "state_id": 1427,
    "state_code": "VA",
    "country_id": 233,
    "country_code": "US",
    "latitude": "38.47318000",
    "longitude": "-77.99666000",
    "native": null,
    "timezone": null,
    "translations": {}
  },
  {
    "id": 114901,
    "name": "Culpeper County",
    "state_id": 1427,
    "state_code": "VA",
    "country_id": 233,
    "country_code": "US",
    "latitude": "38.48606000",
    "longitude": "-77.95589000",
    "native": null,
    "timezone": null,
    "translations": {}
  },
  {
    "id": 114908,
    "name": "Cumberland",
    "state_id": 1427,
    "state_code": "VA",
    "country_id": 233,
    "country_code": "US",
    "latitude": "37.49598000",
    "longitude": "-78.24527000",
    "native": null,
    "timezone": null,
    "translations": {}
  },
  {
    "id": 114917,
    "name": "Cumberland County",
    "state_id": 1427,
    "state_code": "VA",
    "country_id": 233,
    "country_code": "US",
    "latitude": "37.51210000",
    "longitude": "-78.24496000",
    "native": null,
    "timezone": null,
    "translations": {}
  },
  {
    "id": 114970,
    "name": "Dahlgren",
    "state_id": 1427,
    "state_code": "VA",
    "country_id": 233,
    "country_code": "US",
    "latitude": "38.33124000",
    "longitude": "-77.05109000",
    "native": null,
    "timezone": null,
    "translations": {}
  },
  {
    "id": 114981,
    "name": "Dale City",
    "state_id": 1427,
    "state_code": "VA",
    "country_id": 233,
    "country_code": "US",
    "latitude": "38.63706000",
    "longitude": "-77.31109000",
    "native": null,
    "timezone": null,
    "translations": {}
  },
  {
    "id": 114984,
    "name": "Daleville",
    "state_id": 1427,
    "state_code": "VA",
    "country_id": 233,
    "country_code": "US",
    "latitude": "37.40986000",
    "longitude": "-79.91254000",
    "native": null,
    "timezone": null,
    "translations": {}
  },
  {
    "id": 115039,
    "name": "Danville",
    "state_id": 1427,
    "state_code": "VA",
    "country_id": 233,
    "country_code": "US",
    "latitude": "36.58798770",
    "longitude": "-79.39167130",
    "native": null,
    "timezone": null,
    "translations": {}
  },
  {
    "id": 115094,
    "name": "Dayton",
    "state_id": 1427,
    "state_code": "VA",
    "country_id": 233,
    "country_code": "US",
    "latitude": "38.41485000",
    "longitude": "-78.93864000",
    "native": null,
    "timezone": null,
    "translations": {}
  },
  {
    "id": 115228,
    "name": "Deltaville",
    "state_id": 1427,
    "state_code": "VA",
    "country_id": 233,
    "country_code": "US",
    "latitude": "37.55486000",
    "longitude": "-76.33689000",
    "native": null,
    "timezone": null,
    "translations": {}
  },
  {
    "id": 115322,
    "name": "Dickenson County",
    "state_id": 1427,
    "state_code": "VA",
    "country_id": 233,
    "country_code": "US",
    "latitude": "37.12574000",
    "longitude": "-82.35035000",
    "native": null,
    "timezone": null,
    "translations": {}
  },
  {
    "id": 115352,
    "name": "Dinwiddie County",
    "state_id": 1427,
    "state_code": "VA",
    "country_id": 233,
    "country_code": "US",
    "latitude": "37.07590000",
    "longitude": "-77.63236000",
    "native": null,
    "timezone": null,
    "translations": {}
  },
  {
    "id": 115405,
    "name": "Dooms",
    "state_id": 1427,
    "state_code": "VA",
    "country_id": 233,
    "country_code": "US",
    "latitude": "38.10902000",
    "longitude": "-78.85752000",
    "native": null,
    "timezone": null,
    "translations": {}
  },
  {
    "id": 115468,
    "name": "Dranesville",
    "state_id": 1427,
    "state_code": "VA",
    "country_id": 233,
    "country_code": "US",
    "latitude": "39.00067000",
    "longitude": "-77.34582000",
    "native": null,
    "timezone": null,
    "translations": {}
  },
  {
    "id": 115484,
    "name": "Dryden",
    "state_id": 1427,
    "state_code": "VA",
    "country_id": 233,
    "country_code": "US",
    "latitude": "36.77759000",
    "longitude": "-82.94155000",
    "native": null,
    "timezone": null,
    "translations": {}
  },
  {
    "id": 115493,
    "name": "Dublin",
    "state_id": 1427,
    "state_code": "VA",
    "country_id": 233,
    "country_code": "US",
    "latitude": "37.10568000",
    "longitude": "-80.68534000",
    "native": null,
    "timezone": null,
    "translations": {}
  },
  {
    "id": 115511,
    "name": "Dulles Town Center",
    "state_id": 1427,
    "state_code": "VA",
    "country_id": 233,
    "country_code": "US",
    "latitude": "39.03761000",
    "longitude": "-77.41582000",
    "native": null,
    "timezone": null,
    "translations": {}
  },
  {
    "id": 115516,
    "name": "Dumbarton",
    "state_id": 1427,
    "state_code": "VA",
    "country_id": 233,
    "country_code": "US",
    "latitude": "37.60376000",
    "longitude": "-77.49137000",
    "native": null,
    "timezone": null,
    "translations": {}
  },
  {
    "id": 115517,
    "name": "Dumfries",
    "state_id": 1427,
    "state_code": "VA",
    "country_id": 233,
    "country_code": "US",
    "latitude": "38.56762000",
    "longitude": "-77.32804000",
    "native": null,
    "timezone": null,
    "translations": {}
  },
  {
    "id": 115549,
    "name": "Dunn Loring",
    "state_id": 1427,
    "state_code": "VA",
    "country_id": 233,
    "country_code": "US",
    "latitude": "38.89344000",
    "longitude": "-77.22165000",
    "native": null,
    "timezone": null,
    "translations": {}
  },
  {
    "id": 115679,
    "name": "East Hampton",
    "state_id": 1427,
    "state_code": "VA",
    "country_id": 233,
    "country_code": "US",
    "latitude": "37.03737000",
    "longitude": "-76.33161000",
    "native": null,
    "timezone": null,
    "translations": {}
  },
  {
    "id": 115690,
    "name": "East Highland Park",
    "state_id": 1427,
    "state_code": "VA",
    "country_id": 233,
    "country_code": "US",
    "latitude": "37.58098000",
    "longitude": "-77.40693000",
    "native": null,
    "timezone": null,
    "translations": {}
  },
  {
    "id": 115704,
    "name": "East Lexington",
    "state_id": 1427,
    "state_code": "VA",
    "country_id": 233,
    "country_code": "US",
    "latitude": "37.79291000",
    "longitude": "-79.42532000",
    "native": null,
    "timezone": null,
    "translations": {}
  },
  {
    "id": 115798,
    "name": "Eastville",
    "state_id": 1427,
    "state_code": "VA",
    "country_id": 233,
    "country_code": "US",
    "latitude": "37.35264000",
    "longitude": "-75.94576000",
    "native": null,
    "timezone": null,
    "translations": {}
  },
  {
    "id": 115871,
    "name": "Edinburg",
    "state_id": 1427,
    "state_code": "VA",
    "country_id": 233,
    "country_code": "US",
    "latitude": "38.82095000",
    "longitude": "-78.56585000",
    "native": null,
    "timezone": null,
    "translations": {}
  },
  {
    "id": 116014,
    "name": "Elkton",
    "state_id": 1427,
    "state_code": "VA",
    "country_id": 233,
    "country_code": "US",
    "latitude": "38.40790000",
    "longitude": "-78.62363000",
    "native": null,
    "timezone": null,
    "translations": {}
  },
  {
    "id": 116109,
    "name": "Emory",
    "state_id": 1427,
    "state_code": "VA",
    "country_id": 233,
    "country_code": "US",
    "latitude": "36.77289000",
    "longitude": "-81.83623000",
    "native": null,
    "timezone": null,
    "translations": {}
  },
  {
    "id": 116112,
    "name": "Emporia",
    "state_id": 1427,
    "state_code": "VA",
    "country_id": 233,
    "country_code": "US",
    "latitude": "36.69376060",
    "longitude": "-77.53571410",
    "native": null,
    "timezone": null,
    "translations": {}
  },
  {
    "id": 116145,
    "name": "Enon",
    "state_id": 1427,
    "state_code": "VA",
    "country_id": 233,
    "country_code": "US",
    "latitude": "37.33070000",
    "longitude": "-77.32276000",
    "native": null,
    "timezone": null,
    "translations": {}
  },
  {
    "id": 116193,
    "name": "Essex County",
    "state_id": 1427,
    "state_code": "VA",
    "country_id": 233,
    "country_code": "US",
    "latitude": "37.93906000",
    "longitude": "-76.94090000",
    "native": null,
    "timezone": null,
    "translations": {}
  },
  {
    "id": 116220,
    "name": "Ettrick",
    "state_id": 1427,
    "state_code": "VA",
    "country_id": 233,
    "country_code": "US",
    "latitude": "37.24015000",
    "longitude": "-77.42998000",
    "native": null,
    "timezone": null,
    "translations": {}
  },
  {
    "id": 116275,
    "name": "Exmore",
    "state_id": 1427,
    "state_code": "VA",
    "country_id": 233,
    "country_code": "US",
    "latitude": "37.53180000",
    "longitude": "-75.82299000",
    "native": null,
    "timezone": null,
    "translations": {}
  },
  {
    "id": 116303,
    "name": "Fairfax",
    "state_id": 1427,
    "state_code": "VA",
    "country_id": 233,
    "country_code": "US",
    "latitude": "38.84622360",
    "longitude": "-77.30637330",
    "native": null,
    "timezone": null,
    "translations": {}
  },
  {
    "id": 116307,
    "name": "Fairfax County",
    "state_id": 1427,
    "state_code": "VA",
    "country_id": 233,
    "country_code": "US",
    "latitude": "38.83469000",
    "longitude": "-77.27622000",
    "native": null,
    "timezone": null,
    "translations": {}
  },
  {
    "id": 116308,
    "name": "Fairfax Station",
    "state_id": 1427,
    "state_code": "VA",
    "country_id": 233,
    "country_code": "US",
    "latitude": "38.80095000",
    "longitude": "-77.32554000",
    "native": null,
    "timezone": null,
    "translations": {}
  },
  {
    "id": 116330,
    "name": "Fairlawn",
    "state_id": 1427,
    "state_code": "VA",
    "country_id": 233,
    "country_code": "US",
    "latitude": "37.14846000",
    "longitude": "-80.57839000",
    "native": null,
    "timezone": null,
    "translations": {}
  },
  {
    "id": 116380,
    "name": "Falls Church",
    "state_id": 1427,
    "state_code": "VA",
    "country_id": 233,
    "country_code": "US",
    "latitude": "38.88233400",
    "longitude": "-77.17109140",
    "native": null,
    "timezone": null,
    "translations": {}
  },
  {
    "id": 116387,
    "name": "Falmouth",
    "state_id": 1427,
    "state_code": "VA",
    "country_id": 233,
    "country_code": "US",
    "latitude": "38.32402000",
    "longitude": "-77.46832000",
    "native": null,
    "timezone": null,
    "translations": {}
  },
  {
    "id": 116427,
    "name": "Farmville",
    "state_id": 1427,
    "state_code": "VA",
    "country_id": 233,
    "country_code": "US",
    "latitude": "37.30210000",
    "longitude": "-78.39194000",
    "native": null,
    "timezone": null,
    "translations": {}
  },
  {
    "id": 116436,
    "name": "Fauquier County",
    "state_id": 1427,
    "state_code": "VA",
    "country_id": 233,
    "country_code": "US",
    "latitude": "38.73855000",
    "longitude": "-77.80927000",
    "native": null,
    "timezone": null,
    "translations": {}
  },
  {
    "id": 116497,
    "name": "Ferrum",
    "state_id": 1427,
    "state_code": "VA",
    "country_id": 233,
    "country_code": "US",
    "latitude": "36.92292000",
    "longitude": "-80.01337000",
    "native": null,
    "timezone": null,
    "translations": {}
  },
  {
    "id": 116514,
    "name": "Fincastle",
    "state_id": 1427,
    "state_code": "VA",
    "country_id": 233,
    "country_code": "US",
    "latitude": "37.49930000",
    "longitude": "-79.87726000",
    "native": null,
    "timezone": null,
    "translations": {}
  },
  {
    "id": 116530,
    "name": "Fishersville",
    "state_id": 1427,
    "state_code": "VA",
    "country_id": 233,
    "country_code": "US",
    "latitude": "38.09902000",
    "longitude": "-78.96919000",
    "native": null,
    "timezone": null,
    "translations": {}
  },
  {
    "id": 116596,
    "name": "Floris",
    "state_id": 1427,
    "state_code": "VA",
    "country_id": 233,
    "country_code": "US",
    "latitude": "38.93706000",
    "longitude": "-77.41277000",
    "native": null,
    "timezone": null,
    "translations": {}
  },
  {
    "id": 116605,
    "name": "Floyd",
    "state_id": 1427,
    "state_code": "VA",
    "country_id": 233,
    "country_code": "US",
    "latitude": "36.91124000",
    "longitude": "-80.32005000",
    "native": null,
    "timezone": null,
    "translations": {}
  },
  {
    "id": 116609,
    "name": "Floyd County",
    "state_id": 1427,
    "state_code": "VA",
    "country_id": 233,
    "country_code": "US",
    "latitude": "36.93149000",
    "longitude": "-80.36255000",
    "native": null,
    "timezone": null,
    "translations": {}
  },
  {
    "id": 116614,
    "name": "Fluvanna County",
    "state_id": 1427,
    "state_code": "VA",
    "country_id": 233,
    "country_code": "US",
    "latitude": "37.84187000",
    "longitude": "-78.27745000",
    "native": null,
    "timezone": null,
    "translations": {}
  },
  {
    "id": 116644,
    "name": "Forest",
    "state_id": 1427,
    "state_code": "VA",
    "country_id": 233,
    "country_code": "US",
    "latitude": "37.36375000",
    "longitude": "-79.28975000",
    "native": null,
    "timezone": null,
    "translations": {}
  },
  {
    "id": 116691,
    "name": "Fort Belvoir",
    "state_id": 1427,
    "state_code": "VA",
    "country_id": 233,
    "country_code": "US",
    "latitude": "38.71190000",
    "longitude": "-77.14589000",
    "native": null,
    "timezone": null,
    "translations": {}
  },
  {
    "id": 116718,
    "name": "Fort Hunt",
    "state_id": 1427,
    "state_code": "VA",
    "country_id": 233,
    "country_code": "US",
    "latitude": "38.73289000",
    "longitude": "-77.05803000",
    "native": null,
    "timezone": null,
    "translations": {}
  },
  {
    "id": 116724,
    "name": "Fort Lee",
    "state_id": 1427,
    "state_code": "VA",
    "country_id": 233,
    "country_code": "US",
    "latitude": "37.24694000",
    "longitude": "-77.33442000",
    "native": null,
    "timezone": null,
    "translations": {}
  },
  {
    "id": 116816,
    "name": "Franconia",
    "state_id": 1427,
    "state_code": "VA",
    "country_id": 233,
    "country_code": "US",
    "latitude": "38.78206000",
    "longitude": "-77.14637000",
    "native": null,
    "timezone": null,
    "translations": {}
  },
  {
    "id": 116831,
    "name": "Franklin",
    "state_id": 1427,
    "state_code": "VA",
    "country_id": 233,
    "country_code": "US",
    "latitude": "37.05277190",
    "longitude": "-79.88130930",
    "native": null,
    "timezone": null,
    "translations": {}
  },
  {
    "id": 116856,
    "name": "Franklin County",
    "state_id": 1427,
    "state_code": "VA",
    "country_id": 233,
    "country_code": "US",
    "latitude": "36.99194000",
    "longitude": "-79.88104000",
    "native": null,
    "timezone": null,
    "translations": {}
  },
  {
    "id": 116889,
    "name": "Frederick County",
    "state_id": 1427,
    "state_code": "VA",
    "country_id": 233,
    "country_code": "US",
    "latitude": "39.20456000",
    "longitude": "-78.26258000",
    "native": null,
    "timezone": null,
    "translations": {}
  },
  {
    "id": 116891,
    "name": "Fredericksburg",
    "state_id": 1427,
    "state_code": "VA",
    "country_id": 233,
    "country_code": "US",
    "latitude": "38.30318370",
    "longitude": "-77.46053990",
    "native": null,
    "timezone": null,
    "translations": {}
  },
  {
    "id": 116960,
    "name": "Front Royal",
    "state_id": 1427,
    "state_code": "VA",
    "country_id": 233,
    "country_code": "US",
    "latitude": "38.91817000",
    "longitude": "-78.19444000",
    "native": null,
    "timezone": null,
    "translations": {}
  },
  {
    "id": 117018,
    "name": "Gainesville",
    "state_id": 1427,
    "state_code": "VA",
    "country_id": 233,
    "country_code": "US",
    "latitude": "38.79567000",
    "longitude": "-77.61388000",
    "native": null,
    "timezone": null,
    "translations": {}
  },
  {
    "id": 117020,
    "name": "Galax",
    "state_id": 1427,
    "state_code": "VA",
    "country_id": 233,
    "country_code": "US",
    "latitude": "36.66123870",
    "longitude": "-80.92396710",
    "native": null,
    "timezone": null,
    "translations": {}
  },
  {
    "id": 117118,
    "name": "Gate City",
    "state_id": 1427,
    "state_code": "VA",
    "country_id": 233,
    "country_code": "US",
    "latitude": "36.63788000",
    "longitude": "-82.58099000",
    "native": null,
    "timezone": null,
    "translations": {}
  },
  {
    "id": 117211,
    "name": "Giles County",
    "state_id": 1427,
    "state_code": "VA",
    "country_id": 233,
    "country_code": "US",
    "latitude": "37.31403000",
    "longitude": "-80.70374000",
    "native": null,
    "timezone": null,
    "translations": {}
  },
  {
    "id": 117232,
    "name": "Glade Spring",
    "state_id": 1427,
    "state_code": "VA",
    "country_id": 233,
    "country_code": "US",
    "latitude": "36.79122000",
    "longitude": "-81.77123000",
    "native": null,
    "timezone": null,
    "translations": {}
  },
  {
    "id": 117248,
    "name": "Glasgow",
    "state_id": 1427,
    "state_code": "VA",
    "country_id": 233,
    "country_code": "US",
    "latitude": "37.63402000",
    "longitude": "-79.45031000",
    "native": null,
    "timezone": null,
    "translations": {}
  },
  {
    "id": 117259,
    "name": "Glen Allen",
    "state_id": 1427,
    "state_code": "VA",
    "country_id": 233,
    "country_code": "US",
    "latitude": "37.66598000",
    "longitude": "-77.50637000",
    "native": null,
    "timezone": null,
    "translations": {}
  },
  {
    "id": 117325,
    "name": "Gloucester County",
    "state_id": 1427,
    "state_code": "VA",
    "country_id": 233,
    "country_code": "US",
    "latitude": "37.40121000",
    "longitude": "-76.52297000",
    "native": null,
    "timezone": null,
    "translations": {}
  },
  {
    "id": 117326,
    "name": "Gloucester Courthouse",
    "state_id": 1427,
    "state_code": "VA",
    "country_id": 233,
    "country_code": "US",
    "latitude": "37.40986000",
    "longitude": "-76.52662000",
    "native": null,
    "timezone": null,
    "translations": {}
  },
  {
    "id": 117327,
    "name": "Gloucester Point",
    "state_id": 1427,
    "state_code": "VA",
    "country_id": 233,
    "country_code": "US",
    "latitude": "37.25403000",
    "longitude": "-76.49689000",
    "native": null,
    "timezone": null,
    "translations": {}
  },
  {
    "id": 117375,
    "name": "Goochland",
    "state_id": 1427,
    "state_code": "VA",
    "country_id": 233,
    "country_code": "US",
    "latitude": "37.68431000",
    "longitude": "-77.88527000",
    "native": null,
    "timezone": null,
    "translations": {}
  },
  {
    "id": 117376,
    "name": "Goochland County",
    "state_id": 1427,
    "state_code": "VA",
    "country_id": 233,
    "country_code": "US",
    "latitude": "37.72198000",
    "longitude": "-77.91636000",
    "native": null,
    "timezone": null,
    "translations": {}
  },
  {
    "id": 117401,
    "name": "Gordonsville",
    "state_id": 1427,
    "state_code": "VA",
    "country_id": 233,
    "country_code": "US",
    "latitude": "38.13736000",
    "longitude": "-78.18778000",
    "native": null,
    "timezone": null,
    "translations": {}
  },
  {
    "id": 117564,
    "name": "Grayson County",
    "state_id": 1427,
    "state_code": "VA",
    "country_id": 233,
    "country_code": "US",
    "latitude": "36.65659000",
    "longitude": "-81.22505000",
    "native": null,
    "timezone": null,
    "translations": {}
  },
  {
    "id": 117572,
    "name": "Great Falls",
    "state_id": 1427,
    "state_code": "VA",
    "country_id": 233,
    "country_code": "US",
    "latitude": "38.99817000",
    "longitude": "-77.28832000",
    "native": null,
    "timezone": null,
    "translations": {}
  },
  {
    "id": 117617,
    "name": "Greenbriar",
    "state_id": 1427,
    "state_code": "VA",
    "country_id": 233,
    "country_code": "US",
    "latitude": "38.87345000",
    "longitude": "-77.40082000",
    "native": null,
    "timezone": null,
    "translations": {}
  },
  {
    "id": 117640,
    "name": "Greene County",
    "state_id": 1427,
    "state_code": "VA",
    "country_id": 233,
    "country_code": "US",
    "latitude": "38.29760000",
    "longitude": "-78.46688000",
    "native": null,
    "timezone": null,
    "translations": {}
  },
  {
    "id": 117673,
    "name": "Greensville County",
    "state_id": 1427,
    "state_code": "VA",
    "country_id": 233,
    "country_code": "US",
    "latitude": "36.67585000",
    "longitude": "-77.55958000",
    "native": null,
    "timezone": null,
    "translations": {}
  },
  {
    "id": 117726,
    "name": "Gretna",
    "state_id": 1427,
    "state_code": "VA",
    "country_id": 233,
    "country_code": "US",
    "latitude": "36.95375000",
    "longitude": "-79.35891000",
    "native": null,
    "timezone": null,
    "translations": {}
  },
  {
    "id": 117753,
    "name": "Grottoes",
    "state_id": 1427,
    "state_code": "VA",
    "country_id": 233,
    "country_code": "US",
    "latitude": "38.26735000",
    "longitude": "-78.82586000",
    "native": null,
    "timezone": null,
    "translations": {}
  },
  {
    "id": 117763,
    "name": "Groveton",
    "state_id": 1427,
    "state_code": "VA",
    "country_id": 233,
    "country_code": "US",
    "latitude": "38.76734000",
    "longitude": "-77.08470000",
    "native": null,
    "timezone": null,
    "translations": {}
  },
  {
    "id": 117768,
    "name": "Grundy",
    "state_id": 1427,
    "state_code": "VA",
    "country_id": 233,
    "country_code": "US",
    "latitude": "37.27789000",
    "longitude": "-82.09902000",
    "native": null,
    "timezone": null,
    "translations": {}
  },
  {
    "id": 117860,
    "name": "Halifax",
    "state_id": 1427,
    "state_code": "VA",
    "country_id": 233,
    "country_code": "US",
    "latitude": "36.76597000",
    "longitude": "-78.92834000",
    "native": null,
    "timezone": null,
    "translations": {}
  },
  {
    "id": 117863,
    "name": "Halifax County",
    "state_id": 1427,
    "state_code": "VA",
    "country_id": 233,
    "country_code": "US",
    "latitude": "36.76695000",
    "longitude": "-78.93662000",
    "native": null,
    "timezone": null,
    "translations": {}
  },
  {
    "id": 117919,
    "name": "Hampden Sydney",
    "state_id": 1427,
    "state_code": "VA",
    "country_id": 233,
    "country_code": "US",
    "latitude": "37.24237000",
    "longitude": "-78.45972000",
    "native": null,
    "timezone": null,
    "translations": {}
  },
  {
    "id": 117931,
    "name": "Hampton",
    "state_id": 1427,
    "state_code": "VA",
    "country_id": 233,
    "country_code": "US",
    "latitude": "37.02987000",
    "longitude": "-76.34522000",
    "native": null,
    "timezone": null,
    "translations": {}
  },
  {
    "id": 117969,
    "name": "Hanover",
    "state_id": 1427,
    "state_code": "VA",
    "country_id": 233,
    "country_code": "US",
    "latitude": "37.76653000",
    "longitude": "-77.37026000",
    "native": null,
    "timezone": null,
    "translations": {}
  },
  {
    "id": 117974,
    "name": "Hanover County",
    "state_id": 1427,
    "state_code": "VA",
    "country_id": 233,
    "country_code": "US",
    "latitude": "37.76015000",
    "longitude": "-77.49087000",
    "native": null,
    "timezone": null,
    "translations": {}
  },
  {
    "id": 118070,
    "name": "Harrisonburg",
    "state_id": 1427,
    "state_code": "VA",
    "country_id": 233,
    "country_code": "US",
    "latitude": "38.44933150",
    "longitude": "-78.86888330",
    "native": null,
    "timezone": null,
    "translations": {}
  },
  {
    "id": 118184,
    "name": "Hayfield",
    "state_id": 1427,
    "state_code": "VA",
    "country_id": 233,
    "country_code": "US",
    "latitude": "38.75178000",
    "longitude": "-77.13581000",
    "native": null,
    "timezone": null,
    "translations": {}
  },
  {
    "id": 118187,
    "name": "Haymarket",
    "state_id": 1427,
    "state_code": "VA",
    "country_id": 233,
    "country_code": "US",
    "latitude": "38.81206000",
    "longitude": "-77.63638000",
    "native": null,
    "timezone": null,
    "translations": {}
  },
  {
    "id": 118225,
    "name": "Heathsville",
    "state_id": 1427,
    "state_code": "VA",
    "country_id": 233,
    "country_code": "US",
    "latitude": "37.91763000",
    "longitude": "-76.47217000",
    "native": null,
    "timezone": null,
    "translations": {}
  },
  {
    "id": 118294,
    "name": "Henrico County",
    "state_id": 1427,
    "state_code": "VA",
    "country_id": 233,
    "country_code": "US",
    "latitude": "37.45771000",
    "longitude": "-77.29646000",
    "native": null,
    "timezone": null,
    "translations": {}
  },
  {
    "id": 118303,
    "name": "Henry County",
    "state_id": 1427,
    "state_code": "VA",
    "country_id": 233,
    "country_code": "US",
    "latitude": "36.68470000",
    "longitude": "-79.98152000",
    "native": null,
    "timezone": null,
    "translations": {}
  },
  {
    "id": 118306,
    "name": "Henry Fork",
    "state_id": 1427,
    "state_code": "VA",
    "country_id": 233,
    "country_code": "US",
    "latitude": "36.96625000",
    "longitude": "-79.87031000",
    "native": null,
    "timezone": null,
    "translations": {}
  },
  {
    "id": 118336,
    "name": "Herndon",
    "state_id": 1427,
    "state_code": "VA",
    "country_id": 233,
    "country_code": "US",
    "latitude": "38.96955000",
    "longitude": "-77.38610000",
    "native": null,
    "timezone": null,
    "translations": {}
  },
  {
    "id": 118404,
    "name": "Highland County",
    "state_id": 1427,
    "state_code": "VA",
    "country_id": 233,
    "country_code": "US",
    "latitude": "38.36233000",
    "longitude": "-79.56854000",
    "native": null,
    "timezone": null,
    "translations": {}
  },
  {
    "id": 118415,
    "name": "Highland Springs",
    "state_id": 1427,
    "state_code": "VA",
    "country_id": 233,
    "country_code": "US",
    "latitude": "37.54598000",
    "longitude": "-77.32776000",
    "native": null,
    "timezone": null,
    "translations": {}
  },
  {
    "id": 118468,
    "name": "Hillsville",
    "state_id": 1427,
    "state_code": "VA",
    "country_id": 233,
    "country_code": "US",
    "latitude": "36.76263000",
    "longitude": "-80.73479000",
    "native": null,
    "timezone": null,
    "translations": {}
  },
  {
    "id": 118546,
    "name": "Hollins",
    "state_id": 1427,
    "state_code": "VA",
    "country_id": 233,
    "country_code": "US",
    "latitude": "37.34125000",
    "longitude": "-79.94310000",
    "native": null,
    "timezone": null,
    "translations": {}
  },
  {
    "id": 118564,
    "name": "Hollymead",
    "state_id": 1427,
    "state_code": "VA",
    "country_id": 233,
    "country_code": "US",
    "latitude": "38.11708000",
    "longitude": "-78.44168000",
    "native": null,
    "timezone": null,
    "translations": {}
  },
  {
    "id": 118612,
    "name": "Honaker",
    "state_id": 1427,
    "state_code": "VA",
    "country_id": 233,
    "country_code": "US",
    "latitude": "37.01622000",
    "longitude": "-81.97429000",
    "native": null,
    "timezone": null,
    "translations": {}
  },
  {
    "id": 118649,
    "name": "Hopewell",
    "state_id": 1427,
    "state_code": "VA",
    "country_id": 233,
    "country_code": "US",
    "latitude": "37.30431540",
    "longitude": "-77.28720010",
    "native": null,
    "timezone": null,
    "translations": {}
  },
  {
    "id": 118671,
    "name": "Horse Pasture",
    "state_id": 1427,
    "state_code": "VA",
    "country_id": 233,
    "country_code": "US",
    "latitude": "36.62847000",
    "longitude": "-79.95087000",
    "native": null,
    "timezone": null,
    "translations": {}
  },
  {
    "id": 118799,
    "name": "Huntington",
    "state_id": 1427,
    "state_code": "VA",
    "country_id": 233,
    "country_code": "US",
    "latitude": "38.79234000",
    "longitude": "-77.07081000",
    "native": null,
    "timezone": null,
    "translations": {}
  },
  {
    "id": 118832,
    "name": "Hurt",
    "state_id": 1427,
    "state_code": "VA",
    "country_id": 233,
    "country_code": "US",
    "latitude": "37.09264000",
    "longitude": "-79.29641000",
    "native": null,
    "timezone": null,
    "translations": {}
  },
  {
    "id": 118845,
    "name": "Hybla Valley",
    "state_id": 1427,
    "state_code": "VA",
    "country_id": 233,
    "country_code": "US",
    "latitude": "38.74761000",
    "longitude": "-77.08303000",
    "native": null,
    "timezone": null,
    "translations": {}
  },
  {
    "id": 118876,
    "name": "Idylwood",
    "state_id": 1427,
    "state_code": "VA",
    "country_id": 233,
    "country_code": "US",
    "latitude": "38.89511000",
    "longitude": "-77.21165000",
    "native": null,
    "timezone": null,
    "translations": {}
  },
  {
    "id": 118894,
    "name": "Independence",
    "state_id": 1427,
    "state_code": "VA",
    "country_id": 233,
    "country_code": "US",
    "latitude": "36.62245000",
    "longitude": "-81.15309000",
    "native": null,
    "timezone": null,
    "translations": {}
  },
  {
    "id": 118899,
    "name": "Independent Hill",
    "state_id": 1427,
    "state_code": "VA",
    "country_id": 233,
    "country_code": "US",
    "latitude": "38.63595000",
    "longitude": "-77.43776000",
    "native": null,
    "timezone": null,
    "translations": {}
  },
  {
    "id": 119033,
    "name": "Isle of Wight County",
    "state_id": 1427,
    "state_code": "VA",
    "country_id": 233,
    "country_code": "US",
    "latitude": "36.90673000",
    "longitude": "-76.70913000",
    "native": null,
    "timezone": null,
    "translations": {}
  },
  {
    "id": 119116,
    "name": "James City County",
    "state_id": 1427,
    "state_code": "VA",
    "country_id": 233,
    "country_code": "US",
    "latitude": "37.31332000",
    "longitude": "-76.77376000",
    "native": null,
    "timezone": null,
    "translations": {}
  },
  {
    "id": 119167,
    "name": "Jefferson",
    "state_id": 1427,
    "state_code": "VA",
    "country_id": 233,
    "country_code": "US",
    "latitude": "38.86456000",
    "longitude": "-77.18776000",
    "native": null,
    "timezone": null,
    "translations": {}
  },
  {
    "id": 119289,
    "name": "Jolivue",
    "state_id": 1427,
    "state_code": "VA",
    "country_id": 233,
    "country_code": "US",
    "latitude": "38.10985000",
    "longitude": "-79.07308000",
    "native": null,
    "timezone": null,
    "translations": {}
  },
  {
    "id": 119311,
    "name": "Jonesville",
    "state_id": 1427,
    "state_code": "VA",
    "country_id": 233,
    "country_code": "US",
    "latitude": "36.68898000",
    "longitude": "-83.11100000",
    "native": null,
    "timezone": null,
    "translations": {}
  },
  {
    "id": 119443,
    "name": "Kenbridge",
    "state_id": 1427,
    "state_code": "VA",
    "country_id": 233,
    "country_code": "US",
    "latitude": "36.96209000",
    "longitude": "-78.12500000",
    "native": null,
    "timezone": null,
    "translations": {}
  },
  {
    "id": 119563,
    "name": "Kilmarnock",
    "state_id": 1427,
    "state_code": "VA",
    "country_id": 233,
    "country_code": "US",
    "latitude": "37.71041000",
    "longitude": "-76.37967000",
    "native": null,
    "timezone": null,
    "translations": {}
  },
  {
    "id": 119588,
    "name": "King and Queen County",
    "state_id": 1427,
    "state_code": "VA",
    "country_id": 233,
    "country_code": "US",
    "latitude": "37.71862000",
    "longitude": "-76.89527000",
    "native": null,
    "timezone": null,
    "translations": {}
  },
  {
    "id": 119589,
    "name": "King and Queen Court House",
    "state_id": 1427,
    "state_code": "VA",
    "country_id": 233,
    "country_code": "US",
    "latitude": "37.66986000",
    "longitude": "-76.87746000",
    "native": null,
    "timezone": null,
    "translations": {}
  },
  {
    "id": 119584,
    "name": "King George",
    "state_id": 1427,
    "state_code": "VA",
    "country_id": 233,
    "country_code": "US",
    "latitude": "38.26818000",
    "longitude": "-77.18442000",
    "native": null,
    "timezone": null,
    "translations": {}
  },
  {
    "id": 119585,
    "name": "King George County",
    "state_id": 1427,
    "state_code": "VA",
    "country_id": 233,
    "country_code": "US",
    "latitude": "38.27374000",
    "longitude": "-77.15651000",
    "native": null,
    "timezone": null,
    "translations": {}
  },
  {
    "id": 119586,
    "name": "King William",
    "state_id": 1427,
    "state_code": "VA",
    "country_id": 233,
    "country_code": "US",
    "latitude": "37.68736000",
    "longitude": "-77.01358000",
    "native": null,
    "timezone": null,
    "translations": {}
  },
  {
    "id": 119587,
    "name": "King William County",
    "state_id": 1427,
    "state_code": "VA",
    "country_id": 233,
    "country_code": "US",
    "latitude": "37.70660000",
    "longitude": "-77.08839000",
    "native": null,
    "timezone": null,
    "translations": {}
  },
  {
    "id": 119604,
    "name": "Kings Park",
    "state_id": 1427,
    "state_code": "VA",
    "country_id": 233,
    "country_code": "US",
    "latitude": "38.80622000",
    "longitude": "-77.24332000",
    "native": null,
    "timezone": null,
    "translations": {}
  },
  {
    "id": 119606,
    "name": "Kings Park West",
    "state_id": 1427,
    "state_code": "VA",
    "country_id": 233,
    "country_code": "US",
    "latitude": "38.81443000",
    "longitude": "-77.29582000",
    "native": null,
    "timezone": null,
    "translations": {}
  },
  {
    "id": 119868,
    "name": "Lake Barcroft",
    "state_id": 1427,
    "state_code": "VA",
    "country_id": 233,
    "country_code": "US",
    "latitude": "38.84789000",
    "longitude": "-77.15581000",
    "native": null,
    "timezone": null,
    "translations": {}
  },
  {
    "id": 119947,
    "name": "Lake Monticello",
    "state_id": 1427,
    "state_code": "VA",
    "country_id": 233,
    "country_code": "US",
    "latitude": "37.92320000",
    "longitude": "-78.33473000",
    "native": null,
    "timezone": null,
    "translations": {}
  },
  {
    "id": 119968,
    "name": "Lake Ridge",
    "state_id": 1427,
    "state_code": "VA",
    "country_id": 233,
    "country_code": "US",
    "latitude": "38.68789000",
    "longitude": "-77.29776000",
    "native": null,
    "timezone": null,
    "translations": {}
  },
  {
    "id": 120031,
    "name": "Lakeside",
    "state_id": 1427,
    "state_code": "VA",
    "country_id": 233,
    "country_code": "US",
    "latitude": "37.60765000",
    "longitude": "-77.47693000",
    "native": null,
    "timezone": null,
    "translations": {}
  },
  {
    "id": 120091,
    "name": "Lancaster County",
    "state_id": 1427,
    "state_code": "VA",
    "country_id": 233,
    "country_code": "US",
    "latitude": "37.70171000",
    "longitude": "-76.42023000",
    "native": null,
    "timezone": null,
    "translations": {}
  },
  {
    "id": 120191,
    "name": "Laurel",
    "state_id": 1427,
    "state_code": "VA",
    "country_id": 233,
    "country_code": "US",
    "latitude": "37.64292000",
    "longitude": "-77.50887000",
    "native": null,
    "timezone": null,
    "translations": {}
  },
  {
    "id": 120197,
    "name": "Laurel Hill",
    "state_id": 1427,
    "state_code": "VA",
    "country_id": 233,
    "country_code": "US",
    "latitude": "38.71663000",
    "longitude": "-77.23686000",
    "native": null,
    "timezone": null,
    "translations": {}
  },
  {
    "id": 120245,
    "name": "Lawrenceville",
    "state_id": 1427,
    "state_code": "VA",
    "country_id": 233,
    "country_code": "US",
    "latitude": "36.75765000",
    "longitude": "-77.84694000",
    "native": null,
    "timezone": null,
    "translations": {}
  },
  {
    "id": 120253,
    "name": "Laymantown",
    "state_id": 1427,
    "state_code": "VA",
    "country_id": 233,
    "country_code": "US",
    "latitude": "37.36569000",
    "longitude": "-79.85754000",
    "native": null,
    "timezone": null,
    "translations": {}
  },
  {
    "id": 120288,
    "name": "Lebanon",
    "state_id": 1427,
    "state_code": "VA",
    "country_id": 233,
    "country_code": "US",
    "latitude": "36.90094000",
    "longitude": "-82.08013000",
    "native": null,
    "timezone": null,
    "translations": {}
  },
  {
    "id": 120315,
    "name": "Lee County",
    "state_id": 1427,
    "state_code": "VA",
    "country_id": 233,
    "country_code": "US",
    "latitude": "36.70545000",
    "longitude": "-83.12853000",
    "native": null,
    "timezone": null,
    "translations": {}
  },
  {
    "id": 120326,
    "name": "Leesburg",
    "state_id": 1427,
    "state_code": "VA",
    "country_id": 233,
    "country_code": "US",
    "latitude": "39.11566000",
    "longitude": "-77.56360000",
    "native": null,
    "timezone": null,
    "translations": {}
  },
  {
    "id": 120447,
    "name": "Lexington",
    "state_id": 1427,
    "state_code": "VA",
    "country_id": 233,
    "country_code": "US",
    "latitude": "37.78402000",
    "longitude": "-79.44282000",
    "native": null,
    "timezone": null,
    "translations": {}
  },
  {
    "id": 120549,
    "name": "Lincolnia",
    "state_id": 1427,
    "state_code": "VA",
    "country_id": 233,
    "country_code": "US",
    "latitude": "38.81845000",
    "longitude": "-77.14331000",
    "native": null,
    "timezone": null,
    "translations": {}
  },
  {
    "id": 120591,
    "name": "Linton Hall",
    "state_id": 1427,
    "state_code": "VA",
    "country_id": 233,
    "country_code": "US",
    "latitude": "38.75984000",
    "longitude": "-77.57499000",
    "native": null,
    "timezone": null,
    "translations": {}
  },
  {
    "id": 120669,
    "name": "Loch Lomond",
    "state_id": 1427,
    "state_code": "VA",
    "country_id": 233,
    "country_code": "US",
    "latitude": "38.78623000",
    "longitude": "-77.47804000",
    "native": null,
    "timezone": null,
    "translations": {}
  },
  {
    "id": 120777,
    "name": "Lorton",
    "state_id": 1427,
    "state_code": "VA",
    "country_id": 233,
    "country_code": "US",
    "latitude": "38.70428000",
    "longitude": "-77.22776000",
    "native": null,
    "timezone": null,
    "translations": {}
  },
  {
    "id": 120801,
    "name": "Loudoun County",
    "state_id": 1427,
    "state_code": "VA",
    "country_id": 233,
    "country_code": "US",
    "latitude": "39.09068000",
    "longitude": "-77.63572000",
    "native": null,
    "timezone": null,
    "translations": {}
  },
  {
    "id": 120802,
    "name": "Loudoun Valley Estates",
    "state_id": 1427,
    "state_code": "VA",
    "country_id": 233,
    "country_code": "US",
    "latitude": "38.98081000",
    "longitude": "-77.50790000",
    "native": null,
    "timezone": null,
    "translations": {}
  },
  {
    "id": 120805,
    "name": "Louisa",
    "state_id": 1427,
    "state_code": "VA",
    "country_id": 233,
    "country_code": "US",
    "latitude": "38.02514000",
    "longitude": "-78.00416000",
    "native": null,
    "timezone": null,
    "translations": {}
  },
  {
    "id": 120806,
    "name": "Louisa County",
    "state_id": 1427,
    "state_code": "VA",
    "country_id": 233,
    "country_code": "US",
    "latitude": "37.97821000",
    "longitude": "-77.96298000",
    "native": null,
    "timezone": null,
    "translations": {}
  },
  {
    "id": 120827,
    "name": "Lovettsville",
    "state_id": 1427,
    "state_code": "VA",
    "country_id": 233,
    "country_code": "US",
    "latitude": "39.27260000",
    "longitude": "-77.63666000",
    "native": null,
    "timezone": null,
    "translations": {}
  },
  {
    "id": 120830,
    "name": "Lovingston",
    "state_id": 1427,
    "state_code": "VA",
    "country_id": 233,
    "country_code": "US",
    "latitude": "37.75986000",
    "longitude": "-78.87086000",
    "native": null,
    "timezone": null,
    "translations": {}
  },
  {
    "id": 120844,
    "name": "Lowes Island",
    "state_id": 1427,
    "state_code": "VA",
    "country_id": 233,
    "country_code": "US",
    "latitude": "39.05983000",
    "longitude": "-77.35221000",
    "native": null,
    "timezone": null,
    "translations": {}
  },
  {
    "id": 120886,
    "name": "Lunenburg",
    "state_id": 1427,
    "state_code": "VA",
    "country_id": 233,
    "country_code": "US",
    "latitude": "36.96098000",
    "longitude": "-78.26555000",
    "native": null,
    "timezone": null,
    "translations": {}
  },
  {
    "id": 120889,
    "name": "Lunenburg County",
    "state_id": 1427,
    "state_code": "VA",
    "country_id": 233,
    "country_code": "US",
    "latitude": "36.94621000",
    "longitude": "-78.24057000",
    "native": null,
    "timezone": null,
    "translations": {}
  },
  {
    "id": 120890,
    "name": "Luray",
    "state_id": 1427,
    "state_code": "VA",
    "country_id": 233,
    "country_code": "US",
    "latitude": "38.66540000",
    "longitude": "-78.45945000",
    "native": null,
    "timezone": null,
    "translations": {}
  },
  {
    "id": 120916,
    "name": "Lynchburg",
    "state_id": 1427,
    "state_code": "VA",
    "country_id": 233,
    "country_code": "US",
    "latitude": "37.41375360",
    "longitude": "-79.14224640",
    "native": null,
    "timezone": null,
    "translations": {}
  },
  {
    "id": 120920,
    "name": "Lyndhurst",
    "state_id": 1427,
    "state_code": "VA",
    "country_id": 233,
    "country_code": "US",
    "latitude": "38.02930000",
    "longitude": "-78.94502000",
    "native": null,
    "timezone": null,
    "translations": {}
  },
  {
    "id": 120991,
    "name": "Madison",
    "state_id": 1427,
    "state_code": "VA",
    "country_id": 233,
    "country_code": "US",
    "latitude": "38.38041000",
    "longitude": "-78.25750000",
    "native": null,
    "timezone": null,
    "translations": {}
  },
  {
    "id": 121013,
    "name": "Madison County",
    "state_id": 1427,
    "state_code": "VA",
    "country_id": 233,
    "country_code": "US",
    "latitude": "38.41369000",
    "longitude": "-78.27924000",
    "native": null,
    "timezone": null,
    "translations": {}
  },
  {
    "id": 121020,
    "name": "Madison Heights",
    "state_id": 1427,
    "state_code": "VA",
    "country_id": 233,
    "country_code": "US",
    "latitude": "37.43098000",
    "longitude": "-79.12308000",
    "native": null,
    "timezone": null,
    "translations": {}
  },
  {
    "id": 121082,
    "name": "Manassas",
    "state_id": 1427,
    "state_code": "VA",
    "country_id": 233,
    "country_code": "US",
    "latitude": "38.75094880",
    "longitude": "-77.47526670",
    "native": null,
    "timezone": null,
    "translations": {}
  },
  {
    "id": 121083,
    "name": "Manassas Park",
    "state_id": 1427,
    "state_code": "VA",
    "country_id": 233,
    "country_code": "US",
    "latitude": "38.76680200",
    "longitude": "-77.44200750",
    "native": null,
    "timezone": null,
    "translations": {}
  },
  {
    "id": 121160,
    "name": "Mantua",
    "state_id": 1427,
    "state_code": "VA",
    "country_id": 233,
    "country_code": "US",
    "latitude": "38.85372000",
    "longitude": "-77.25943000",
    "native": null,
    "timezone": null,
    "translations": {}
  },
  {
    "id": 121241,
    "name": "Marion",
    "state_id": 1427,
    "state_code": "VA",
    "country_id": 233,
    "country_code": "US",
    "latitude": "36.83484000",
    "longitude": "-81.51484000",
    "native": null,
    "timezone": null,
    "translations": {}
  },
  {
    "id": 121306,
    "name": "Marshall",
    "state_id": 1427,
    "state_code": "VA",
    "country_id": 233,
    "country_code": "US",
    "latitude": "38.86484000",
    "longitude": "-77.85777000",
    "native": null,
    "timezone": null,
    "translations": {}
  },
  {
    "id": 121350,
    "name": "Martinsville",
    "state_id": 1427,
    "state_code": "VA",
    "country_id": 233,
    "country_code": "US",
    "latitude": "36.69152620",
    "longitude": "-79.87253860",
    "native": null,
    "timezone": null,
    "translations": {}
  },
  {
    "id": 121389,
    "name": "Massanetta Springs",
    "state_id": 1427,
    "state_code": "VA",
    "country_id": 233,
    "country_code": "US",
    "latitude": "38.40040000",
    "longitude": "-78.83419000",
    "native": null,
    "timezone": null,
    "translations": {}
  },
  {
    "id": 121390,
    "name": "Massanutten",
    "state_id": 1427,
    "state_code": "VA",
    "country_id": 233,
    "country_code": "US",
    "latitude": "38.40957000",
    "longitude": "-78.73780000",
    "native": null,
    "timezone": null,
    "translations": {}
  },
  {
    "id": 121403,
    "name": "Mathews",
    "state_id": 1427,
    "state_code": "VA",
    "country_id": 233,
    "country_code": "US",
    "latitude": "37.43708000",
    "longitude": "-76.31994000",
    "native": null,
    "timezone": null,
    "translations": {}
  },
  {
    "id": 121404,
    "name": "Mathews County",
    "state_id": 1427,
    "state_code": "VA",
    "country_id": 233,
    "country_code": "US",
    "latitude": "37.41731000",
    "longitude": "-76.27129000",
    "native": null,
    "timezone": null,
    "translations": {}
  },
  {
    "id": 121406,
    "name": "Matoaca",
    "state_id": 1427,
    "state_code": "VA",
    "country_id": 233,
    "country_code": "US",
    "latitude": "37.23043000",
    "longitude": "-77.47749000",
    "native": null,
    "timezone": null,
    "translations": {}
  },
  {
    "id": 121527,
    "name": "McLean",
    "state_id": 1427,
    "state_code": "VA",
    "country_id": 233,
    "country_code": "US",
    "latitude": "38.93428000",
    "longitude": "-77.17748000",
    "native": null,
    "timezone": null,
    "translations": {}
  },
  {
    "id": 121566,
    "name": "Meadowbrook",
    "state_id": 1427,
    "state_code": "VA",
    "country_id": 233,
    "country_code": "US",
    "latitude": "37.44882000",
    "longitude": "-77.47353000",
    "native": null,
    "timezone": null,
    "translations": {}
  },
  {
    "id": 121583,
    "name": "Mechanicsville",
    "state_id": 1427,
    "state_code": "VA",
    "country_id": 233,
    "country_code": "US",
    "latitude": "37.60876000",
    "longitude": "-77.37331000",
    "native": null,
    "timezone": null,
    "translations": {}
  },
  {
    "id": 121588,
    "name": "Mecklenburg County",
    "state_id": 1427,
    "state_code": "VA",
    "country_id": 233,
    "country_code": "US",
    "latitude": "36.68036000",
    "longitude": "-78.36273000",
    "native": null,
    "timezone": null,
    "translations": {}
  },
  {
    "id": 121706,
    "name": "Merrifield",
    "state_id": 1427,
    "state_code": "VA",
    "country_id": 233,
    "country_code": "US",
    "latitude": "38.87428000",
    "longitude": "-77.22693000",
    "native": null,
    "timezone": null,
    "translations": {}
  },
  {
    "id": 121709,
    "name": "Merrimac",
    "state_id": 1427,
    "state_code": "VA",
    "country_id": 233,
    "country_code": "US",
    "latitude": "37.18957000",
    "longitude": "-80.42561000",
    "native": null,
    "timezone": null,
    "translations": {}
  },
  {
    "id": 121778,
    "name": "Middlesex County",
    "state_id": 1427,
    "state_code": "VA",
    "country_id": 233,
    "country_code": "US",
    "latitude": "37.59737000",
    "longitude": "-76.57814000",
    "native": null,
    "timezone": null,
    "translations": {}
  },
  {
    "id": 121789,
    "name": "Middletown",
    "state_id": 1427,
    "state_code": "VA",
    "country_id": 233,
    "country_code": "US",
    "latitude": "39.02761000",
    "longitude": "-78.28056000",
    "native": null,
    "timezone": null,
    "translations": {}
  },
  {
    "id": 122105,
    "name": "Montclair",
    "state_id": 1427,
    "state_code": "VA",
    "country_id": 233,
    "country_code": "US",
    "latitude": "38.61095000",
    "longitude": "-77.33971000",
    "native": null,
    "timezone": null,
    "translations": {}
  },
  {
    "id": 122119,
    "name": "Monterey",
    "state_id": 1427,
    "state_code": "VA",
    "country_id": 233,
    "country_code": "US",
    "latitude": "38.41234000",
    "longitude": "-79.58060000",
    "native": null,
    "timezone": null,
    "translations": {}
  },
  {
    "id": 122151,
    "name": "Montgomery County",
    "state_id": 1427,
    "state_code": "VA",
    "country_id": 233,
    "country_code": "US",
    "latitude": "37.17404000",
    "longitude": "-80.38700000",
    "native": null,
    "timezone": null,
    "translations": {}
  },
  {
    "id": 122179,
    "name": "Montrose",
    "state_id": 1427,
    "state_code": "VA",
    "country_id": 233,
    "country_code": "US",
    "latitude": "37.52070000",
    "longitude": "-77.37831000",
    "native": null,
    "timezone": null,
    "translations": {}
  },
  {
    "id": 122186,
    "name": "Montross",
    "state_id": 1427,
    "state_code": "VA",
    "country_id": 233,
    "country_code": "US",
    "latitude": "38.09513000",
    "longitude": "-76.82746000",
    "native": null,
    "timezone": null,
    "translations": {}
  },
  {
    "id": 122310,
    "name": "Motley",
    "state_id": 1427,
    "state_code": "VA",
    "country_id": 233,
    "country_code": "US",
    "latitude": "37.06959000",
    "longitude": "-79.34114000",
    "native": null,
    "timezone": null,
    "translations": {}
  },
  {
    "id": 122346,
    "name": "Mount Hermon",
    "state_id": 1427,
    "state_code": "VA",
    "country_id": 233,
    "country_code": "US",
    "latitude": "36.67847000",
    "longitude": "-79.42225000",
    "native": null,
    "timezone": null,
    "translations": {}
  },
  {
    "id": 122357,
    "name": "Mount Jackson",
    "state_id": 1427,
    "state_code": "VA",
    "country_id": 233,
    "country_code": "US",
    "latitude": "38.74595000",
    "longitude": "-78.64224000",
    "native": null,
    "timezone": null,
    "translations": {}
  },
  {
    "id": 122404,
    "name": "Mount Vernon",
    "state_id": 1427,
    "state_code": "VA",
    "country_id": 233,
    "country_code": "US",
    "latitude": "38.71919000",
    "longitude": "-77.10726000",
    "native": null,
    "timezone": null,
    "translations": {}
  },
  {
    "id": 122426,
    "name": "Mountain Road",
    "state_id": 1427,
    "state_code": "VA",
    "country_id": 233,
    "country_code": "US",
    "latitude": "36.75958000",
    "longitude": "-78.98696000",
    "native": null,
    "timezone": null,
    "translations": {}
  },
  {
    "id": 122566,
    "name": "Narrows",
    "state_id": 1427,
    "state_code": "VA",
    "country_id": 233,
    "country_code": "US",
    "latitude": "37.33151000",
    "longitude": "-80.81119000",
    "native": null,
    "timezone": null,
    "translations": {}
  },
  {
    "id": 122623,
    "name": "Nellysford",
    "state_id": 1427,
    "state_code": "VA",
    "country_id": 233,
    "country_code": "US",
    "latitude": "37.89042000",
    "longitude": "-78.87224000",
    "native": null,
    "timezone": null,
    "translations": {}
  },
  {
    "id": 122627,
    "name": "Nelson County",
    "state_id": 1427,
    "state_code": "VA",
    "country_id": 233,
    "country_code": "US",
    "latitude": "37.78741000",
    "longitude": "-78.88676000",
    "native": null,
    "timezone": null,
    "translations": {}
  },
  {
    "id": 122659,
    "name": "New Baltimore",
    "state_id": 1427,
    "state_code": "VA",
    "country_id": 233,
    "country_code": "US",
    "latitude": "38.76734000",
    "longitude": "-77.72833000",
    "native": null,
    "timezone": null,
    "translations": {}
  },
  {
    "id": 122686,
    "name": "New Castle",
    "state_id": 1427,
    "state_code": "VA",
    "country_id": 233,
    "country_code": "US",
    "latitude": "37.50013000",
    "longitude": "-80.11088000",
    "native": null,
    "timezone": null,
    "translations": {}
  },
  {
    "id": 122734,
    "name": "New Kent",
    "state_id": 1427,
    "state_code": "VA",
    "country_id": 233,
    "country_code": "US",
    "latitude": "37.51765000",
    "longitude": "-76.97886000",
    "native": null,
    "timezone": null,
    "translations": {}
  },
  {
    "id": 122735,
    "name": "New Kent County",
    "state_id": 1427,
    "state_code": "VA",
    "country_id": 233,
    "country_code": "US",
    "latitude": "37.50514000",
    "longitude": "-76.99713000",
    "native": null,
    "timezone": null,
    "translations": {}
  },
  {
    "id": 122751,
    "name": "New Market",
    "state_id": 1427,
    "state_code": "VA",
    "country_id": 233,
    "country_code": "US",
    "latitude": "38.64790000",
    "longitude": "-78.67141000",
    "native": null,
    "timezone": null,
    "translations": {}
  },
  {
    "id": 122830,
    "name": "Newington",
    "state_id": 1427,
    "state_code": "VA",
    "country_id": 233,
    "country_code": "US",
    "latitude": "38.73845000",
    "longitude": "-77.18498000",
    "native": null,
    "timezone": null,
    "translations": {}
  },
  {
    "id": 122856,
    "name": "Newport News",
    "state_id": 1427,
    "state_code": "VA",
    "country_id": 233,
    "country_code": "US",
    "latitude": "37.08339000",
    "longitude": "-76.46965000",
    "native": null,
    "timezone": null,
    "translations": {}
  },
  {
    "id": 122928,
    "name": "Nokesville",
    "state_id": 1427,
    "state_code": "VA",
    "country_id": 233,
    "country_code": "US",
    "latitude": "38.69873000",
    "longitude": "-77.57971000",
    "native": null,
    "timezone": null,
    "translations": {}
  },
  {
    "id": 122941,
    "name": "Norfolk",
    "state_id": 1427,
    "state_code": "VA",
    "country_id": 233,
    "country_code": "US",
    "latitude": "36.84681000",
    "longitude": "-76.28522000",
    "native": null,
    "timezone": null,
    "translations": {}
  },
  {
    "id": 123105,
    "name": "North Shore",
    "state_id": 1427,
    "state_code": "VA",
    "country_id": 233,
    "country_code": "US",
    "latitude": "37.08209000",
    "longitude": "-79.65836000",
    "native": null,
    "timezone": null,
    "translations": {}
  },
  {
    "id": 123110,
    "name": "North Springfield",
    "state_id": 1427,
    "state_code": "VA",
    "country_id": 233,
    "country_code": "US",
    "latitude": "38.80428000",
    "longitude": "-77.20470000",
    "native": null,
    "timezone": null,
    "translations": {}
  },
  {
    "id": 123137,
    "name": "Northampton County",
    "state_id": 1427,
    "state_code": "VA",
    "country_id": 233,
    "country_code": "US",
    "latitude": "37.30078000",
    "longitude": "-75.92854000",
    "native": null,
    "timezone": null,
    "translations": {}
  },
  {
    "id": 123167,
    "name": "Northumberland County",
    "state_id": 1427,
    "state_code": "VA",
    "country_id": 233,
    "country_code": "US",
    "latitude": "37.88244000",
    "longitude": "-76.47171000",
    "native": null,
    "timezone": null,
    "translations": {}
  },
  {
    "id": 123183,
    "name": "Norton",
    "state_id": 1427,
    "state_code": "VA",
    "country_id": 233,
    "country_code": "US",
    "latitude": "36.93369340",
    "longitude": "-82.62989650",
    "native": null,
    "timezone": null,
    "translations": {}
  },
  {
    "id": 123206,
    "name": "Nottoway County",
    "state_id": 1427,
    "state_code": "VA",
    "country_id": 233,
    "country_code": "US",
    "latitude": "37.14306000",
    "longitude": "-78.05126000",
    "native": null,
    "timezone": null,
    "translations": {}
  },
  {
    "id": 123238,
    "name": "Oak Grove",
    "state_id": 1427,
    "state_code": "VA",
    "country_id": 233,
    "country_code": "US",
    "latitude": "38.98400000",
    "longitude": "-77.40388000",
    "native": null,
    "timezone": null,
    "translations": {}
  },
  {
    "id": 123246,
    "name": "Oak Hill",
    "state_id": 1427,
    "state_code": "VA",
    "country_id": 233,
    "country_code": "US",
    "latitude": "38.92580000",
    "longitude": "-77.40156000",
    "native": null,
    "timezone": null,
    "translations": {}
  },
  {
    "id": 123305,
    "name": "Oakton",
    "state_id": 1427,
    "state_code": "VA",
    "country_id": 233,
    "country_code": "US",
    "latitude": "38.88095000",
    "longitude": "-77.30082000",
    "native": null,
    "timezone": null,
    "translations": {}
  },
  {
    "id": 123322,
    "name": "Occoquan",
    "state_id": 1427,
    "state_code": "VA",
    "country_id": 233,
    "country_code": "US",
    "latitude": "38.68373000",
    "longitude": "-77.26026000",
    "native": null,
    "timezone": null,
    "translations": {}
  },
  {
    "id": 123469,
    "name": "Onancock",
    "state_id": 1427,
    "state_code": "VA",
    "country_id": 233,
    "country_code": "US",
    "latitude": "37.71180000",
    "longitude": "-75.74910000",
    "native": null,
    "timezone": null,
    "translations": {}
  },
  {
    "id": 123506,
    "name": "Orange",
    "state_id": 1427,
    "state_code": "VA",
    "country_id": 233,
    "country_code": "US",
    "latitude": "38.24541000",
    "longitude": "-78.11083000",
    "native": null,
    "timezone": null,
    "translations": {}
  },
  {
    "id": 123518,
    "name": "Orange County",
    "state_id": 1427,
    "state_code": "VA",
    "country_id": 233,
    "country_code": "US",
    "latitude": "38.24624000",
    "longitude": "-78.01349000",
    "native": null,
    "timezone": null,
    "translations": {}
  },
  {
    "id": 123718,
    "name": "Page County",
    "state_id": 1427,
    "state_code": "VA",
    "country_id": 233,
    "country_code": "US",
    "latitude": "38.61998000",
    "longitude": "-78.48413000",
    "native": null,
    "timezone": null,
    "translations": {}
  },
  {
    "id": 123773,
    "name": "Palmyra",
    "state_id": 1427,
    "state_code": "VA",
    "country_id": 233,
    "country_code": "US",
    "latitude": "37.86097000",
    "longitude": "-78.26334000",
    "native": null,
    "timezone": null,
    "translations": {}
  },
  {
    "id": 123802,
    "name": "Pannill Fork",
    "state_id": 1427,
    "state_code": "VA",
    "country_id": 233,
    "country_code": "US",
    "latitude": "36.70903000",
    "longitude": "-80.01310000",
    "native": null,
    "timezone": null,
    "translations": {}
  },
  {
    "id": 123809,
    "name": "Pantops",
    "state_id": 1427,
    "state_code": "VA",
    "country_id": 233,
    "country_code": "US",
    "latitude": "38.03379000",
    "longitude": "-78.45507000",
    "native": null,
    "timezone": null,
    "translations": {}
  },
  {
    "id": 123909,
    "name": "Passapatanzy",
    "state_id": 1427,
    "state_code": "VA",
    "country_id": 233,
    "country_code": "US",
    "latitude": "38.29735000",
    "longitude": "-77.31415000",
    "native": null,
    "timezone": null,
    "translations": {}
  },
  {
    "id": 123912,
    "name": "Patrick County",
    "state_id": 1427,
    "state_code": "VA",
    "country_id": 233,
    "country_code": "US",
    "latitude": "36.67833000",
    "longitude": "-80.28435000",
    "native": null,
    "timezone": null,
    "translations": {}
  },
  {
    "id": 123913,
    "name": "Patrick Springs",
    "state_id": 1427,
    "state_code": "VA",
    "country_id": 233,
    "country_code": "US",
    "latitude": "36.64180000",
    "longitude": "-80.19505000",
    "native": null,
    "timezone": null,
    "translations": {}
  },
  {
    "id": 123962,
    "name": "Pearisburg",
    "state_id": 1427,
    "state_code": "VA",
    "country_id": 233,
    "country_code": "US",
    "latitude": "37.32673000",
    "longitude": "-80.73702000",
    "native": null,
    "timezone": null,
    "translations": {}
  },
  {
    "id": 124006,
    "name": "Pembroke",
    "state_id": 1427,
    "state_code": "VA",
    "country_id": 233,
    "country_code": "US",
    "latitude": "37.31957000",
    "longitude": "-80.63895000",
    "native": null,
    "timezone": null,
    "translations": {}
  },
  {
    "id": 124032,
    "name": "Pennington Gap",
    "state_id": 1427,
    "state_code": "VA",
    "country_id": 233,
    "country_code": "US",
    "latitude": "36.75842000",
    "longitude": "-83.02711000",
    "native": null,
    "timezone": null,
    "translations": {}
  },
  {
    "id": 124105,
    "name": "Petersburg",
    "state_id": 1427,
    "state_code": "VA",
    "country_id": 233,
    "country_code": "US",
    "latitude": "37.22792800",
    "longitude": "-77.40192680",
    "native": null,
    "timezone": null,
    "translations": {}
  },
  {
    "id": 124205,
    "name": "Pimmit Hills",
    "state_id": 1427,
    "state_code": "VA",
    "country_id": 233,
    "country_code": "US",
    "latitude": "38.91289000",
    "longitude": "-77.20081000",
    "native": null,
    "timezone": null,
    "translations": {}
  },