[
  {
    "id": 749,
    "name": "Famagusta (Mağusa)",
    "country_id": 57,
    "country_code": "CY",
    "fips_code": null,
    "iso2": "04",
    "type": "district",
    "latitude": "35.13521370",
    "longitude": "33.92398310",
    "native": "Αμμάγκουστ (Αμμάγκουστε)",
    "timezone": "Asia/Famagusta",
    "translations": {}
  },
  {
    "id": 744,
    "name": "Kyrenia (Keryneia)",
    "country_id": 57,
    "country_code": "CY",
    "fips_code": null,
    "iso2": "06",
    "type": "district",
    "latitude": "35.29514810",
    "longitude": "33.27691550",
    "native": "Kyrenia (Keryneia)",
    "timezone": "Asia/Famagusta",
    "translations": {}
  },
  {
    "id": 747,
    "name": "Larnaca (Larnaka)",
    "country_id": 57,
    "country_code": "CY",
    "fips_code": null,
    "iso2": "03",
    "type": "district",
    "latitude": "34.86974840",
    "longitude": "33.60920970",
    "native": "Larnaca (Larnaka)",
    "timezone": "Asia/Nicosia",
    "translations": {}
  },
  {
    "id": 748,
    "name": "Limassol (Leymasun)",
    "country_id": 57,
    "country_code": "CY",
    "fips_code": null,
    "iso2": "02",
    "type": "district",
    "latitude": "34.69114850",
    "longitude": "33.00783840",
    "native": "Λεουμασό (Leymasun)",
    "timezone": "Asia/Nicosia",
    "translations": {}
  },
  {
    "id": 745,
    "name": "Nicosia (Lefkoşa)",
    "country_id": 57,
    "country_code": "CY",
    "fips_code": null,
    "iso2": "01",
    "type": "district",
    "latitude": "35.15654640",
    "longitude": "33.37056260",
    "native": "Λευκωσία (Λευκωσία)",
    "timezone": "Asia/Nicosia",
    "translations": {}
  },
  {
    "id": 746,
    "name": "Paphos (Pafos)",
    "country_id": 57,
    "country_code": "CY",
    "fips_code": null,
    "iso2": "05",
    "type": "district",
    "latitude": "34.78129780",
    "longitude": "32.42140970",
    "native": "Paphos (PAFOS)",
    "timezone": "Asia/Nicosia",
    "translations": {}
  }
]