[
  {
    "id": 149086,
    "name": "Banda",
    "state_id": 4959,
    "state_code": "BO",
    "country_id": 83,
    "country_code": "GH",
    "latitude": "8.14956710",
    "longitude": "-2.36639500",
    "native": null,
    "timezone": null,
    "translations": {}
  },
  {
    "id": 149087,
    "name": "Berekum East",
    "state_id": 4959,
    "state_code": "BO",
    "country_id": 83,
    "country_code": "GH",
    "latitude": "7.43846190",
    "longitude": "-2.60295780",
    "native": null,
    "timezone": null,
    "translations": {}
  },
  {
    "id": 149088,
    "name": "Berekum West",
    "state_id": 4959,
    "state_code": "BO",
    "country_id": 83,
    "country_code": "GH",
    "latitude": "7.43934160",
    "longitude": "-2.65497050",
    "native": null,
    "timezone": null,
    "translations": {}
  },
  {
    "id": 149089,
    "name": "Dormaa Central",
    "state_id": 4959,
    "state_code": "BO",
    "country_id": 83,
    "country_code": "GH",
    "latitude": "7.27750000",
    "longitude": "-2.87833300",
    "native": null,
    "timezone": null,
    "translations": {}
  },
  {
    "id": 149090,
    "name": "Dormaa East",
    "state_id": 4959,
    "state_code": "BO",
    "country_id": 83,
    "country_code": "GH",
    "latitude": "7.30000000",
    "longitude": "-2.70000000",
    "native": null,
    "timezone": null,
    "translations": {}
  },
  {
    "id": 149091,
    "name": "Dormaa West",
    "state_id": 4959,
    "state_code": "BO",
    "country_id": 83,
    "country_code": "GH",
    "latitude": "7.01666700",
    "longitude": "-3.05000000",
    "native": null,
    "timezone": null,
    "translations": {}
  },
  {
    "id": 149092,
    "name": "Jaman North",
    "state_id": 4959,
    "state_code": "BO",
    "country_id": 83,
    "country_code": "GH",
    "latitude": "7.98832340",
    "longitude": "-2.96858690",
    "native": null,
    "timezone": null,
    "translations": {}
  },
  {
    "id": 149093,
    "name": "Jaman South",
    "state_id": 4959,
    "state_code": "BO",
    "country_id": 83,
    "country_code": "GH",
    "latitude": "7.70843750",
    "longitude": "-3.07501700",
    "native": null,
    "timezone": null,
    "translations": {}
  },
  {
    "id": 149094,
    "name": "Sunyani",
    "state_id": 4959,
    "state_code": "BO",
    "country_id": 83,
    "country_code": "GH",
    "latitude": "7.33803320",
    "longitude": "-2.34871460",
    "native": null,
    "timezone": null,
    "translations": {}
  },
  {
    "id": 149095,
    "name": "Sunyani West",
    "state_id": 4959,
    "state_code": "BO",
    "country_id": 83,
    "country_code": "GH",
    "latitude": "7.35660520",
    "longitude": "-2.44618620",
    "native": null,
    "timezone": null,
    "translations": {}
  },
  {
    "id": 149096,
    "name": "Tain",
    "state_id": 4959,
    "state_code": "BO",
    "country_id": 83,
    "country_code": "GH",
    "latitude": "8.18114110",
    "longitude": "-2.86487620",
    "native": null,
    "timezone": null,
    "translations": {}
  },
  {
    "id": 149097,
    "name": "Wenchi",
    "state_id": 4959,
    "state_code": "BO",
    "country_id": 83,
    "country_code": "GH",
    "latitude": "7.74059920",
    "longitude": "-2.12267880",
    "native": null,
    "timezone": null,
    "translations": {}
  }
]