[
  {
    "id": 150879,
    "name": "Ahmadsargurab",
    "state_id": 3920,
    "state_code": "01",
    "country_id": 103,
    "country_code": "IR",
    "latitude": "37.12805600",
    "longitude": "49.36666700",
    "native": null,
    "timezone": null,
    "translations": {}
  },
  {
    "id": 150860,
    "name": "Amlash",
    "state_id": 3920,
    "state_code": "01",
    "country_id": 103,
    "country_code": "IR",
    "latitude": "37.09246800",
    "longitude": "50.17314410",
    "native": null,
    "timezone": null,
    "translations": {}
  },
  {
    "id": 150883,
    "name": "Asalem",
    "state_id": 3920,
    "state_code": "01",
    "country_id": 103,
    "country_code": "IR",
    "latitude": "37.72003980",
    "longitude": "48.92658170",
    "native": null,
    "timezone": null,
    "translations": {}
  },
  {
    "id": 135154,
    "name": "Astaneh-ye Ashrafiyeh",
    "state_id": 3920,
    "state_code": "01",
    "country_id": 103,
    "country_code": "IR",
    "latitude": "37.26318000",
    "longitude": "49.94325000",
    "native": null,
    "timezone": null,
    "translations": {}
  },
  {
    "id": 135087,
    "name": "astara",
    "state_id": 3920,
    "state_code": "01",
    "country_id": 103,
    "country_code": "IR",
    "latitude": "38.33333000",
    "longitude": "48.76667000",
    "native": null,
    "timezone": null,
    "translations": {}
  },
  {
    "id": 134578,
    "name": "Bandar Anzali",
    "state_id": 3920,
    "state_code": "01",
    "country_id": 103,
    "country_code": "IR",
    "latitude": "37.47318000",
    "longitude": "49.45785000",
    "native": null,
    "timezone": null,
    "translations": {}
  },
  {
    "id": 150869,
    "name": "Barehsar",
    "state_id": 3920,
    "state_code": "01",
    "country_id": 103,
    "country_code": "IR",
    "latitude": "36.77599100",
    "longitude": "49.74575040",
    "native": null,
    "timezone": null,
    "translations": {}
  },
  {
    "id": 150894,
    "name": "Bazar Jomeh",
    "state_id": 3920,
    "state_code": "01",
    "country_id": 103,
    "country_code": "IR",
    "latitude": "37.27945660",
    "longitude": "49.37436040",
    "native": null,
    "timezone": null,
    "translations": {}
  },
  {
    "id": 150874,
    "name": "Chaboksar",
    "state_id": 3920,
    "state_code": "01",
    "country_id": 103,
    "country_code": "IR",
    "latitude": "36.97505830",
    "longitude": "50.54664930",
    "native": null,
    "timezone": null,
    "translations": {}
  },
  {
    "id": 150891,
    "name": "Chaf and Chamkhaleh",
    "state_id": 3920,
    "state_code": "01",
    "country_id": 103,
    "country_code": "IR",
    "latitude": "37.22944400",
    "longitude": "50.25388900",
    "native": null,
    "timezone": null,
    "translations": {}
  },
  {
    "id": 150884,
    "name": "Choobar",
    "state_id": 3920,
    "state_code": "01",
    "country_id": 103,
    "country_code": "IR",
    "latitude": "38.18351690",
    "longitude": "48.87027790",
    "native": null,
    "timezone": null,
    "translations": {}
  },
  {
    "id": 150878,
    "name": "Deylaman",
    "state_id": 3920,
    "state_code": "01",
    "country_id": 103,
    "country_code": "IR",
    "latitude": "36.88609010",
    "longitude": "49.90029930",
    "native": null,
    "timezone": null,
    "translations": {}
  },
  {
    "id": 134877,
    "name": "Fuman",
    "state_id": 3920,
    "state_code": "01",
    "country_id": 103,
    "country_code": "IR",
    "latitude": "37.16667000",
    "longitude": "49.18333000",
    "native": null,
    "timezone": null,
    "translations": {}
  },
  {
    "id": 150881,
    "name": "Gurab Zarmikh",
    "state_id": 3920,
    "state_code": "01",
    "country_id": 103,
    "country_code": "IR",
    "latitude": "37.29829280",
    "longitude": "49.20505980",
    "native": null,
    "timezone": null,
    "translations": {}
  },
  {
    "id": 134653,
    "name": "Hashtpar",
    "state_id": 3920,
    "state_code": "01",
    "country_id": 103,
    "country_code": "IR",
    "latitude": "37.79658000",
    "longitude": "48.90521000",
    "native": null,
    "timezone": null,
    "translations": {}
  },
  {
    "id": 150885,
    "name": "Haviq",
    "state_id": 3920,
    "state_code": "01",
    "country_id": 103,
    "country_code": "IR",
    "latitude": "38.14750000",
    "longitude": "48.89222200",
    "native": null,
    "timezone": null,
    "translations": {}
  },
  {
    "id": 150871,
    "name": "Jirindih",
    "state_id": 3920,
    "state_code": "01",
    "country_id": 103,
    "country_code": "IR",
    "latitude": "36.70054440",
    "longitude": "49.78016850",
    "native": null,
    "timezone": null,
    "translations": {}
  },
  {
    "id": 150876,
    "name": "Kelachay",
    "state_id": 3920,
    "state_code": "01",
    "country_id": 103,
    "country_code": "IR",
    "latitude": "37.07707330",
    "longitude": "50.38030730",
    "native": null,
    "timezone": null,
    "translations": {}
  },
  {
    "id": 150863,
    "name": "Khomam",
    "state_id": 3920,
    "state_code": "01",
    "country_id": 103,
    "country_code": "IR",
    "latitude": "37.38749490",
    "longitude": "49.63949190",
    "native": null,
    "timezone": null,
    "translations": {}
  },
  {
    "id": 150862,
    "name": "Khoshkebijar",
    "state_id": 3920,
    "state_code": "01",
    "country_id": 103,
    "country_code": "IR",
    "latitude": "37.37479300",
    "longitude": "49.73922700",
    "native": null,
    "timezone": null,
    "translations": {}
  },
  {
    "id": 150859,
    "name": "Kiashahr",
    "state_id": 3920,
    "state_code": "01",
    "country_id": 103,
    "country_code": "IR",
    "latitude": "37.41682790",
    "longitude": "49.92925590",
    "native": null,
    "timezone": null,
    "translations": {}
  },
  {
    "id": 150865,
    "name": "Kuchesfahan",
    "state_id": 3920,
    "state_code": "01",
    "country_id": 103,
    "country_code": "IR",
    "latitude": "37.27838040",
    "longitude": "49.76859950",
    "native": null,
    "timezone": null,
    "translations": {}
  },
  {
    "id": 150893,
    "name": "Kumeleh",
    "state_id": 3920,
    "state_code": "01",
    "country_id": 103,
    "country_code": "IR",
    "latitude": "37.15277800",
    "longitude": "50.17694400",
    "native": null,
    "timezone": null,
    "translations": {}
  },
  {
    "id": 134944,
    "name": "Lahijan",
    "state_id": 3920,
    "state_code": "01",
    "country_id": 103,
    "country_code": "IR",
    "latitude": "37.21667000",
    "longitude": "50.01667000",
    "native": null,
    "timezone": null,
    "translations": {}
  },
  {
    "id": 134689,
    "name": "Langarud",
    "state_id": 3920,
    "state_code": "01",
    "country_id": 103,
    "country_code": "IR",
    "latitude": "37.19548000",
    "longitude": "50.15263000",
    "native": null,
    "timezone": null,
    "translations": {}
  },
  {
    "id": 150866,
    "name": "Lasht-e Nesha",
    "state_id": 3920,
    "state_code": "01",
    "country_id": 103,
    "country_code": "IR",
    "latitude": "37.36018660",
    "longitude": "49.84508860",
    "native": null,
    "timezone": null,
    "translations": {}
  },
  {
    "id": 150858,
    "name": "Lavandvil",
    "state_id": 3920,
    "state_code": "01",
    "country_id": 103,
    "country_code": "IR",
    "latitude": "38.30771640",
    "longitude": "48.84607290",
    "native": null,
    "timezone": null,
    "translations": {}
  },
  {
    "id": 150886,
    "name": "Lisar",
    "state_id": 3920,
    "state_code": "01",
    "country_id": 103,
    "country_code": "IR",
    "latitude": "37.95806970",
    "longitude": "48.88967500",
    "native": null,
    "timezone": null,
    "translations": {}
  },
  {
    "id": 150867,
    "name": "Louleman",
    "state_id": 3920,
    "state_code": "01",
    "country_id": 103,
    "country_code": "IR",
    "latitude": "37.25747920",
    "longitude": "49.80743050",
    "native": null,
    "timezone": null,
    "translations": {}
  },
  {
    "id": 150873,
    "name": "Lowshan",
    "state_id": 3920,
    "state_code": "01",
    "country_id": 103,
    "country_code": "IR",
    "latitude": "36.63216940",
    "longitude": "49.49772640",
    "native": null,
    "timezone": null,
    "translations": {}
  },
  {
    "id": 150888,
    "name": "Maklavan",
    "state_id": 3920,
    "state_code": "01",
    "country_id": 103,
    "country_code": "IR",
    "latitude": "37.19555600",
    "longitude": "49.19861100",
    "native": null,
    "timezone": null,
    "translations": {}
  },
  {
    "id": 134730,
    "name": "Manjil",
    "state_id": 3920,
    "state_code": "01",
    "country_id": 103,
    "country_code": "IR",
    "latitude": "36.74150000",
    "longitude": "49.41610000",
    "native": null,
    "timezone": null,
    "translations": {}
  },
  {
    "id": 150882,
    "name": "Marjaghal",
    "state_id": 3920,
    "state_code": "01",
    "country_id": 103,
    "country_code": "IR",
    "latitude": "37.27555600",
    "longitude": "49.36277800",
    "native": null,
    "timezone": null,
    "translations": {}
  },
  {
    "id": 134969,
    "name": "Masal",
    "state_id": 3920,
    "state_code": "01",
    "country_id": 103,
    "country_code": "IR",
    "latitude": "37.35000000",
    "longitude": "48.98333000",
    "native": null,
    "timezone": null,
    "translations": {}
  },
  {
    "id": 150887,
    "name": "Masuleh",
    "state_id": 3920,
    "state_code": "01",
    "country_id": 103,
    "country_code": "IR",
    "latitude": "37.15699680",
    "longitude": "48.97589190",
    "native": null,
    "timezone": null,
    "translations": {}
  },
  {
    "id": 150890,
    "name": "Otaghvar",
    "state_id": 3920,
    "state_code": "01",
    "country_id": 103,
    "country_code": "IR",
    "latitude": "37.10889440",
    "longitude": "50.11271960",
    "native": null,
    "timezone": null,
    "translations": {}
  },
  {
    "id": 150868,
    "name": "Paresar",
    "state_id": 3920,
    "state_code": "01",
    "country_id": 103,
    "country_code": "IR",
    "latitude": "37.60172960",
    "longitude": "49.06391210",
    "native": null,
    "timezone": null,
    "translations": {}
  },
  {
    "id": 150875,
    "name": "Rahimabad",
    "state_id": 3920,
    "state_code": "01",
    "country_id": 103,
    "country_code": "IR",
    "latitude": "37.02874220",
    "longitude": "50.32571940",
    "native": null,
    "timezone": null,
    "translations": {}
  },
  {
    "id": 150861,
    "name": "Ranekouh",
    "state_id": 3920,
    "state_code": "01",
    "country_id": 103,
    "country_code": "IR",
    "latitude": "37.05229690",
    "longitude": "50.21790480",
    "native": null,
    "timezone": null,
    "translations": {}
  },
  {
    "id": 134749,
    "name": "Rasht",
    "state_id": 3920,
    "state_code": "01",
    "country_id": 103,
    "country_code": "IR",
    "latitude": "37.27611000",
    "longitude": "49.58862000",
    "native": null,
    "timezone": null,
    "translations": {}
  },
  {
    "id": 134753,
    "name": "Rezvanshahr",
    "state_id": 3920,
    "state_code": "01",
    "country_id": 103,
    "country_code": "IR",
    "latitude": "37.54976000",
    "longitude": "49.13703000",
    "native": null,
    "timezone": null,
    "translations": {}
  },
  {
    "id": 150889,
    "name": "Rod Baneh",
    "state_id": 3920,
    "state_code": "01",
    "country_id": 103,
    "country_code": "IR",
    "latitude": "37.25551520",
    "longitude": "50.00032430",
    "native": null,
    "timezone": null,
    "translations": {}
  },
  {
    "id": 150872,
    "name": "Rostamabad",
    "state_id": 3920,
    "state_code": "01",
    "country_id": 103,
    "country_code": "IR",
    "latitude": "36.89948990",
    "longitude": "49.47362410",
    "native": null,
    "timezone": null,
    "translations": {}
  },
  {
    "id": 135017,
    "name": "Rudbar",
    "state_id": 3920,
    "state_code": "01",
    "country_id": 103,
    "country_code": "IR",
    "latitude": "36.80000000",
    "longitude": "49.60000000",
    "native": null,
    "timezone": null,
    "translations": {}
  },
  {
    "id": 134761,
    "name": "Rudsar",
    "state_id": 3920,
    "state_code": "01",
    "country_id": 103,
    "country_code": "IR",
    "latitude": "37.13696000",
    "longitude": "50.29174000",
    "native": null,
    "timezone": null,
    "translations": {}
  },
  {
    "id": 150864,
    "name": "Sangar",
    "state_id": 3920,
    "state_code": "01",
    "country_id": 103,
    "country_code": "IR",
    "latitude": "37.17965610",
    "longitude": "49.68532780",
    "native": null,
    "timezone": null,
    "translations": {}
  },
  {
    "id": 150880,
    "name": "Shaft",
    "state_id": 3920,
    "state_code": "01",
    "country_id": 103,
    "country_code": "IR",
    "latitude": "37.06483110",
    "longitude": "49.17771370",
    "native": null,
    "timezone": null,
    "translations": {}
  },
  {
    "id": 150892,
    "name": "Shalman",
    "state_id": 3920,
    "state_code": "01",
    "country_id": 103,
    "country_code": "IR",
    "latitude": "37.15916990",
    "longitude": "50.20692950",
    "native": null,
    "timezone": null,
    "translations": {}
  },
  {
    "id": 135055,
    "name": "Siahkal",
    "state_id": 3920,
    "state_code": "01",
    "country_id": 103,
    "country_code": "IR",
    "latitude": "36.93333000",
    "longitude": "49.90000000",
    "native": null,
    "timezone": null,
    "translations": {}
  },
  {
    "id": 135095,
    "name": "Someh Sara",
    "state_id": 3920,
    "state_code": "01",
    "country_id": 103,
    "country_code": "IR",
    "latitude": "37.33333000",
    "longitude": "49.30000000",
    "native": null,
    "timezone": null,
    "translations": {}
  },
  {
    "id": 135065,
    "name": "Talesh",
    "state_id": 3920,
    "state_code": "01",
    "country_id": 103,
    "country_code": "IR",
    "latitude": "37.90000000",
    "longitude": "48.78333000",
    "native": null,
    "timezone": null,
    "translations": {}
  },
  {
    "id": 150870,
    "name": "Tutkabon",
    "state_id": 3920,
    "state_code": "01",
    "country_id": 103,
    "country_code": "IR",
    "latitude": "36.89090440",
    "longitude": "49.52147480",
    "native": null,
    "timezone": null,
    "translations": {}
  },
  {
    "id": 150877,
    "name": "Vajargah",
    "state_id": 3920,
    "state_code": "01",
    "country_id": 103,
    "country_code": "IR",
    "latitude": "37.04083300",
    "longitude": "50.40861100",
    "native": null,
    "timezone": null,
    "translations": {}
  },
  {
    "id": 135146,
    "name": "Ziabar",
    "state_id": 3920,
    "state_code": "01",
    "country_id": 103,
    "country_code": "IR",
    "latitude": "37.42610000",
    "longitude": "49.24590000",
    "native": null,
    "timezone": null,
    "translations": {}
  }
]