[
  {
    "id": 53448,
    "name": "Chicacao",
    "state_id": 3660,
    "state_code": "10",
    "country_id": 90,
    "country_code": "GT",
    "latitude": "14.54295000",
    "longitude": "-91.32636000",
    "native": null,
    "timezone": null,
    "translations": {}
  },
  {
    "id": 53478,
    "name": "Cuyotenango",
    "state_id": 3660,
    "state_code": "10",
    "country_id": 90,
    "country_code": "GT",
    "latitude": "14.54006000",
    "longitude": "-91.57179000",
    "native": null,
    "timezone": null,
    "translations": {}
  },
  {
    "id": 53532,
    "name": "Mazatenango",
    "state_id": 3660,
    "state_code": "10",
    "country_id": 90,
    "country_code": "GT",
    "latitude": "14.53417000",
    "longitude": "-91.50333000",
    "native": null,
    "timezone": null,
    "translations": {}
  },
  {
    "id": 53581,
    "name": "Municipio de San Antonio Suchitepéquez",
    "state_id": 3660,
    "state_code": "10",
    "country_id": 90,
    "country_code": "GT",
    "latitude": "14.51839000",
    "longitude": "-91.40438000",
    "native": null,
    "timezone": null,
    "translations": {}
  },
  {
    "id": 53587,
    "name": "Municipio de San Miguel Panán",
    "state_id": 3660,
    "state_code": "10",
    "country_id": 90,
    "country_code": "GT",
    "latitude": "14.50525000",
    "longitude": "-91.35956000",
    "native": null,
    "timezone": null,
    "translations": {}
  },
  {
    "id": 53590,
    "name": "Municipio de Santa Bárbara",
    "state_id": 3660,
    "state_code": "10",
    "country_id": 90,
    "country_code": "GT",
    "latitude": "14.47317000",
    "longitude": "-91.24688000",
    "native": null,
    "timezone": null,
    "translations": {}
  },
  {
    "id": 53624,
    "name": "Patulul",
    "state_id": 3660,
    "state_code": "10",
    "country_id": 90,
    "country_code": "GT",
    "latitude": "14.42321000",
    "longitude": "-91.16049000",
    "native": null,
    "timezone": null,
    "translations": {}
  },
  {
    "id": 53632,
    "name": "Pueblo Nuevo",
    "state_id": 3660,
    "state_code": "10",
    "country_id": 90,
    "country_code": "GT",
    "latitude": "14.64709000",
    "longitude": "-91.53946000",
    "native": null,
    "timezone": null,
    "translations": {}
  },
  {
    "id": 53643,
    "name": "Río Bravo",
    "state_id": 3660,
    "state_code": "10",
    "country_id": 90,
    "country_code": "GT",
    "latitude": "14.40042000",
    "longitude": "-91.31713000",
    "native": null,
    "timezone": null,
    "translations": {}
  },
  {
    "id": 53661,
    "name": "San Antonio Suchitepéquez",
    "state_id": 3660,
    "state_code": "10",
    "country_id": 90,
    "country_code": "GT",
    "latitude": "14.53938000",
    "longitude": "-91.41442000",
    "native": null,
    "timezone": null,
    "translations": {}
  },
  {
    "id": 53666,
    "name": "San Bernardino",
    "state_id": 3660,
    "state_code": "10",
    "country_id": 90,
    "country_code": "GT",
    "latitude": "14.54240000",
    "longitude": "-91.45811000",
    "native": null,
    "timezone": null,
    "translations": {}
  },
  {
    "id": 53675,
    "name": "San Francisco Zapotitlán",
    "state_id": 3660,
    "state_code": "10",
    "country_id": 90,
    "country_code": "GT",
    "latitude": "14.58939000",
    "longitude": "-91.52144000",
    "native": null,
    "timezone": null,
    "translations": {}
  },
  {
    "id": 53677,
    "name": "San Gabriel",
    "state_id": 3660,
    "state_code": "10",
    "country_id": 90,
    "country_code": "GT",
    "latitude": "14.51076000",
    "longitude": "-91.50745000",
    "native": null,
    "timezone": null,
    "translations": {}
  },
  {
    "id": 53684,
    "name": "San José El Ídolo",
    "state_id": 3660,
    "state_code": "10",
    "country_id": 90,
    "country_code": "GT",
    "latitude": "14.45016000",
    "longitude": "-91.42222000",
    "native": null,
    "timezone": null,
    "translations": {}
  },
  {
    "id": 53692,
    "name": "San Juan Bautista",
    "state_id": 3660,
    "state_code": "10",
    "country_id": 90,
    "country_code": "GT",
    "latitude": "14.42274000",
    "longitude": "-91.17904000",
    "native": null,
    "timezone": null,
    "translations": {}
  },
  {
    "id": 53701,
    "name": "San Lorenzo",
    "state_id": 3660,
    "state_code": "10",
    "country_id": 90,
    "country_code": "GT",
    "latitude": "14.48606000",
    "longitude": "-91.51263000",
    "native": null,
    "timezone": null,
    "translations": {}
  },
  {
    "id": 53719,
    "name": "San Miguel Panán",
    "state_id": 3660,
    "state_code": "10",
    "country_id": 90,
    "country_code": "GT",
    "latitude": "14.52865000",
    "longitude": "-91.36733000",
    "native": null,
    "timezone": null,
    "translations": {}
  },
  {
    "id": 53722,
    "name": "San Pablo Jocopilas",
    "state_id": 3660,
    "state_code": "10",
    "country_id": 90,
    "country_code": "GT",
    "latitude": "14.58882000",
    "longitude": "-91.45188000",
    "native": null,
    "timezone": null,
    "translations": {}
  },
  {
    "id": 53746,
    "name": "Santa Bárbara",
    "state_id": 3660,
    "state_code": "10",
    "country_id": 90,
    "country_code": "GT",
    "latitude": "14.43563000",
    "longitude": "-91.22685000",
    "native": null,
    "timezone": null,
    "translations": {}
  },
  {
    "id": 53773,
    "name": "Santo Domingo Suchitepéquez",
    "state_id": 3660,
    "state_code": "10",
    "country_id": 90,
    "country_code": "GT",
    "latitude": "14.47901000",
    "longitude": "-91.48327000",
    "native": null,
    "timezone": null,
    "translations": {}
  },
  {
    "id": 53775,
    "name": "Santo Tomás La Unión",
    "state_id": 3660,
    "state_code": "10",
    "country_id": 90,
    "country_code": "GT",
    "latitude": "14.63219000",
    "longitude": "-91.41075000",
    "native": null,
    "timezone": null,
    "translations": {}
  },
  {
    "id": 53806,
    "name": "Zunilito",
    "state_id": 3660,
    "state_code": "10",
    "country_id": 90,
    "country_code": "GT",
    "latitude": "14.61264000",
    "longitude": "-91.50980000",
    "native": null,
    "timezone": null,
    "translations": {}
  }
]