[
  {
    "id": 3431,
    "name": "Capital",
    "country_id": 100,
    "country_code": "IS",
    "fips_code": null,
    "iso2": "1",
    "type": "region",
    "latitude": "64.17271370",
    "longitude": "-21.56675750",
    "native": "Höfuðborg",
    "timezone": "Atlantic/Reykjavik",
    "translations": {}
  },
  {
    "id": 3433,
    "name": "Eastern",
    "country_id": 100,
    "country_code": "IS",
    "fips_code": null,
    "iso2": "7",
    "type": "region",
    "latitude": "65.19406680",
    "longitude": "-15.09242090",
    "native": "Austur",
    "timezone": "Atlantic/Reykjavik",
    "translations": {}
  },
  {
    "id": 3437,
    "name": "Northeastern",
    "country_id": 100,
    "country_code": "IS",
    "fips_code": null,
    "iso2": "6",
    "type": "region",
    "latitude": "65.47359970",
    "longitude": "-17.44333390",
    "native": "Norðaustur",
    "timezone": "Atlantic/Reykjavik",
    "translations": {}
  },
  {
    "id": 3435,
    "name": "Northwestern",
    "country_id": 100,
    "country_code": "IS",
    "fips_code": null,
    "iso2": "5",
    "type": "region",
    "latitude": "65.46221890",
    "longitude": "-19.84710160",
    "native": "Norðvestur",
    "timezone": "Atlantic/Reykjavik",
    "translations": {}
  },
  {
    "id": 3434,
    "name": "Southern",
    "country_id": 100,
    "country_code": "IS",
    "fips_code": null,
    "iso2": "8",
    "type": "region",
    "latitude": "63.94150140",
    "longitude": "-22.20186270",
    "native": "Suður",
    "timezone": "Atlantic/Reykjavik",
    "translations": {}
  },
  {
    "id": 3430,
    "name": "Southern Peninsula",
    "country_id": 100,
    "country_code": "IS",
    "fips_code": null,
    "iso2": "2",
    "type": "region",
    "latitude": "63.94150140",
    "longitude": "-22.20186270",
    "native": "Suður -skaginn",
    "timezone": "Atlantic/Reykjavik",
    "translations": {}
  },
  {
    "id": 3436,
    "name": "Western",
    "country_id": 100,
    "country_code": "IS",
    "fips_code": null,
    "iso2": "3",
    "type": "region",
    "latitude": "52.62414960",
    "longitude": "-1.15375600",
    "native": "Western",
    "timezone": "Europe/London",
    "translations": {}
  },
  {
    "id": 3432,
    "name": "Westfjords",
    "country_id": 100,
    "country_code": "IS",
    "fips_code": null,
    "iso2": "4",
    "type": "region",
    "latitude": "65.90820490",
    "longitude": "-21.80788830",
    "native": "Westfjords",
    "timezone": "Atlantic/Reykjavik",
    "translations": {}
  }
]