[
  {
    "id": 19029,
    "name": "Antártica",
    "state_id": 2836,
    "state_code": "MA",
    "country_id": 44,
    "country_code": "CL",
    "latitude": "-53.14138970",
    "longitude": "-70.90576650",
    "native": null,
    "timezone": null,
    "translations": {}
  },
  {
    "id": 148404,
    "name": "Cabo de Hornos",
    "state_id": 2836,
    "state_code": "MA",
    "country_id": 44,
    "country_code": "CL",
    "latitude": "-54.93333333",
    "longitude": "-67.61666667",
    "native": null,
    "timezone": null,
    "translations": {}
  },
  {
    "id": 148405,
    "name": "Laguna Blanca",
    "state_id": 2836,
    "state_code": "MA",
    "country_id": 44,
    "country_code": "CL",
    "latitude": "-52.25000000",
    "longitude": "-71.91666667",
    "native": null,
    "timezone": null,
    "translations": {}
  },
  {
    "id": 148406,
    "name": "Natales",
    "state_id": 2836,
    "state_code": "MA",
    "country_id": 44,
    "country_code": "CL",
    "latitude": "-51.73333333",
    "longitude": "-72.51666667",
    "native": null,
    "timezone": null,
    "translations": {}
  },
  {
    "id": 19028,
    "name": "Porvenir",
    "state_id": 2836,
    "state_code": "MA",
    "country_id": 44,
    "country_code": "CL",
    "latitude": "-53.30000000",
    "longitude": "-70.36666667",
    "native": null,
    "timezone": null,
    "translations": {}
  },
  {
    "id": 148407,
    "name": "Primavera",
    "state_id": 2836,
    "state_code": "MA",
    "country_id": 44,
    "country_code": "CL",
    "latitude": "-52.71666667",
    "longitude": "-69.25000000",
    "native": null,
    "timezone": null,
    "translations": {}
  },
  {
    "id": 19088,
    "name": "Punta Arenas",
    "state_id": 2836,
    "state_code": "MA",
    "country_id": 44,
    "country_code": "CL",
    "latitude": "-53.16270000",
    "longitude": "-70.90810000",
    "native": null,
    "timezone": null,
    "translations": {}
  },
  {
    "id": 148408,
    "name": "Río Verde",
    "state_id": 2836,
    "state_code": "MA",
    "country_id": 44,
    "country_code": "CL",
    "latitude": "-52.65000000",
    "longitude": "-71.48333333",
    "native": null,
    "timezone": null,
    "translations": {}
  },
  {
    "id": 148409,
    "name": "San Gregorio",
    "state_id": 2836,
    "state_code": "MA",
    "country_id": 44,
    "country_code": "CL",
    "latitude": "-52.31666667",
    "longitude": "-69.68333333",
    "native": null,
    "timezone": null,
    "translations": {}
  },
  {
    "id": 148410,
    "name": "Timaukel",
    "state_id": 2836,
    "state_code": "MA",
    "country_id": 44,
    "country_code": "CL",
    "latitude": "-53.66666667",
    "longitude": "-69.90000000",
    "native": null,
    "timezone": null,
    "translations": {}
  },
  {
    "id": 148411,
    "name": "Torres del Paine",
    "state_id": 2836,
    "state_code": "MA",
    "country_id": 44,
    "country_code": "CL",
    "latitude": "-51.26666667",
    "longitude": "-72.35000000",
    "native": null,
    "timezone": null,
    "translations": {}
  }
]