[
  {
    "id": 22162,
    "name": "Braník",
    "state_id": 4598,
    "state_code": "10",
    "country_id": 58,
    "country_code": "CZ",
    "latitude": "50.03498000",
    "longitude": "14.41518000",
    "native": null,
    "timezone": null,
    "translations": {}
  },
  {
    "id": 23376,
    "name": "Černý Most",
    "state_id": 4598,
    "state_code": "10",
    "country_id": 58,
    "country_code": "CZ",
    "latitude": "50.10475000",
    "longitude": "14.57974000",
    "native": null,
    "timezone": null,
    "translations": {}
  },
  {
    "id": 22290,
    "name": "Dolní Počernice",
    "state_id": 4598,
    "state_code": "10",
    "country_id": 58,
    "country_code": "CZ",
    "latitude": "50.08760000",
    "longitude": "14.57199000",
    "native": null,
    "timezone": null,
    "translations": {}
  },
  {
    "id": 22363,
    "name": "Hodkovičky",
    "state_id": 4598,
    "state_code": "10",
    "country_id": 58,
    "country_code": "CZ",
    "latitude": "50.02346000",
    "longitude": "14.41415000",
    "native": null,
    "timezone": null,
    "translations": {}
  },
  {
    "id": 22387,
    "name": "Horní Počernice",
    "state_id": 4598,
    "state_code": "10",
    "country_id": 58,
    "country_code": "CZ",
    "latitude": "50.11210000",
    "longitude": "14.61036000",
    "native": null,
    "timezone": null,
    "translations": {}
  },
  {
    "id": 22397,
    "name": "Hostavice",
    "state_id": 4598,
    "state_code": "10",
    "country_id": 58,
    "country_code": "CZ",
    "latitude": "50.09283000",
    "longitude": "14.55822000",
    "native": null,
    "timezone": null,
    "translations": {}
  },
  {
    "id": 22499,
    "name": "Karlín",
    "state_id": 4598,
    "state_code": "10",
    "country_id": 58,
    "country_code": "CZ",
    "latitude": "50.09272000",
    "longitude": "14.44711000",
    "native": null,
    "timezone": null,
    "translations": {}
  },
  {
    "id": 22507,
    "name": "Kbely",
    "state_id": 4598,
    "state_code": "10",
    "country_id": 58,
    "country_code": "CZ",
    "latitude": "50.13333000",
    "longitude": "14.55000000",
    "native": null,
    "timezone": null,
    "translations": {}
  },
  {
    "id": 22600,
    "name": "Letňany",
    "state_id": 4598,
    "state_code": "10",
    "country_id": 58,
    "country_code": "CZ",
    "latitude": "50.13333000",
    "longitude": "14.51667000",
    "native": null,
    "timezone": null,
    "translations": {}
  },
  {
    "id": 22605,
    "name": "Libeň",
    "state_id": 4598,
    "state_code": "10",
    "country_id": 58,
    "country_code": "CZ",
    "latitude": "50.10819000",
    "longitude": "14.47457000",
    "native": null,
    "timezone": null,
    "translations": {}
  },
  {
    "id": 22672,
    "name": "Malá Strana",
    "state_id": 4598,
    "state_code": "10",
    "country_id": 58,
    "country_code": "CZ",
    "latitude": "50.08774000",
    "longitude": "14.40449000",
    "native": null,
    "timezone": null,
    "translations": {}
  },
  {
    "id": 22708,
    "name": "Modřany",
    "state_id": 4598,
    "state_code": "10",
    "country_id": 58,
    "country_code": "CZ",
    "latitude": "50.01116000",
    "longitude": "14.40960000",
    "native": null,
    "timezone": null,
    "translations": {}
  },
  {
    "id": 22970,
    "name": "Prague",
    "state_id": 4598,
    "state_code": "10",
    "country_id": 58,
    "country_code": "CZ",
    "latitude": "50.08804000",
    "longitude": "14.42076000",
    "native": null,
    "timezone": null,
    "translations": {}
  },
  {
    "id": 22971,
    "name": "Praha 1",
    "state_id": 4598,
    "state_code": "10",
    "country_id": 58,
    "country_code": "CZ",
    "latitude": "50.08802000",
    "longitude": "14.42166000",
    "native": null,
    "timezone": null,
    "translations": {}
  },
  {
    "id": 22972,
    "name": "Praha 16",
    "state_id": 4598,
    "state_code": "10",
    "country_id": 58,
    "country_code": "CZ",
    "latitude": "49.98357000",
    "longitude": "14.36110000",
    "native": null,
    "timezone": null,
    "translations": {}
  },
  {
    "id": 22973,
    "name": "Praha 20",
    "state_id": 4598,
    "state_code": "10",
    "country_id": 58,
    "country_code": "CZ",
    "latitude": "50.11568000",
    "longitude": "14.61122000",
    "native": null,
    "timezone": null,
    "translations": {}
  },
  {
    "id": 22974,
    "name": "Praha 21",
    "state_id": 4598,
    "state_code": "10",
    "country_id": 58,
    "country_code": "CZ",
    "latitude": "50.07521000",
    "longitude": "14.66898000",
    "native": null,
    "timezone": null,
    "translations": {}
  },
  {
    "id": 22977,
    "name": "Prosek",
    "state_id": 4598,
    "state_code": "10",
    "country_id": 58,
    "country_code": "CZ",
    "latitude": "50.11525000",
    "longitude": "14.50685000",
    "native": null,
    "timezone": null,
    "translations": {}
  },
  {
    "id": 23061,
    "name": "Satalice",
    "state_id": 4598,
    "state_code": "10",
    "country_id": 58,
    "country_code": "CZ",
    "latitude": "50.12484000",
    "longitude": "14.57191000",
    "native": null,
    "timezone": null,
    "translations": {}
  },
  {
    "id": 23106,
    "name": "Staré Město",
    "state_id": 4598,
    "state_code": "10",
    "country_id": 58,
    "country_code": "CZ",
    "latitude": "50.08700000",
    "longitude": "14.42024000",
    "native": null,
    "timezone": null,
    "translations": {}
  },
  {
    "id": 23139,
    "name": "Střížkov",
    "state_id": 4598,
    "state_code": "10",
    "country_id": 58,
    "country_code": "CZ",
    "latitude": "50.12674000",
    "longitude": "14.49363000",
    "native": null,
    "timezone": null,
    "translations": {}
  },
  {
    "id": 23304,
    "name": "Vysehrad",
    "state_id": 4598,
    "state_code": "10",
    "country_id": 58,
    "country_code": "CZ",
    "latitude": "50.06509000",
    "longitude": "14.41711000",
    "native": null,
    "timezone": null,
    "translations": {}
  },
  {
    "id": 23307,
    "name": "Vysočany",
    "state_id": 4598,
    "state_code": "10",
    "country_id": 58,
    "country_code": "CZ",
    "latitude": "50.10938000",
    "longitude": "14.51667000",
    "native": null,
    "timezone": null,
    "translations": {}
  }
]