[
  {
    "id": 3374,
    "name": "Ahal",
    "country_id": 226,
    "country_code": "TM",
    "fips_code": null,
    "iso2": "A",
    "type": "region",
    "latitude": "38.83955480",
    "longitude": "58.86101860",
    "native": "Mümkin",
    "timezone": "Asia/Ashgabat",
    "translations": {}
  },
  {
    "id": 3371,
    "name": "Ashgabat",
    "country_id": 226,
    "country_code": "TM",
    "fips_code": null,
    "iso2": "S",
    "type": "city",
    "latitude": "37.94046480",
    "longitude": "58.38234870",
    "native": "Ashgabat",
    "timezone": "Asia/Ashgabat",
    "translations": {}
  },
  {
    "id": 3372,
    "name": "Balkan",
    "country_id": 226,
    "country_code": "TM",
    "fips_code": null,
    "iso2": "B",
    "type": "region",
    "latitude": "39.93537140",
    "longitude": "54.91200550",
    "native": "Balkan",
    "timezone": "Asia/Ashgabat",
    "translations": {}
  },
  {
    "id": 3373,
    "name": "Daşoguz",
    "country_id": 226,
    "country_code": "TM",
    "fips_code": null,
    "iso2": "D",
    "type": "region",
    "latitude": "41.83687370",
    "longitude": "59.96519040",
    "native": "Daş",
    "timezone": "Asia/Ashgabat",
    "translations": {}
  },
  {
    "id": 3370,
    "name": "Lebap",
    "country_id": 226,
    "country_code": "TM",
    "fips_code": null,
    "iso2": "L",
    "type": "region",
    "latitude": "38.81311390",
    "longitude": "63.05132180",
    "native": "Lebap",
    "timezone": "Asia/Ashgabat",
    "translations": {}
  },
  {
    "id": 3369,
    "name": "Mary",
    "country_id": 226,
    "country_code": "TM",
    "fips_code": null,
    "iso2": "M",
    "type": "region",
    "latitude": "37.13029160",
    "longitude": "62.40195130",
    "native": "Mary",
    "timezone": "Asia/Ashgabat",
    "translations": {}
  }
]