[
  {
    "id": 130182,
    "name": "Cam Ranh",
    "state_id": 3793,
    "state_code": "34",
    "country_id": 240,
    "country_code": "VN",
    "latitude": "11.92144000",
    "longitude": "109.15913000",
    "native": null,
    "timezone": null,
    "translations": {}
  },
  {
    "id": 130278,
    "name": "Huyện Diên Khánh",
    "state_id": 3793,
    "state_code": "34",
    "country_id": 240,
    "country_code": "VN",
    "latitude": "12.27341000",
    "longitude": "109.03890000",
    "native": null,
    "timezone": null,
    "translations": {}
  },
  {
    "id": 130324,
    "name": "Huyện Khánh Sơn",
    "state_id": 3793,
    "state_code": "34",
    "country_id": 240,
    "country_code": "VN",
    "latitude": "12.02858000",
    "longitude": "108.90814000",
    "native": null,
    "timezone": null,
    "translations": {}
  },
  {
    "id": 130325,
    "name": "Huyện Khánh Vĩnh",
    "state_id": 3793,
    "state_code": "34",
    "country_id": 240,
    "country_code": "VN",
    "latitude": "12.30593000",
    "longitude": "108.83073000",
    "native": null,
    "timezone": null,
    "translations": {}
  },
  {
    "id": 130506,
    "name": "Huyện Vạn Ninh",
    "state_id": 3793,
    "state_code": "34",
    "country_id": 240,
    "country_code": "VN",
    "latitude": "12.72344000",
    "longitude": "109.24586000",
    "native": null,
    "timezone": null,
    "translations": {}
  },
  {
    "id": 130576,
    "name": "Nha Trang",
    "state_id": 3793,
    "state_code": "34",
    "country_id": 240,
    "country_code": "VN",
    "latitude": "12.24507000",
    "longitude": "109.19432000",
    "native": null,
    "timezone": null,
    "translations": {}
  },
  {
    "id": 130578,
    "name": "Phan Rang-Tháp Chàm",
    "state_id": 3793,
    "state_code": "34",
    "country_id": 240,
    "country_code": "VN",
    "latitude": "11.56432000",
    "longitude": "108.98858000",
    "native": null,
    "timezone": null,
    "translations": {}
  },
  {
    "id": 130598,
    "name": "Thành Phố Cam Ranh",
    "state_id": 3793,
    "state_code": "34",
    "country_id": 240,
    "country_code": "VN",
    "latitude": "11.90707000",
    "longitude": "109.14861000",
    "native": null,
    "timezone": null,
    "translations": {}
  },
  {
    "id": 130600,
    "name": "Thành Phố Nha Trang",
    "state_id": 3793,
    "state_code": "34",
    "country_id": 240,
    "country_code": "VN",
    "latitude": "12.25458000",
    "longitude": "109.16655000",
    "native": null,
    "timezone": null,
    "translations": {}
  },
  {
    "id": 130612,
    "name": "Thị Xã Ninh Hòa",
    "state_id": 3793,
    "state_code": "34",
    "country_id": 240,
    "country_code": "VN",
    "latitude": "12.53796000",
    "longitude": "109.06057000",
    "native": null,
    "timezone": null,
    "translations": {}
  }
]