[
  {
    "id": 97568,
    "name": "Aleksandrovsk",
    "state_id": 1871,
    "state_code": "PER",
    "country_id": 182,
    "country_code": "RU",
    "latitude": "59.15810000",
    "longitude": "57.56950000",
    "native": null,
    "timezone": null,
    "translations": {}
  },
  {
    "id": 97793,
    "name": "Barda",
    "state_id": 1871,
    "state_code": "PER",
    "country_id": 182,
    "country_code": "RU",
    "latitude": "56.92870000",
    "longitude": "55.59620000",
    "native": null,
    "timezone": null,
    "translations": {}
  },
  {
    "id": 97895,
    "name": "Berezniki",
    "state_id": 1871,
    "state_code": "PER",
    "country_id": 182,
    "country_code": "RU",
    "latitude": "59.40910000",
    "longitude": "56.82040000",
    "native": null,
    "timezone": null,
    "translations": {}
  },
  {
    "id": 97900,
    "name": "Bershet’",
    "state_id": 1871,
    "state_code": "PER",
    "country_id": 182,
    "country_code": "RU",
    "latitude": "57.73090000",
    "longitude": "56.37830000",
    "native": null,
    "timezone": null,
    "translations": {}
  },
  {
    "id": 98122,
    "name": "Chastyye",
    "state_id": 1871,
    "state_code": "PER",
    "country_id": 182,
    "country_code": "RU",
    "latitude": "57.28876000",
    "longitude": "54.97278000",
    "native": null,
    "timezone": null,
    "translations": {}
  },
  {
    "id": 98123,
    "name": "Chaykovskaya",
    "state_id": 1871,
    "state_code": "PER",
    "country_id": 182,
    "country_code": "RU",
    "latitude": "58.12880000",
    "longitude": "55.53520000",
    "native": null,
    "timezone": null,
    "translations": {}
  },
  {
    "id": 98124,
    "name": "Chaykovskiy",
    "state_id": 1871,
    "state_code": "PER",
    "country_id": 182,
    "country_code": "RU",
    "latitude": "56.76864000",
    "longitude": "54.11484000",
    "native": null,
    "timezone": null,
    "translations": {}
  },
  {
    "id": 98145,
    "name": "Cherdyn’",
    "state_id": 1871,
    "state_code": "PER",
    "country_id": 182,
    "country_code": "RU",
    "latitude": "60.40295000",
    "longitude": "56.47868000",
    "native": null,
    "timezone": null,
    "translations": {}
  },
  {
    "id": 98164,
    "name": "Chermoz",
    "state_id": 1871,
    "state_code": "PER",
    "country_id": 182,
    "country_code": "RU",
    "latitude": "58.78130000",
    "longitude": "56.15770000",
    "native": null,
    "timezone": null,
    "translations": {}
  },
  {
    "id": 98176,
    "name": "Chernushka",
    "state_id": 1871,
    "state_code": "PER",
    "country_id": 182,
    "country_code": "RU",
    "latitude": "56.50722000",
    "longitude": "56.07661000",
    "native": null,
    "timezone": null,
    "translations": {}
  },
  {
    "id": 98227,
    "name": "Chusovoy",
    "state_id": 1871,
    "state_code": "PER",
    "country_id": 182,
    "country_code": "RU",
    "latitude": "58.30130000",
    "longitude": "57.81310000",
    "native": null,
    "timezone": null,
    "translations": {}
  },
  {
    "id": 98296,
    "name": "Dobryanka",
    "state_id": 1871,
    "state_code": "PER",
    "country_id": 182,
    "country_code": "RU",
    "latitude": "58.46440000",
    "longitude": "56.41270000",
    "native": null,
    "timezone": null,
    "translations": {}
  },
  {
    "id": 98420,
    "name": "Ferma",
    "state_id": 1871,
    "state_code": "PER",
    "country_id": 182,
    "country_code": "RU",
    "latitude": "57.90160000",
    "longitude": "56.30640000",
    "native": null,
    "timezone": null,
    "translations": {}
  },
  {
    "id": 98427,
    "name": "Filippovka",
    "state_id": 1871,
    "state_code": "PER",
    "country_id": 182,
    "country_code": "RU",
    "latitude": "57.43730000",
    "longitude": "57.01934000",
    "native": null,
    "timezone": null,
    "translations": {}
  },
  {
    "id": 98432,
    "name": "Foki",
    "state_id": 1871,
    "state_code": "PER",
    "country_id": 182,
    "country_code": "RU",
    "latitude": "56.69300000",
    "longitude": "54.34985000",
    "native": null,
    "timezone": null,
    "translations": {}
  },
  {
    "id": 98437,
    "name": "Froly",
    "state_id": 1871,
    "state_code": "PER",
    "country_id": 182,
    "country_code": "RU",
    "latitude": "57.92140000",
    "longitude": "56.27280000",
    "native": null,
    "timezone": null,
    "translations": {}
  },
  {
    "id": 98455,
    "name": "Gamovo",
    "state_id": 1871,
    "state_code": "PER",
    "country_id": 182,
    "country_code": "RU",
    "latitude": "57.86520000",
    "longitude": "56.10560000",
    "native": null,
    "timezone": null,
    "translations": {}
  },
  {
    "id": 98467,
    "name": "Gayny",
    "state_id": 1871,
    "state_code": "PER",
    "country_id": 182,
    "country_code": "RU",
    "latitude": "60.30707000",
    "longitude": "54.32412000",
    "native": null,
    "timezone": null,
    "translations": {}
  },
  {
    "id": 98534,
    "name": "Gornozavodsk",
    "state_id": 1871,
    "state_code": "PER",
    "country_id": 182,
    "country_code": "RU",
    "latitude": "58.37583000",
    "longitude": "58.32111000",
    "native": null,
    "timezone": null,
    "translations": {}
  },
  {
    "id": 98586,
    "name": "Gremyachinsk",
    "state_id": 1871,
    "state_code": "PER",
    "country_id": 182,
    "country_code": "RU",
    "latitude": "58.56030000",
    "longitude": "57.85100000",
    "native": null,
    "timezone": null,
    "translations": {}
  },
  {
    "id": 98601,
    "name": "Gubakha",
    "state_id": 1871,
    "state_code": "PER",
    "country_id": 182,
    "country_code": "RU",
    "latitude": "58.83862000",
    "longitude": "57.55325000",
    "native": null,
    "timezone": null,
    "translations": {}
  },
  {
    "id": 98792,
    "name": "Kalino",
    "state_id": 1871,
    "state_code": "PER",
    "country_id": 182,
    "country_code": "RU",
    "latitude": "58.25040000",
    "longitude": "57.60850000",
    "native": null,
    "timezone": null,
    "translations": {}
  },
  {
    "id": 98861,
    "name": "Karagay",
    "state_id": 1871,
    "state_code": "PER",
    "country_id": 182,
    "country_code": "RU",
    "latitude": "58.26669000",
    "longitude": "54.93678000",
    "native": null,
    "timezone": null,
    "translations": {}
  },
  {
    "id": 98941,
    "name": "Kerchevskiy",
    "state_id": 1871,
    "state_code": "PER",
    "country_id": 182,
    "country_code": "RU",
    "latitude": "59.94560000",
    "longitude": "56.29590000",
    "native": null,
    "timezone": null,
    "translations": {}
  },
  {
    "id": 99087,
    "name": "Kizel",
    "state_id": 1871,
    "state_code": "PER",
    "country_id": 182,
    "country_code": "RU",
    "latitude": "59.04709000",
    "longitude": "57.64767000",
    "native": null,
    "timezone": null,
    "translations": {}
  },
  {
    "id": 99120,
    "name": "Kochevo",
    "state_id": 1871,
    "state_code": "PER",
    "country_id": 182,
    "country_code": "RU",
    "latitude": "59.59740000",
    "longitude": "54.31470000",
    "native": null,
    "timezone": null,
    "translations": {}
  },
  {
    "id": 99160,
    "name": "Komarikhinskiy",
    "state_id": 1871,
    "state_code": "PER",
    "country_id": 182,
    "country_code": "RU",
    "latitude": "58.09790000",
    "longitude": "57.11630000",
    "native": null,
    "timezone": null,
    "translations": {}
  },
  {
    "id": 99182,
    "name": "Kondratovo",
    "state_id": 1871,
    "state_code": "PER",
    "country_id": 182,
    "country_code": "RU",
    "latitude": "57.98040000",
    "longitude": "56.10660000",
    "native": null,
    "timezone": null,
    "translations": {}
  },
  {
    "id": 99224,
    "name": "Kosa",
    "state_id": 1871,
    "state_code": "PER",
    "country_id": 182,
    "country_code": "RU",
    "latitude": "59.94490000",
    "longitude": "54.98950000",
    "native": null,
    "timezone": null,
    "translations": {}
  },
  {
    "id": 99322,
    "name": "Krasnokamsk",
    "state_id": 1871,
    "state_code": "PER",
    "country_id": 182,
    "country_code": "RU",
    "latitude": "58.07960000",
    "longitude": "55.75520000",
    "native": null,
    "timezone": null,
    "translations": {}
  },
  {
    "id": 99340,
    "name": "Krasnovishersk",
    "state_id": 1871,
    "state_code": "PER",
    "country_id": 182,
    "country_code": "RU",
    "latitude": "60.40783000",
    "longitude": "57.08199000",
    "native": null,
    "timezone": null,
    "translations": {}
  },
  {
    "id": 99423,
    "name": "Kudymkar",
    "state_id": 1871,
    "state_code": "PER",
    "country_id": 182,
    "country_code": "RU",
    "latitude": "59.01306000",
    "longitude": "54.65556000",
    "native": null,
    "timezone": null,
    "translations": {}
  },
  {
    "id": 99428,
    "name": "Kukushtan",
    "state_id": 1871,
    "state_code": "PER",
    "country_id": 182,
    "country_code": "RU",
    "latitude": "57.64640000",
    "longitude": "56.49520000",
    "native": null,
    "timezone": null,
    "translations": {}
  },
  {
    "id": 99436,
    "name": "Kultayevo",
    "state_id": 1871,
    "state_code": "PER",
    "country_id": 182,
    "country_code": "RU",
    "latitude": "57.89480000",
    "longitude": "55.93780000",
    "native": null,
    "timezone": null,
    "translations": {}
  },
  {
    "id": 99446,
    "name": "Kungur",
    "state_id": 1871,
    "state_code": "PER",
    "country_id": 182,
    "country_code": "RU",
    "latitude": "57.43680000",
    "longitude": "56.95930000",
    "native": null,
    "timezone": null,
    "translations": {}
  },
  {
    "id": 99497,
    "name": "Kuyeda",
    "state_id": 1871,
    "state_code": "PER",
    "country_id": 182,
    "country_code": "RU",
    "latitude": "56.43110000",
    "longitude": "55.58861000",
    "native": null,
    "timezone": null,
    "translations": {}
  },
  {
    "id": 99645,
    "name": "Lobanovo",
    "state_id": 1871,
    "state_code": "PER",
    "country_id": 182,
    "country_code": "RU",
    "latitude": "57.85950000",
    "longitude": "56.30260000",
    "native": null,
    "timezone": null,
    "translations": {}
  },
  {
    "id": 99703,
    "name": "Lyamino",
    "state_id": 1871,
    "state_code": "PER",
    "country_id": 182,
    "country_code": "RU",
    "latitude": "58.28390000",
    "longitude": "57.72500000",
    "native": null,
    "timezone": null,
    "translations": {}
  },
  {
    "id": 99710,
    "name": "Lys’va",
    "state_id": 1871,
    "state_code": "PER",
    "country_id": 182,
    "country_code": "RU",
    "latitude": "58.10861000",
    "longitude": "57.80528000",
    "native": null,
    "timezone": null,
    "translations": {}
  },
  {
    "id": 99823,
    "name": "Maykor",
    "state_id": 1871,
    "state_code": "PER",
    "country_id": 182,
    "country_code": "RU",
    "latitude": "59.00470000",
    "longitude": "55.87840000",
    "native": null,
    "timezone": null,
    "translations": {}
  },
  {
    "id": 99860,
    "name": "Mendeleyevo",
    "state_id": 1871,
    "state_code": "PER",
    "country_id": 182,
    "country_code": "RU",
    "latitude": "58.16976000",
    "longitude": "54.99634000",
    "native": null,
    "timezone": null,
    "translations": {}
  },
  {
    "id": 100362,
    "name": "Novyye Lyady",
    "state_id": 1871,
    "state_code": "PER",
    "country_id": 182,
    "country_code": "RU",
    "latitude": "58.05520000",
    "longitude": "56.61040000",
    "native": null,
    "timezone": null,
    "translations": {}
  },
  {
    "id": 100379,
    "name": "Nyrob",
    "state_id": 1871,
    "state_code": "PER",
    "country_id": 182,
    "country_code": "RU",
    "latitude": "60.73300000",
    "longitude": "56.72024000",
    "native": null,
    "timezone": null,
    "translations": {}
  },
  {
    "id": 100380,
    "name": "Nytva",
    "state_id": 1871,
    "state_code": "PER",
    "country_id": 182,
    "country_code": "RU",
    "latitude": "57.94370000",
    "longitude": "55.33960000",
    "native": null,
    "timezone": null,
    "translations": {}
  },
  {
    "id": 100396,
    "name": "Ochër",
    "state_id": 1871,
    "state_code": "PER",
    "country_id": 182,
    "country_code": "RU",
    "latitude": "57.89035000",
    "longitude": "54.72019000",
    "native": null,
    "timezone": null,
    "translations": {}
  },
  {
    "id": 100402,
    "name": "Okhansk",
    "state_id": 1871,
    "state_code": "PER",
    "country_id": 182,
    "country_code": "RU",
    "latitude": "57.72030000",
    "longitude": "55.38820000",
    "native": null,
    "timezone": null,
    "translations": {}
  },
  {
    "id": 100457,
    "name": "Orda",
    "state_id": 1871,
    "state_code": "PER",
    "country_id": 182,
    "country_code": "RU",
    "latitude": "57.19509000",
    "longitude": "56.90908000",
    "native": null,
    "timezone": null,
    "translations": {}
  },
  {
    "id": 100484,
    "name": "Osa",
    "state_id": 1871,
    "state_code": "PER",
    "country_id": 182,
    "country_code": "RU",
    "latitude": "57.28300000",
    "longitude": "55.45890000",
    "native": null,
    "timezone": null,
    "translations": {}
  },
  {
    "id": 100511,
    "name": "Overyata",
    "state_id": 1871,
    "state_code": "PER",
    "country_id": 182,
    "country_code": "RU",
    "latitude": "58.08417000",
    "longitude": "55.86694000",
    "native": null,
    "timezone": null,
    "translations": {}
  },
  {
    "id": 100561,
    "name": "Pashiya",
    "state_id": 1871,
    "state_code": "PER",
    "country_id": 182,
    "country_code": "RU",
    "latitude": "58.43240000",
    "longitude": "58.25620000",
    "native": null,
    "timezone": null,
    "translations": {}
  },
  {
    "id": 100576,
    "name": "Pavlovskiy",
    "state_id": 1871,
    "state_code": "PER",
    "country_id": 182,
    "country_code": "RU",
    "latitude": "57.84240000",
    "longitude": "54.84357000",
    "native": null,
    "timezone": null,
    "translations": {}
  },
  {
    "id": 100611,
    "name": "Perm",
    "state_id": 1871,
    "state_code": "PER",
    "country_id": 182,
    "country_code": "RU",
    "latitude": "58.01046000",
    "longitude": "56.25017000",
    "native": null,
    "timezone": null,
    "translations": {}
  },
  {
    "id": 100751,
    "name": "Polazna",
    "state_id": 1871,
    "state_code": "PER",
    "country_id": 182,
    "country_code": "RU",
    "latitude": "58.29220000",
    "longitude": "56.41560000",
    "native": null,
    "timezone": null,
    "translations": {}
  },
  {
    "id": 100799,
    "name": "Pozhva",
    "state_id": 1871,
    "state_code": "PER",
    "country_id": 182,
    "country_code": "RU",
    "latitude": "59.09120000",
    "longitude": "56.09010000",
    "native": null,
    "timezone": null,
    "translations": {}
  },
  {
    "id": 101111,
    "name": "Sarany",
    "state_id": 1871,
    "state_code": "PER",
    "country_id": 182,
    "country_code": "RU",
    "latitude": "58.50000000",
    "longitude": "58.88333000",
    "native": null,
    "timezone": null,
    "translations": {}
  },
  {
    "id": 101124,
    "name": "Sars",
    "state_id": 1871,
    "state_code": "PER",
    "country_id": 182,
    "country_code": "RU",
    "latitude": "56.55017000",
    "longitude": "57.13658000",
    "native": null,
    "timezone": null,
    "translations": {}
  },
  {
    "id": 101210,
    "name": "Severnyy-Kospashskiy",
    "state_id": 1871,
    "state_code": "PER",
    "country_id": 182,
    "country_code": "RU",
    "latitude": "59.08970000",
    "longitude": "57.80390000",
    "native": null,
    "timezone": null,
    "translations": {}
  },
  {
    "id": 101239,
    "name": "Shakhta",
    "state_id": 1871,
    "state_code": "PER",
    "country_id": 182,
    "country_code": "RU",
    "latitude": "59.09050000",
    "longitude": "57.65750000",
    "native": null,
    "timezone": null,
    "translations": {}
  },
  {
    "id": 101331,
    "name": "Shirokovskiy",
    "state_id": 1871,
    "state_code": "PER",
    "country_id": 182,
    "country_code": "RU",
    "latitude": "58.84110000",
    "longitude": "57.78500000",
    "native": null,
    "timezone": null,
    "translations": {}
  },
  {
    "id": 101350,
    "name": "Shumikhinskiy",
    "state_id": 1871,
    "state_code": "PER",
    "country_id": 182,
    "country_code": "RU",
    "latitude": "58.74480000",
    "longitude": "57.69260000",
    "native": null,
    "timezone": null,
    "translations": {}
  },
  {
    "id": 101382,
    "name": "Siva",
    "state_id": 1871,
    "state_code": "PER",
    "country_id": 182,
    "country_code": "RU",
    "latitude": "58.38204000",
    "longitude": "54.38037000",
    "native": null,
    "timezone": null,
    "translations": {}
  },
  {
    "id": 101433,
    "name": "Sokol",
    "state_id": 1871,
    "state_code": "PER",
    "country_id": 182,
    "country_code": "RU",
    "latitude": "57.91460000",
    "longitude": "56.04560000",
    "native": null,
    "timezone": null,
    "translations": {}
  },
  {
    "id": 101451,
    "name": "Solikamsk",
    "state_id": 1871,
    "state_code": "PER",
    "country_id": 182,
    "country_code": "RU",
    "latitude": "59.63160000",
    "longitude": "56.76850000",
    "native": null,
    "timezone": null,
    "translations": {}
  },
  {
    "id": 101658,
    "name": "Suksun",
    "state_id": 1871,
    "state_code": "PER",
    "country_id": 182,
    "country_code": "RU",
    "latitude": "57.14310000",
    "longitude": "57.39490000",
    "native": null,
    "timezone": null,
    "translations": {}
  },
  {
    "id": 101725,
    "name": "Sylva",
    "state_id": 1871,
    "state_code": "PER",
    "country_id": 182,
    "country_code": "RU",
    "latitude": "58.03270000",
    "longitude": "56.77130000",
    "native": null,
    "timezone": null,
    "translations": {}
  },
  {
    "id": 102009,
    "name": "Tëplaya Gora",
    "state_id": 1871,
    "state_code": "PER",
    "country_id": 182,
    "country_code": "RU",
    "latitude": "58.52444000",
    "longitude": "59.07278000",
    "native": null,
    "timezone": null,
    "translations": {}
  },
  {
    "id": 102032,
    "name": "Ugleural’skiy",
    "state_id": 1871,
    "state_code": "PER",
    "country_id": 182,
    "country_code": "RU",
    "latitude": "58.94430000",
    "longitude": "57.59370000",
    "native": null,
    "timezone": null,
    "translations": {}
  },
  {
    "id": 102041,
    "name": "Uinskoye",
    "state_id": 1871,
    "state_code": "PER",
    "country_id": 182,
    "country_code": "RU",
    "latitude": "56.88174000",
    "longitude": "56.58135000",
    "native": null,
    "timezone": null,
    "translations": {}
  },
  {
    "id": 102101,
    "name": "Usol’ye",
    "state_id": 1871,
    "state_code": "PER",
    "country_id": 182,
    "country_code": "RU",
    "latitude": "59.42190000",
    "longitude": "56.68620000",
    "native": null,
    "timezone": null,
    "translations": {}
  },
  {
    "id": 102123,
    "name": "Ust’-Kachka",
    "state_id": 1871,
    "state_code": "PER",
    "country_id": 182,
    "country_code": "RU",
    "latitude": "58.00380000",
    "longitude": "55.67210000",
    "native": null,
    "timezone": null,
    "translations": {}
  },
  {
    "id": 102130,
    "name": "Ust’-Kishert’",
    "state_id": 1871,
    "state_code": "PER",
    "country_id": 182,
    "country_code": "RU",
    "latitude": "57.36540000",
    "longitude": "57.24950000",
    "native": null,
    "timezone": null,
    "translations": {}
  },
  {
    "id": 102228,
    "name": "Vereshchagino",
    "state_id": 1871,
    "state_code": "PER",
    "country_id": 182,
    "country_code": "RU",
    "latitude": "58.07894000",
    "longitude": "54.65570000",
    "native": null,
    "timezone": null,
    "translations": {}
  },
  {
    "id": 102237,
    "name": "Verkhnechusovskiye Gorodki",
    "state_id": 1871,
    "state_code": "PER",
    "country_id": 182,
    "country_code": "RU",
    "latitude": "58.16710000",
    "longitude": "57.10860000",
    "native": null,
    "timezone": null,
    "translations": {}
  },
  {
    "id": 102518,
    "name": "Yayva",
    "state_id": 1871,
    "state_code": "PER",
    "country_id": 182,
    "country_code": "RU",
    "latitude": "59.33470000",
    "longitude": "57.25920000",
    "native": null,
    "timezone": null,
    "translations": {}
  },
  {
    "id": 102547,
    "name": "Yelovo",
    "state_id": 1871,
    "state_code": "PER",
    "country_id": 182,
    "country_code": "RU",
    "latitude": "57.05381000",
    "longitude": "54.92070000",
    "native": null,
    "timezone": null,
    "translations": {}
  },
  {
    "id": 102584,
    "name": "Yubileynyy",
    "state_id": 1871,
    "state_code": "PER",
    "country_id": 182,
    "country_code": "RU",
    "latitude": "58.77940000",
    "longitude": "57.78220000",
    "native": null,
    "timezone": null,
    "translations": {}
  },
  {
    "id": 102585,
    "name": "Yug",
    "state_id": 1871,
    "state_code": "PER",
    "country_id": 182,
    "country_code": "RU",
    "latitude": "57.72930000",
    "longitude": "56.17200000",
    "native": null,
    "timezone": null,
    "translations": {}
  },
  {
    "id": 102587,
    "name": "Yugo-Kamskiy",
    "state_id": 1871,
    "state_code": "PER",
    "country_id": 182,
    "country_code": "RU",
    "latitude": "57.70260000",
    "longitude": "55.59040000",
    "native": null,
    "timezone": null,
    "translations": {}
  },
  {
    "id": 102599,
    "name": "Yurla",
    "state_id": 1871,
    "state_code": "PER",
    "country_id": 182,
    "country_code": "RU",
    "latitude": "59.32510000",
    "longitude": "54.32780000",
    "native": null,
    "timezone": null,
    "translations": {}
  },
  {
    "id": 102609,
    "name": "Yus’vinskiy Rayon",
    "state_id": 1871,
    "state_code": "PER",
    "country_id": 182,
    "country_code": "RU",
    "latitude": "59.08333000",
    "longitude": "55.25000000",
    "native": null,
    "timezone": null,
    "translations": {}
  },
  {
    "id": 102621,
    "name": "Yuzhnyy-Kospashskiy",
    "state_id": 1871,
    "state_code": "PER",
    "country_id": 182,
    "country_code": "RU",
    "latitude": "58.97250000",
    "longitude": "57.75900000",
    "native": null,
    "timezone": null,
    "translations": {}
  },
  {
    "id": 102783,
    "name": "Zvëzdnyy",
    "state_id": 1871,
    "state_code": "PER",
    "country_id": 182,
    "country_code": "RU",
    "latitude": "57.73250000",
    "longitude": "56.31472000",
    "native": null,
    "timezone": null,
    "translations": {}
  },
  {
    "id": 102789,
    "name": "Zyukayka",
    "state_id": 1871,
    "state_code": "PER",
    "country_id": 182,
    "country_code": "RU",
    "latitude": "58.20416000",
    "longitude": "54.70784000",
    "native": null,
    "timezone": null,
    "translations": {}
  }
]