[
  {
    "id": 3753,
    "name": "Clarendon",
    "country_id": 108,
    "country_code": "JM",
    "fips_code": null,
    "iso2": "13",
    "type": "parish",
    "latitude": "17.95185250",
    "longitude": "-77.27192770",
    "native": "Clarendon",
    "timezone": "America/Jamaica",
    "translations": {}
  },
  {
    "id": 3749,
    "name": "Hanover",
    "country_id": 108,
    "country_code": "JM",
    "fips_code": null,
    "iso2": "09",
    "type": "parish",
    "latitude": "18.38506530",
    "longitude": "-78.13099300",
    "native": "Hanover",
    "timezone": "America/Jamaica",
    "translations": {}
  },
  {
    "id": 3748,
    "name": "Kingston",
    "country_id": 108,
    "country_code": "JM",
    "fips_code": null,
    "iso2": "01",
    "type": "parish",
    "latitude": "17.97121480",
    "longitude": "-76.79281280",
    "native": "Kingston",
    "timezone": "America/Jamaica",
    "translations": {}
  },
  {
    "id": 3754,
    "name": "Manchester",
    "country_id": 108,
    "country_code": "JM",
    "fips_code": null,
    "iso2": "12",
    "type": "parish",
    "latitude": "18.04992570",
    "longitude": "-77.51101430",
    "native": "Manchester",
    "timezone": "America/Jamaica",
    "translations": {}
  },
  {
    "id": 3752,
    "name": "Portland",
    "country_id": 108,
    "country_code": "JM",
    "fips_code": null,
    "iso2": "04",
    "type": "parish",
    "latitude": "18.12682060",
    "longitude": "-76.53740120",
    "native": "Portland",
    "timezone": "America/Jamaica",
    "translations": {}
  },
  {
    "id": 3751,
    "name": "Saint Andrew",
    "country_id": 108,
    "country_code": "JM",
    "fips_code": null,
    "iso2": "02",
    "type": "parish",
    "latitude": "18.05896480",
    "longitude": "-76.76077670",
    "native": "Saint Andrew",
    "timezone": "America/Jamaica",
    "translations": {}
  },
  {
    "id": 3744,
    "name": "Saint Ann",
    "country_id": 108,
    "country_code": "JM",
    "fips_code": null,
    "iso2": "06",
    "type": "parish",
    "latitude": "18.32993000",
    "longitude": "-77.25418160",
    "native": "Saint Ann",
    "timezone": "America/Jamaica",
    "translations": {}
  },
  {
    "id": 3746,
    "name": "Saint Catherine",
    "country_id": 108,
    "country_code": "JM",
    "fips_code": null,
    "iso2": "14",
    "type": "parish",
    "latitude": "18.04717370",
    "longitude": "-77.03338520",
    "native": "Saint Catherine",
    "timezone": "America/Jamaica",
    "translations": {}
  },
  {
    "id": 3743,
    "name": "Saint Elizabeth",
    "country_id": 108,
    "country_code": "JM",
    "fips_code": null,
    "iso2": "11",
    "type": "parish",
    "latitude": "18.05384500",
    "longitude": "-77.78282490",
    "native": "Saint Elizabeth",
    "timezone": "America/Jamaica",
    "translations": {}
  },
  {
    "id": 3745,
    "name": "Saint James",
    "country_id": 108,
    "country_code": "JM",
    "fips_code": null,
    "iso2": "08",
    "type": "parish",
    "latitude": "18.36580900",
    "longitude": "-77.85220370",
    "native": "Saint James",
    "timezone": "America/Jamaica",
    "translations": {}
  },
  {
    "id": 3747,
    "name": "Saint Mary",
    "country_id": 108,
    "country_code": "JM",
    "fips_code": null,
    "iso2": "05",
    "type": "parish",
    "latitude": "18.27891790",
    "longitude": "-76.90218680",
    "native": "Saint Mary",
    "timezone": "America/Jamaica",
    "translations": {}
  },
  {
    "id": 3750,
    "name": "Saint Thomas",
    "country_id": 108,
    "country_code": "JM",
    "fips_code": null,
    "iso2": "03",
    "type": "parish",
    "latitude": "17.97163060",
    "longitude": "-76.44143060",
    "native": "Saint Thomas",
    "timezone": "America/Jamaica",
    "translations": {}
  },
  {
    "id": 3755,
    "name": "Trelawny",
    "country_id": 108,
    "country_code": "JM",
    "fips_code": null,
    "iso2": "07",
    "type": "parish",
    "latitude": "18.36821280",
    "longitude": "-77.60436150",
    "native": "Trelawny",
    "timezone": "America/Jamaica",
    "translations": {}
  },
  {
    "id": 3742,
    "name": "Westmoreland",
    "country_id": 108,
    "country_code": "JM",
    "fips_code": null,
    "iso2": "10",
    "type": "parish",
    "latitude": "18.21040260",
    "longitude": "-77.97932110",
    "native": "Westmoreland",
    "timezone": "America/Jamaica",
    "translations": {}
  }
]