[
  {
    "id": 4072,
    "name": "Auckland",
    "country_id": 158,
    "country_code": "NZ",
    "fips_code": null,
    "iso2": "AUK",
    "type": "region",
    "latitude": "-36.85209500",
    "longitude": "174.76318030",
    "native": "Auckland",
    "timezone": "Pacific/Auckland",
    "translations": {}
  },
  {
    "id": 4074,
    "name": "Bay of Plenty",
    "country_id": 158,
    "country_code": "NZ",
    "fips_code": null,
    "iso2": "BOP",
    "type": "region",
    "latitude": "-37.49691850",
    "longitude": "176.92283490",
    "native": "Bay of Plenty",
    "timezone": "Pacific/Auckland",
    "translations": {}
  },
  {
    "id": 4066,
    "name": "Canterbury",
    "country_id": 158,
    "country_code": "NZ",
    "fips_code": null,
    "iso2": "CAN",
    "type": "region",
    "latitude": "-43.49417620",
    "longitude": "171.80984480",
    "native": "Canterbury",
    "timezone": "Pacific/Auckland",
    "translations": {}
  },
  {
    "id": 4067,
    "name": "Chatham Islands",
    "country_id": 158,
    "country_code": "NZ",
    "fips_code": null,
    "iso2": "CIT",
    "type": "special island authority",
    "latitude": "-43.91753400",
    "longitude": "-176.18734000",
    "native": "Chatham Islands",
    "timezone": "Pacific/Chatham",
    "translations": {}
  },
  {
    "id": 4068,
    "name": "Gisborne",
    "country_id": 158,
    "country_code": "NZ",
    "fips_code": null,
    "iso2": "GIS",
    "type": "region",
    "latitude": "-38.15322870",
    "longitude": "178.13675240",
    "native": "Gisborne",
    "timezone": "Pacific/Auckland",
    "translations": {}
  },
  {
    "id": 4075,
    "name": "Hawke's Bay",
    "country_id": 158,
    "country_code": "NZ",
    "fips_code": null,
    "iso2": "HKB",
    "type": "region",
    "latitude": "-39.52565120",
    "longitude": "176.76114570",
    "native": "Hawke's Bay",
    "timezone": "Pacific/Auckland",
    "translations": {}
  },
  {
    "id": 4060,
    "name": "Manawatu-Wanganui",
    "country_id": 158,
    "country_code": "NZ",
    "fips_code": null,
    "iso2": "MWT",
    "type": "region",
    "latitude": "-39.64077340",
    "longitude": "175.57135570",
    "native": "Manawatu-Wanganui",
    "timezone": "Pacific/Auckland",
    "translations": {}
  },
  {
    "id": 4063,
    "name": "Marlborough",
    "country_id": 158,
    "country_code": "NZ",
    "fips_code": null,
    "iso2": "MBH",
    "type": "region",
    "latitude": "-41.47447470",
    "longitude": "173.83302630",
    "native": "Marlborough",
    "timezone": "Pacific/Auckland",
    "translations": {}
  },
  {
    "id": 4070,
    "name": "Nelson",
    "country_id": 158,
    "country_code": "NZ",
    "fips_code": null,
    "iso2": "NSN",
    "type": "region",
    "latitude": "-41.27108490",
    "longitude": "173.28367560",
    "native": "Nelson",
    "timezone": "Pacific/Auckland",
    "translations": {}
  },
  {
    "id": 4059,
    "name": "Northland",
    "country_id": 158,
    "country_code": "NZ",
    "fips_code": null,
    "iso2": "NTL",
    "type": "region",
    "latitude": "-35.37550910",
    "longitude": "173.94701060",
    "native": "Northland",
    "timezone": "Pacific/Auckland",
    "translations": {}
  },
  {
    "id": 4062,
    "name": "Otago",
    "country_id": 158,
    "country_code": "NZ",
    "fips_code": null,
    "iso2": "OTA",
    "type": "region",
    "latitude": "-45.39750530",
    "longitude": "170.17789180",
    "native": "Otago",
    "timezone": "Pacific/Auckland",
    "translations": {}
  },
  {
    "id": 4071,
    "name": "Southland",
    "country_id": 158,
    "country_code": "NZ",
    "fips_code": null,
    "iso2": "STL",
    "type": "region",
    "latitude": "-45.92542660",
    "longitude": "167.60684830",
    "native": "Southland",
    "timezone": "Pacific/Auckland",
    "translations": {}
  },
  {
    "id": 4069,
    "name": "Taranaki",
    "country_id": 158,
    "country_code": "NZ",
    "fips_code": null,
    "iso2": "TKI",
    "type": "region",
    "latitude": "-39.38480640",
    "longitude": "174.19735050",
    "native": "Taranaki",
    "timezone": "Pacific/Auckland",
    "translations": {}
  },
  {
    "id": 4073,
    "name": "Tasman",
    "country_id": 158,
    "country_code": "NZ",
    "fips_code": null,
    "iso2": "TAS",
    "type": "region",
    "latitude": "-41.30222100",
    "longitude": "172.89453190",
    "native": "Tasman",
    "timezone": "Pacific/Auckland",
    "translations": {}
  },
  {
    "id": 4061,
    "name": "Waikato",
    "country_id": 158,
    "country_code": "NZ",
    "fips_code": null,
    "iso2": "WKO",
    "type": "region",
    "latitude": "-37.77922720",
    "longitude": "175.20103240",
    "native": "Waikato",
    "timezone": "Pacific/Auckland",
    "translations": {}
  },
  {
    "id": 4065,
    "name": "Wellington",
    "country_id": 158,
    "country_code": "NZ",
    "fips_code": null,
    "iso2": "WGN",
    "type": "region",
    "latitude": "-41.22354740",
    "longitude": "175.41575760",
    "native": "Wellington",
    "timezone": "Pacific/Auckland",
    "translations": {}
  },
  {
    "id": 4064,
    "name": "West Coast",
    "country_id": 158,
    "country_code": "NZ",
    "fips_code": null,
    "iso2": "WTC",
    "type": "region",
    "latitude": "-42.56388960",
    "longitude": "171.45233400",
    "native": "West Coast",
    "timezone": "Pacific/Auckland",
    "translations": {}
  }
]