[
  {
    "id": 135149,
    "name": "abdanan",
    "state_id": 3918,
    "state_code": "16",
    "country_id": 103,
    "country_code": "IR",
    "latitude": "32.99260000",
    "longitude": "47.41980000",
    "native": null,
    "timezone": null,
    "translations": {}
  },
  {
    "id": 150314,
    "name": "Arkavaz",
    "state_id": 3918,
    "state_code": "16",
    "country_id": 103,
    "country_code": "IR",
    "latitude": "33.38544050",
    "longitude": "46.57578680",
    "native": null,
    "timezone": null,
    "translations": {}
  },
  {
    "id": 150304,
    "name": "Aseman Abad",
    "state_id": 3918,
    "state_code": "16",
    "country_id": 103,
    "country_code": "IR",
    "latitude": "33.85182450",
    "longitude": "46.44400060",
    "native": null,
    "timezone": null,
    "translations": {}
  },
  {
    "id": 134574,
    "name": "Badreh",
    "state_id": 3918,
    "state_code": "16",
    "country_id": 103,
    "country_code": "IR",
    "latitude": "33.00000000",
    "longitude": "47.25000000",
    "native": null,
    "timezone": null,
    "translations": {}
  },
  {
    "id": 150305,
    "name": "Balavah Tareh",
    "state_id": 3918,
    "state_code": "16",
    "country_id": 103,
    "country_code": "IR",
    "latitude": "33.66690070",
    "longitude": "46.80243500",
    "native": null,
    "timezone": null,
    "translations": {}
  },
  {
    "id": 150303,
    "name": "Bedreh",
    "state_id": 3918,
    "state_code": "16",
    "country_id": 103,
    "country_code": "IR",
    "latitude": "33.30662610",
    "longitude": "47.02968120",
    "native": null,
    "timezone": null,
    "translations": {}
  },
  {
    "id": 134606,
    "name": "Chardavol County",
    "state_id": 3918,
    "state_code": "16",
    "country_id": 103,
    "country_code": "IR",
    "latitude": "33.75910000",
    "longitude": "46.56980000",
    "native": null,
    "timezone": null,
    "translations": {}
  },
  {
    "id": 150301,
    "name": "Chovar",
    "state_id": 3918,
    "state_code": "16",
    "country_id": 103,
    "country_code": "IR",
    "latitude": "33.69522650",
    "longitude": "46.29299630",
    "native": null,
    "timezone": null,
    "translations": {}
  },
  {
    "id": 134614,
    "name": "Darreh Shahr",
    "state_id": 3918,
    "state_code": "16",
    "country_id": 103,
    "country_code": "IR",
    "latitude": "33.14447000",
    "longitude": "47.37990000",
    "native": null,
    "timezone": null,
    "translations": {}
  },
  {
    "id": 134617,
    "name": "Dehloran",
    "state_id": 3918,
    "state_code": "16",
    "country_id": 103,
    "country_code": "IR",
    "latitude": "32.69410000",
    "longitude": "47.26790000",
    "native": null,
    "timezone": null,
    "translations": {}
  },
  {
    "id": 150315,
    "name": "Delgosha",
    "state_id": 3918,
    "state_code": "16",
    "country_id": 103,
    "country_code": "IR",
    "latitude": "33.40633120",
    "longitude": "46.58975600",
    "native": null,
    "timezone": null,
    "translations": {}
  },
  {
    "id": 134862,
    "name": "Eyvan",
    "state_id": 3918,
    "state_code": "16",
    "country_id": 103,
    "country_code": "IR",
    "latitude": "33.90000000",
    "longitude": "46.16667000",
    "native": null,
    "timezone": null,
    "translations": {}
  },
  {
    "id": 135157,
    "name": "Ilam",
    "state_id": 3918,
    "state_code": "16",
    "country_id": 103,
    "country_code": "IR",
    "latitude": "33.63740000",
    "longitude": "46.42270000",
    "native": null,
    "timezone": null,
    "translations": {}
  },
  {
    "id": 150313,
    "name": "Loumar",
    "state_id": 3918,
    "state_code": "16",
    "country_id": 103,
    "country_code": "IR",
    "latitude": "33.56787760",
    "longitude": "46.80513740",
    "native": null,
    "timezone": null,
    "translations": {}
  },
  {
    "id": 134950,
    "name": "Malekshahi",
    "state_id": 3918,
    "state_code": "16",
    "country_id": 103,
    "country_code": "IR",
    "latitude": "33.30000000",
    "longitude": "46.55000000",
    "native": null,
    "timezone": null,
    "translations": {}
  },
  {
    "id": 150312,
    "name": "Maymeh",
    "state_id": 3918,
    "state_code": "16",
    "country_id": 103,
    "country_code": "IR",
    "latitude": "33.22788250",
    "longitude": "46.91291920",
    "native": null,
    "timezone": null,
    "translations": {}
  },
  {
    "id": 150309,
    "name": "Mazhin",
    "state_id": 3918,
    "state_code": "16",
    "country_id": 103,
    "country_code": "IR",
    "latitude": "32.95297150",
    "longitude": "47.78095720",
    "native": null,
    "timezone": null,
    "translations": {}
  },
  {
    "id": 150316,
    "name": "Mehr",
    "state_id": 3918,
    "state_code": "16",
    "country_id": 103,
    "country_code": "IR",
    "latitude": "33.43694400",
    "longitude": "46.46111100",
    "native": null,
    "timezone": null,
    "translations": {}
  },
  {
    "id": 134700,
    "name": "Mehran",
    "state_id": 3918,
    "state_code": "16",
    "country_id": 103,
    "country_code": "IR",
    "latitude": "33.12220000",
    "longitude": "46.16460000",
    "native": null,
    "timezone": null,
    "translations": {}
  },
  {
    "id": 150311,
    "name": "Mousiyan",
    "state_id": 3918,
    "state_code": "16",
    "country_id": 103,
    "country_code": "IR",
    "latitude": "32.51868160",
    "longitude": "47.36810080",
    "native": null,
    "timezone": null,
    "translations": {}
  },
  {
    "id": 150300,
    "name": "Murmuri ",
    "state_id": 3918,
    "state_code": "16",
    "country_id": 103,
    "country_code": "IR",
    "latitude": "32.72546810",
    "longitude": "47.66744610",
    "native": null,
    "timezone": null,
    "translations": {}
  },
  {
    "id": 150310,
    "name": "Pahleh",
    "state_id": 3918,
    "state_code": "16",
    "country_id": 103,
    "country_code": "IR",
    "latitude": "33.01059760",
    "longitude": "46.87927360",
    "native": null,
    "timezone": null,
    "translations": {}
  },
  {
    "id": 150317,
    "name": "Saleh Abad",
    "state_id": 3918,
    "state_code": "16",
    "country_id": 103,
    "country_code": "IR",
    "latitude": "33.47157940",
    "longitude": "46.18184570",
    "native": null,
    "timezone": null,
    "translations": {}
  },
  {
    "id": 150299,
    "name": "Sarabbagh",
    "state_id": 3918,
    "state_code": "16",
    "country_id": 103,
    "country_code": "IR",
    "latitude": "32.89856040",
    "longitude": "47.57032870",
    "native": null,
    "timezone": null,
    "translations": {}
  },
  {
    "id": 150307,
    "name": "Sarableh",
    "state_id": 3918,
    "state_code": "16",
    "country_id": 103,
    "country_code": "IR",
    "latitude": "33.76577730",
    "longitude": "46.54643580",
    "native": null,
    "timezone": null,
    "translations": {}
  },
  {
    "id": 150308,
    "name": "Shabab",
    "state_id": 3918,
    "state_code": "16",
    "country_id": 103,
    "country_code": "IR",
    "latitude": "33.74878600",
    "longitude": "46.63228510",
    "native": null,
    "timezone": null,
    "translations": {}
  },
  {
    "id": 135117,
    "name": "Sirvan",
    "state_id": 3918,
    "state_code": "16",
    "country_id": 103,
    "country_code": "IR",
    "latitude": "33.75460000",
    "longitude": "46.56651000",
    "native": null,
    "timezone": null,
    "translations": {}
  },
  {
    "id": 150306,
    "name": "Tohid",
    "state_id": 3918,
    "state_code": "16",
    "country_id": 103,
    "country_code": "IR",
    "latitude": "33.72550000",
    "longitude": "47.06850000",
    "native": null,
    "timezone": null,
    "translations": {}
  },
  {
    "id": 150302,
    "name": "Zarneh",
    "state_id": 3918,
    "state_code": "16",
    "country_id": 103,
    "country_code": "IR",
    "latitude": "33.92863690",
    "longitude": "46.17875560",
    "native": null,
    "timezone": null,
    "translations": {}
  }
]