[
  {
    "id": 89691,
    "name": "Água Longa",
    "state_id": 2243,
    "state_code": "13",
    "country_id": 177,
    "country_code": "PT",
    "latitude": "41.24972000",
    "longitude": "-8.49285000",
    "native": null,
    "timezone": null,
    "translations": {}
  },
  {
    "id": 89694,
    "name": "Águas Santas",
    "state_id": 2243,
    "state_code": "13",
    "country_id": 177,
    "country_code": "PT",
    "latitude": "41.21017000",
    "longitude": "-8.57599000",
    "native": null,
    "timezone": null,
    "translations": {}
  },
  {
    "id": 88911,
    "name": "Aguçadoura",
    "state_id": 2243,
    "state_code": "13",
    "country_id": 177,
    "country_code": "PT",
    "latitude": "41.43116000",
    "longitude": "-8.77844000",
    "native": null,
    "timezone": null,
    "translations": {}
  },
  {
    "id": 88931,
    "name": "Alfena",
    "state_id": 2243,
    "state_code": "13",
    "country_id": 177,
    "country_code": "PT",
    "latitude": "41.23671000",
    "longitude": "-8.52454000",
    "native": null,
    "timezone": null,
    "translations": {}
  },
  {
    "id": 88951,
    "name": "Alpendurada",
    "state_id": 2243,
    "state_code": "13",
    "country_id": 177,
    "country_code": "PT",
    "latitude": "41.08944000",
    "longitude": "-8.24643000",
    "native": null,
    "timezone": null,
    "translations": {}
  },
  {
    "id": 88961,
    "name": "Amarante",
    "state_id": 2243,
    "state_code": "13",
    "country_id": 177,
    "country_code": "PT",
    "latitude": "41.27271000",
    "longitude": "-8.08245000",
    "native": null,
    "timezone": null,
    "translations": {}
  },
  {
    "id": 88966,
    "name": "Amorim",
    "state_id": 2243,
    "state_code": "13",
    "country_id": 177,
    "country_code": "PT",
    "latitude": "41.40503000",
    "longitude": "-8.75046000",
    "native": null,
    "timezone": null,
    "translations": {}
  },
  {
    "id": 88971,
    "name": "Anta",
    "state_id": 2243,
    "state_code": "13",
    "country_id": 177,
    "country_code": "PT",
    "latitude": "41.26634000",
    "longitude": "-8.62844000",
    "native": null,
    "timezone": null,
    "translations": {}
  },
  {
    "id": 88982,
    "name": "Arcozelo",
    "state_id": 2243,
    "state_code": "13",
    "country_id": 177,
    "country_code": "PT",
    "latitude": "41.06187000",
    "longitude": "-8.63192000",
    "native": null,
    "timezone": null,
    "translations": {}
  },
  {
    "id": 88985,
    "name": "Argivai",
    "state_id": 2243,
    "state_code": "13",
    "country_id": 177,
    "country_code": "PT",
    "latitude": "41.37744000",
    "longitude": "-8.72987000",
    "native": null,
    "timezone": null,
    "translations": {}
  },
  {
    "id": 89696,
    "name": "Árvore",
    "state_id": 2243,
    "state_code": "13",
    "country_id": 177,
    "country_code": "PT",
    "latitude": "41.33922000",
    "longitude": "-8.71806000",
    "native": null,
    "timezone": null,
    "translations": {}
  },
  {
    "id": 89005,
    "name": "Aver-o-Mar",
    "state_id": 2243,
    "state_code": "13",
    "country_id": 177,
    "country_code": "PT",
    "latitude": "41.40607000",
    "longitude": "-8.77958000",
    "native": null,
    "timezone": null,
    "translations": {}
  },
  {
    "id": 89006,
    "name": "Aves",
    "state_id": 2243,
    "state_code": "13",
    "country_id": 177,
    "country_code": "PT",
    "latitude": "41.37034000",
    "longitude": "-8.41010000",
    "native": null,
    "timezone": null,
    "translations": {}
  },
  {
    "id": 89007,
    "name": "Avintes",
    "state_id": 2243,
    "state_code": "13",
    "country_id": 177,
    "country_code": "PT",
    "latitude": "41.10711000",
    "longitude": "-8.55131000",
    "native": null,
    "timezone": null,
    "translations": {}
  },
  {
    "id": 89011,
    "name": "Azenha",
    "state_id": 2243,
    "state_code": "13",
    "country_id": 177,
    "country_code": "PT",
    "latitude": "41.07651000",
    "longitude": "-8.62468000",
    "native": null,
    "timezone": null,
    "translations": {}
  },
  {
    "id": 89013,
    "name": "Baguim do Monte",
    "state_id": 2243,
    "state_code": "13",
    "country_id": 177,
    "country_code": "PT",
    "latitude": "41.19203000",
    "longitude": "-8.54118000",
    "native": null,
    "timezone": null,
    "translations": {}
  },
  {
    "id": 89014,
    "name": "Baião",
    "state_id": 2243,
    "state_code": "13",
    "country_id": 177,
    "country_code": "PT",
    "latitude": "41.16384000",
    "longitude": "-8.03581000",
    "native": null,
    "timezone": null,
    "translations": {}
  },
  {
    "id": 89015,
    "name": "Balazar",
    "state_id": 2243,
    "state_code": "13",
    "country_id": 177,
    "country_code": "PT",
    "latitude": "41.40435000",
    "longitude": "-8.62386000",
    "native": null,
    "timezone": null,
    "translations": {}
  },
  {
    "id": 89016,
    "name": "Baltar",
    "state_id": 2243,
    "state_code": "13",
    "country_id": 177,
    "country_code": "PT",
    "latitude": "41.19272000",
    "longitude": "-8.38768000",
    "native": null,
    "timezone": null,
    "translations": {}
  },
  {
    "id": 89022,
    "name": "Barrosas",
    "state_id": 2243,
    "state_code": "13",
    "country_id": 177,
    "country_code": "PT",
    "latitude": "41.35534000",
    "longitude": "-8.29943000",
    "native": null,
    "timezone": null,
    "translations": {}
  },
  {
    "id": 89026,
    "name": "Beiriz de Baixo",
    "state_id": 2243,
    "state_code": "13",
    "country_id": 177,
    "country_code": "PT",
    "latitude": "41.39727000",
    "longitude": "-8.72385000",
    "native": null,
    "timezone": null,
    "translations": {}
  },
  {
    "id": 89045,
    "name": "Bougado",
    "state_id": 2243,
    "state_code": "13",
    "country_id": 177,
    "country_code": "PT",
    "latitude": "41.33979000",
    "longitude": "-8.55180000",
    "native": null,
    "timezone": null,
    "translations": {}
  },
  {
    "id": 89077,
    "name": "Campo",
    "state_id": 2243,
    "state_code": "13",
    "country_id": 177,
    "country_code": "PT",
    "latitude": "41.18516000",
    "longitude": "-8.46493000",
    "native": null,
    "timezone": null,
    "translations": {}
  },
  {
    "id": 89082,
    "name": "Canelas",
    "state_id": 2243,
    "state_code": "13",
    "country_id": 177,
    "country_code": "PT",
    "latitude": "41.08333000",
    "longitude": "-8.60000000",
    "native": null,
    "timezone": null,
    "translations": {}
  },
  {
    "id": 89085,
    "name": "Canidelo",
    "state_id": 2243,
    "state_code": "13",
    "country_id": 177,
    "country_code": "PT",
    "latitude": "41.12314000",
    "longitude": "-8.64654000",
    "native": null,
    "timezone": null,
    "translations": {}
  },
  {
    "id": 89099,
    "name": "Carvalhosa",
    "state_id": 2243,
    "state_code": "13",
    "country_id": 177,
    "country_code": "PT",
    "latitude": "41.30057000",
    "longitude": "-8.36080000",
    "native": null,
    "timezone": null,
    "translations": {}
  },
  {
    "id": 89108,
    "name": "Castelões de Cepeda",
    "state_id": 2243,
    "state_code": "13",
    "country_id": 177,
    "country_code": "PT",
    "latitude": "41.20265000",
    "longitude": "-8.33516000",
    "native": null,
    "timezone": null,
    "translations": {}
  },
  {
    "id": 89145,
    "name": "Ermesinde",
    "state_id": 2243,
    "state_code": "13",
    "country_id": 177,
    "country_code": "PT",
    "latitude": "41.21653000",
    "longitude": "-8.55318000",
    "native": null,
    "timezone": null,
    "translations": {}
  },
  {
    "id": 89154,
    "name": "Estela",
    "state_id": 2243,
    "state_code": "13",
    "country_id": 177,
    "country_code": "PT",
    "latitude": "41.44944000",
    "longitude": "-8.75166000",
    "native": null,
    "timezone": null,
    "translations": {}
  },
  {
    "id": 89202,
    "name": "Fânzeres",
    "state_id": 2243,
    "state_code": "13",
    "country_id": 177,
    "country_code": "PT",
    "latitude": "41.16754000",
    "longitude": "-8.52981000",
    "native": null,
    "timezone": null,
    "translations": {}
  },
  {
    "id": 89171,
    "name": "Felgueiras",
    "state_id": 2243,
    "state_code": "13",
    "country_id": 177,
    "country_code": "PT",
    "latitude": "41.34774000",
    "longitude": "-8.20808000",
    "native": null,
    "timezone": null,
    "translations": {}
  },
  {
    "id": 89175,
    "name": "Ferreira",
    "state_id": 2243,
    "state_code": "13",
    "country_id": 177,
    "country_code": "PT",
    "latitude": "41.26718000",
    "longitude": "-8.34434000",
    "native": null,
    "timezone": null,
    "translations": {}
  },
  {
    "id": 89183,
    "name": "Figueiró",
    "state_id": 2243,
    "state_code": "13",
    "country_id": 177,
    "country_code": "PT",
    "latitude": "41.29922000",
    "longitude": "-8.16779000",
    "native": null,
    "timezone": null,
    "translations": {}
  },
  {
    "id": 89189,
    "name": "Foz do Douro",
    "state_id": 2243,
    "state_code": "13",
    "country_id": 177,
    "country_code": "PT",
    "latitude": "41.15119000",
    "longitude": "-8.67125000",
    "native": null,
    "timezone": null,
    "translations": {}
  },
  {
    "id": 89190,
    "name": "Foz do Sousa",
    "state_id": 2243,
    "state_code": "13",
    "country_id": 177,
    "country_code": "PT",
    "latitude": "41.09668000",
    "longitude": "-8.50184000",
    "native": null,
    "timezone": null,
    "translations": {}
  },
  {
    "id": 89192,
    "name": "Frazão",
    "state_id": 2243,
    "state_code": "13",
    "country_id": 177,
    "country_code": "PT",
    "latitude": "41.25866000",
    "longitude": "-8.40014000",
    "native": null,
    "timezone": null,
    "translations": {}
  },
  {
    "id": 89193,
    "name": "Freamunde",
    "state_id": 2243,
    "state_code": "13",
    "country_id": 177,
    "country_code": "PT",
    "latitude": "41.28835000",
    "longitude": "-8.33533000",
    "native": null,
    "timezone": null,
    "translations": {}
  },
  {
    "id": 89206,
    "name": "Gandra",
    "state_id": 2243,
    "state_code": "13",
    "country_id": 177,
    "country_code": "PT",
    "latitude": "41.20116000",
    "longitude": "-8.43376000",
    "native": null,
    "timezone": null,
    "translations": {}
  },
  {
    "id": 89209,
    "name": "Gemunde",
    "state_id": 2243,
    "state_code": "13",
    "country_id": 177,
    "country_code": "PT",
    "latitude": "41.26766000",
    "longitude": "-8.64515000",
    "native": null,
    "timezone": null,
    "translations": {}
  },
  {
    "id": 89213,
    "name": "Gondomar",
    "state_id": 2243,
    "state_code": "13",
    "country_id": 177,
    "country_code": "PT",
    "latitude": "41.12015000",
    "longitude": "-8.49595000",
    "native": null,
    "timezone": null,
    "translations": {}
  },
  {
    "id": 89214,
    "name": "Grijó",
    "state_id": 2243,
    "state_code": "13",
    "country_id": 177,
    "country_code": "PT",
    "latitude": "41.02836000",
    "longitude": "-8.58017000",
    "native": null,
    "timezone": null,
    "translations": {}
  },
  {
    "id": 89218,
    "name": "Guifões",
    "state_id": 2243,
    "state_code": "13",
    "country_id": 177,
    "country_code": "PT",
    "latitude": "41.19748000",
    "longitude": "-8.66899000",
    "native": null,
    "timezone": null,
    "translations": {}
  },
  {
    "id": 89221,
    "name": "Gulpilhares",
    "state_id": 2243,
    "state_code": "13",
    "country_id": 177,
    "country_code": "PT",
    "latitude": "41.08292000",
    "longitude": "-8.62679000",
    "native": null,
    "timezone": null,
    "translations": {}
  },
  {
    "id": 89226,
    "name": "Jovim",
    "state_id": 2243,
    "state_code": "13",
    "country_id": 177,
    "country_code": "PT",
    "latitude": "41.11102000",
    "longitude": "-8.51903000",
    "native": null,
    "timezone": null,
    "translations": {}
  },
  {
    "id": 89239,
    "name": "Lavra",
    "state_id": 2243,
    "state_code": "13",
    "country_id": 177,
    "country_code": "PT",
    "latitude": "41.25935000",
    "longitude": "-8.71849000",
    "native": null,
    "timezone": null,
    "translations": {}
  },
  {
    "id": 89242,
    "name": "Leça da Palmeira",
    "state_id": 2243,
    "state_code": "13",
    "country_id": 177,
    "country_code": "PT",
    "latitude": "41.19100000",
    "longitude": "-8.70027000",
    "native": null,
    "timezone": null,
    "translations": {}
  },
  {
    "id": 89243,
    "name": "Leça do Bailio",
    "state_id": 2243,
    "state_code": "13",
    "country_id": 177,
    "country_code": "PT",
    "latitude": "41.21201000",
    "longitude": "-8.63422000",
    "native": null,
    "timezone": null,
    "translations": {}
  },
  {
    "id": 89247,
    "name": "Lordelo",
    "state_id": 2243,
    "state_code": "13",
    "country_id": 177,
    "country_code": "PT",
    "latitude": "41.23451000",
    "longitude": "-8.40297000",
    "native": null,
    "timezone": null,
    "translations": {}
  },
  {
    "id": 89255,
    "name": "Lousada",
    "state_id": 2243,
    "state_code": "13",
    "country_id": 177,
    "country_code": "PT",
    "latitude": "41.28355000",
    "longitude": "-8.27437000",
    "native": null,
    "timezone": null,
    "translations": {}
  },
  {
    "id": 89258,
    "name": "Lustosa",
    "state_id": 2243,
    "state_code": "13",
    "country_id": 177,
    "country_code": "PT",
    "latitude": "41.34081000",
    "longitude": "-8.31715000",
    "native": null,
    "timezone": null,
    "translations": {}
  },
  {
    "id": 89266,
    "name": "Madalena",
    "state_id": 2243,
    "state_code": "13",
    "country_id": 177,
    "country_code": "PT",
    "latitude": "41.21616000",
    "longitude": "-8.33451000",
    "native": null,
    "timezone": null,
    "translations": {}
  },
  {
    "id": 89270,
    "name": "Maia",
    "state_id": 2243,
    "state_code": "13",
    "country_id": 177,
    "country_code": "PT",
    "latitude": "41.24254000",
    "longitude": "-8.60257000",
    "native": null,
    "timezone": null,
    "translations": {}
  },
  {
    "id": 89274,
    "name": "Marco de Canaveses",
    "state_id": 2243,
    "state_code": "13",
    "country_id": 177,
    "country_code": "PT",
    "latitude": "41.15545000",
    "longitude": "-8.16954000",
    "native": null,
    "timezone": null,
    "translations": {}
  },
  {
    "id": 89275,
    "name": "Marco de Canavezes",
    "state_id": 2243,
    "state_code": "13",
    "country_id": 177,
    "country_code": "PT",
    "latitude": "41.18389000",
    "longitude": "-8.14864000",
    "native": null,
    "timezone": null,
    "translations": {}
  },
  {
    "id": 89276,
    "name": "Margaride",
    "state_id": 2243,
    "state_code": "13",
    "country_id": 177,
    "country_code": "PT",
    "latitude": "41.36478000",
    "longitude": "-8.19999000",
    "native": null,
    "timezone": null,
    "translations": {}
  },
  {
    "id": 89284,
    "name": "Matosinhos",
    "state_id": 2243,
    "state_code": "13",
    "country_id": 177,
    "country_code": "PT",
    "latitude": "41.18207000",
    "longitude": "-8.68908000",
    "native": null,
    "timezone": null,
    "translations": {}
  },
  {
    "id": 89289,
    "name": "Meinedo",
    "state_id": 2243,
    "state_code": "13",
    "country_id": 177,
    "country_code": "PT",
    "latitude": "41.24827000",
    "longitude": "-8.25807000",
    "native": null,
    "timezone": null,
    "translations": {}
  },
  {
    "id": 89291,
    "name": "Melres",
    "state_id": 2243,
    "state_code": "13",
    "country_id": 177,
    "country_code": "PT",
    "latitude": "41.06989000",
    "longitude": "-8.40091000",
    "native": null,
    "timezone": null,
    "translations": {}
  },
  {
    "id": 89297,
    "name": "Milheirós",
    "state_id": 2243,
    "state_code": "13",
    "country_id": 177,
    "country_code": "PT",
    "latitude": "41.21478000",
    "longitude": "-8.58837000",
    "native": null,
    "timezone": null,
    "translations": {}
  },
  {
    "id": 89301,
    "name": "Mindelo",
    "state_id": 2243,
    "state_code": "13",
    "country_id": 177,
    "country_code": "PT",
    "latitude": "41.31527000",
    "longitude": "-8.72124000",
    "native": null,
    "timezone": null,
    "translations": {}
  },
  {
    "id": 89329,
    "name": "Moreira",
    "state_id": 2243,
    "state_code": "13",
    "country_id": 177,
    "country_code": "PT",
    "latitude": "41.05600000",
    "longitude": "-8.38939000",
    "native": null,
    "timezone": null,
    "translations": {}
  },
  {
    "id": 89344,
    "name": "Negrelos",
    "state_id": 2243,
    "state_code": "13",
    "country_id": 177,
    "country_code": "PT",
    "latitude": "41.34946000",
    "longitude": "-8.40145000",
    "native": null,
    "timezone": null,
    "translations": {}
  },
  {
    "id": 89348,
    "name": "Nogueira",
    "state_id": 2243,
    "state_code": "13",
    "country_id": 177,
    "country_code": "PT",
    "latitude": "41.24246000",
    "longitude": "-8.58685000",
    "native": null,
    "timezone": null,
    "translations": {}
  },
  {
    "id": 89360,
    "name": "Olival",
    "state_id": 2243,
    "state_code": "13",
    "country_id": 177,
    "country_code": "PT",
    "latitude": "41.05024000",
    "longitude": "-8.54416000",
    "native": null,
    "timezone": null,
    "translations": {}
  },
  {
    "id": 89367,
    "name": "Oliveira do Douro",
    "state_id": 2243,
    "state_code": "13",
    "country_id": 177,
    "country_code": "PT",
    "latitude": "41.12466000",
    "longitude": "-8.58463000",
    "native": null,
    "timezone": null,
    "translations": {}
  },
  {
    "id": 89388,
    "name": "Paços de Ferreira",
    "state_id": 2243,
    "state_code": "13",
    "country_id": 177,
    "country_code": "PT",
    "latitude": "41.28964000",
    "longitude": "-8.37584000",
    "native": null,
    "timezone": null,
    "translations": {}
  },
  {
    "id": 89383,
    "name": "Paredes",
    "state_id": 2243,
    "state_code": "13",
    "country_id": 177,
    "country_code": "PT",
    "latitude": "41.20501000",
    "longitude": "-8.37506000",
    "native": null,
    "timezone": null,
    "translations": {}
  },
  {
    "id": 89389,
    "name": "Pedroso",
    "state_id": 2243,
    "state_code": "13",
    "country_id": 177,
    "country_code": "PT",
    "latitude": "41.41103000",
    "longitude": "-8.74897000",
    "native": null,
    "timezone": null,
    "translations": {}
  },
  {
    "id": 89390,
    "name": "Pedrouços",
    "state_id": 2243,
    "state_code": "13",
    "country_id": 177,
    "country_code": "PT",
    "latitude": "41.18880000",
    "longitude": "-8.58624000",
    "native": null,
    "timezone": null,
    "translations": {}
  },
  {
    "id": 89394,
    "name": "Penafiel",
    "state_id": 2243,
    "state_code": "13",
    "country_id": 177,
    "country_code": "PT",
    "latitude": "41.20931000",
    "longitude": "-8.26996000",
    "native": null,
    "timezone": null,
    "translations": {}
  },
  {
    "id": 89401,
    "name": "Perafita",
    "state_id": 2243,
    "state_code": "13",
    "country_id": 177,
    "country_code": "PT",
    "latitude": "41.18252000",
    "longitude": "-8.25450000",
    "native": null,
    "timezone": null,
    "translations": {}
  },
  {
    "id": 89404,
    "name": "Perozinho",
    "state_id": 2243,
    "state_code": "13",
    "country_id": 177,
    "country_code": "PT",
    "latitude": "41.06513000",
    "longitude": "-8.58531000",
    "native": null,
    "timezone": null,
    "translations": {}
  },
  {
    "id": 89425,
    "name": "Porto",
    "state_id": 2243,
    "state_code": "13",
    "country_id": 177,
    "country_code": "PT",
    "latitude": "41.14961000",
    "longitude": "-8.61099000",
    "native": null,
    "timezone": null,
    "translations": {}
  },
  {
    "id": 89445,
    "name": "Póvoa de Varzim",
    "state_id": 2243,
    "state_code": "13",
    "country_id": 177,
    "country_code": "PT",
    "latitude": "41.38344000",
    "longitude": "-8.76364000",
    "native": null,
    "timezone": null,
    "translations": {}
  },
  {
    "id": 89455,
    "name": "Rebordões",
    "state_id": 2243,
    "state_code": "13",
    "country_id": 177,
    "country_code": "PT",
    "latitude": "41.35509000",
    "longitude": "-8.42355000",
    "native": null,
    "timezone": null,
    "translations": {}
  },
  {
    "id": 89454,
    "name": "Rebordosa",
    "state_id": 2243,
    "state_code": "13",
    "country_id": 177,
    "country_code": "PT",
    "latitude": "41.22405000",
    "longitude": "-8.40669000",
    "native": null,
    "timezone": null,
    "translations": {}
  },
  {
    "id": 89456,
    "name": "Recarei",
    "state_id": 2243,
    "state_code": "13",
    "country_id": 177,
    "country_code": "PT",
    "latitude": "41.15356000",
    "longitude": "-8.41178000",
    "native": null,
    "timezone": null,
    "translations": {}
  },
  {
    "id": 89472,
    "name": "Rio Mau",
    "state_id": 2243,
    "state_code": "13",
    "country_id": 177,
    "country_code": "PT",
    "latitude": "41.40422000",
    "longitude": "-8.67994000",
    "native": null,
    "timezone": null,
    "translations": {}
  },
  {
    "id": 89474,
    "name": "Rio Tinto",
    "state_id": 2243,
    "state_code": "13",
    "country_id": 177,
    "country_code": "PT",
    "latitude": "41.17872000",
    "longitude": "-8.55953000",
    "native": null,
    "timezone": null,
    "translations": {}
  },
  {
    "id": 89491,
    "name": "Sandim",
    "state_id": 2243,
    "state_code": "13",
    "country_id": 177,
    "country_code": "PT",
    "latitude": "41.03508000",
    "longitude": "-8.50700000",
    "native": null,
    "timezone": null,
    "translations": {}
  },
  {
    "id": 89503,
    "name": "Santa Cruz do Bispo",
    "state_id": 2243,
    "state_code": "13",
    "country_id": 177,
    "country_code": "PT",
    "latitude": "41.21462000",
    "longitude": "-8.67406000",
    "native": null,
    "timezone": null,
    "translations": {}
  },
  {
    "id": 89518,
    "name": "Santo Izidoro",
    "state_id": 2243,
    "state_code": "13",
    "country_id": 177,
    "country_code": "PT",
    "latitude": "41.21083000",
    "longitude": "-8.14224000",
    "native": null,
    "timezone": null,
    "translations": {}
  },
  {
    "id": 89519,
    "name": "Santo Tirso",
    "state_id": 2243,
    "state_code": "13",
    "country_id": 177,
    "country_code": "PT",
    "latitude": "41.33014000",
    "longitude": "-8.43827000",
    "native": null,
    "timezone": null,
    "translations": {}
  },
  {
    "id": 89562,
    "name": "São Félix da Marinha",
    "state_id": 2243,
    "state_code": "13",
    "country_id": 177,
    "country_code": "PT",
    "latitude": "41.03555000",
    "longitude": "-8.62259000",
    "native": null,
    "timezone": null,
    "translations": {}
  },
  {
    "id": 89573,
    "name": "São Mamede de Infesta",
    "state_id": 2243,
    "state_code": "13",
    "country_id": 177,
    "country_code": "PT",
    "latitude": "41.19183000",
    "longitude": "-8.61105000",
    "native": null,
    "timezone": null,
    "translations": {}
  },
  {
    "id": 89579,
    "name": "São Miguel do Couto",
    "state_id": 2243,
    "state_code": "13",
    "country_id": 177,
    "country_code": "PT",
    "latitude": "41.33167000",
    "longitude": "-8.46185000",
    "native": null,
    "timezone": null,
    "translations": {}
  },
  {
    "id": 89581,
    "name": "São Pedro da Cova",
    "state_id": 2243,
    "state_code": "13",
    "country_id": 177,
    "country_code": "PT",
    "latitude": "41.14331000",
    "longitude": "-8.50033000",
    "native": null,
    "timezone": null,
    "translations": {}
  },
  {
    "id": 89584,
    "name": "São Romão do Coronado",
    "state_id": 2243,
    "state_code": "13",
    "country_id": 177,
    "country_code": "PT",
    "latitude": "41.28544000",
    "longitude": "-8.56320000",
    "native": null,
    "timezone": null,
    "translations": {}
  },
  {
    "id": 89527,
    "name": "Senhora da Hora",
    "state_id": 2243,
    "state_code": "13",
    "country_id": 177,
    "country_code": "PT",
    "latitude": "41.18641000",
    "longitude": "-8.65172000",
    "native": null,
    "timezone": null,
    "translations": {}
  },
  {
    "id": 89530,
    "name": "Sermonde",
    "state_id": 2243,
    "state_code": "13",
    "country_id": 177,
    "country_code": "PT",
    "latitude": "41.04712000",
    "longitude": "-8.58449000",
    "native": null,
    "timezone": null,
    "translations": {}
  },
  {
    "id": 89532,
    "name": "Seroa",
    "state_id": 2243,
    "state_code": "13",
    "country_id": 177,
    "country_code": "PT",
    "latitude": "41.26511000",
    "longitude": "-8.42892000",
    "native": null,
    "timezone": null,
    "translations": {}
  },
  {
    "id": 89538,
    "name": "Serzedo",
    "state_id": 2243,
    "state_code": "13",
    "country_id": 177,
    "country_code": "PT",
    "latitude": "41.05105000",
    "longitude": "-8.61605000",
    "native": null,
    "timezone": null,
    "translations": {}
  },
  {
    "id": 89547,
    "name": "Sobrado",
    "state_id": 2243,
    "state_code": "13",
    "country_id": 177,
    "country_code": "PT",
    "latitude": "41.21041000",
    "longitude": "-8.45488000",
    "native": null,
    "timezone": null,
    "translations": {}
  },
  {
    "id": 89600,
    "name": "Telões",
    "state_id": 2243,
    "state_code": "13",
    "country_id": 177,
    "country_code": "PT",
    "latitude": "41.31054000",
    "longitude": "-8.11101000",
    "native": null,
    "timezone": null,
    "translations": {}
  },
  {
    "id": 89613,
    "name": "Trofa",
    "state_id": 2243,
    "state_code": "13",
    "country_id": 177,
    "country_code": "PT",
    "latitude": "41.30646000",
    "longitude": "-8.57640000",
    "native": null,
    "timezone": null,
    "translations": {}
  },
  {
    "id": 89620,
    "name": "Vairão",
    "state_id": 2243,
    "state_code": "13",
    "country_id": 177,
    "country_code": "PT",
    "latitude": "41.33290000",
    "longitude": "-8.66657000",
    "native": null,
    "timezone": null,
    "translations": {}
  },
  {
    "id": 89621,
    "name": "Valadares",
    "state_id": 2243,
    "state_code": "13",
    "country_id": 177,
    "country_code": "PT",
    "latitude": "41.14737000",
    "longitude": "-7.98120000",
    "native": null,
    "timezone": null,
    "translations": {}
  },
  {
    "id": 89623,
    "name": "Valbom",
    "state_id": 2243,
    "state_code": "13",
    "country_id": 177,
    "country_code": "PT",
    "latitude": "41.12921000",
    "longitude": "-8.56199000",
    "native": null,
    "timezone": null,
    "translations": {}
  },
  {
    "id": 89631,
    "name": "Valongo",
    "state_id": 2243,
    "state_code": "13",
    "country_id": 177,
    "country_code": "PT",
    "latitude": "41.20797000",
    "longitude": "-8.50086000",
    "native": null,
    "timezone": null,
    "translations": {}
  },
  {
    "id": 89672,
    "name": "Vila do Conde",
    "state_id": 2243,
    "state_code": "13",
    "country_id": 177,
    "country_code": "PT",
    "latitude": "41.35326000",
    "longitude": "-8.74516000",
    "native": null,
    "timezone": null,
    "translations": {}
  },
  {
    "id": 89652,
    "name": "Vila Meã",
    "state_id": 2243,
    "state_code": "13",
    "country_id": 177,
    "country_code": "PT",
    "latitude": "41.25116000",
    "longitude": "-8.18397000",
    "native": null,
    "timezone": null,
    "translations": {}
  },
  {
    "id": 89655,
    "name": "Vila Nova da Telha",
    "state_id": 2243,
    "state_code": "13",
    "country_id": 177,
    "country_code": "PT",
    "latitude": "41.07170000",
    "longitude": "-8.64146000",
    "native": null,
    "timezone": null,
    "translations": {}
  },
  {
    "id": 89657,
    "name": "Vila Nova de Gaia",
    "state_id": 2243,
    "state_code": "13",
    "country_id": 177,
    "country_code": "PT",
    "latitude": "41.12401000",
    "longitude": "-8.61241000",
    "native": null,
    "timezone": null,
    "translations": {}
  },
  {
    "id": 89675,
    "name": "Vilar de Andorinho",
    "state_id": 2243,
    "state_code": "13",
    "country_id": 177,
    "country_code": "PT",
    "latitude": "41.10574000",
    "longitude": "-8.58622000",
    "native": null,
    "timezone": null,
    "translations": {}
  },
  {
    "id": 89677,
    "name": "Vilar do Paraíso",
    "state_id": 2243,
    "state_code": "13",
    "country_id": 177,
    "country_code": "PT",
    "latitude": "41.08974000",
    "longitude": "-8.62110000",
    "native": null,
    "timezone": null,
    "translations": {}
  },
  {
    "id": 89678,
    "name": "Vilarinho",
    "state_id": 2243,
    "state_code": "13",
    "country_id": 177,
    "country_code": "PT",
    "latitude": "41.35955000",
    "longitude": "-8.33123000",
    "native": null,
    "timezone": null,
    "translations": {}
  },
  {
    "id": 89685,
    "name": "Vizela",
    "state_id": 2243,
    "state_code": "13",
    "country_id": 177,
    "country_code": "PT",
    "latitude": "41.38242000",
    "longitude": "-8.24887000",
    "native": null,
    "timezone": null,
    "translations": {}
  }
]