[
  {
    "id": 39256,
    "name": "Afa",
    "state_id": 4806,
    "state_code": "20R",
    "country_id": 75,
    "country_code": "FR",
    "latitude": "41.98396000",
    "longitude": "8.79833000",
    "native": null,
    "timezone": null,
    "translations": {}
  },
  {
    "id": 39298,
    "name": "Ajaccio",
    "state_id": 4806,
    "state_code": "20R",
    "country_id": 75,
    "country_code": "FR",
    "latitude": "41.91886000",
    "longitude": "8.73812000",
    "native": null,
    "timezone": null,
    "translations": {}
  },
  {
    "id": 39300,
    "name": "Alata",
    "state_id": 4806,
    "state_code": "20R",
    "country_id": 75,
    "country_code": "FR",
    "latitude": "41.97636000",
    "longitude": "8.74208000",
    "native": null,
    "timezone": null,
    "translations": {}
  },
  {
    "id": 39308,
    "name": "Albitreccia",
    "state_id": 4806,
    "state_code": "20R",
    "country_id": 75,
    "country_code": "FR",
    "latitude": "41.86301000",
    "longitude": "8.94262000",
    "native": null,
    "timezone": null,
    "translations": {}
  },
  {
    "id": 39343,
    "name": "Aléria",
    "state_id": 4806,
    "state_code": "20R",
    "country_id": 75,
    "country_code": "FR",
    "latitude": "42.10431000",
    "longitude": "9.51265000",
    "native": null,
    "timezone": null,
    "translations": {}
  },
  {
    "id": 39442,
    "name": "Appietto",
    "state_id": 4806,
    "state_code": "20R",
    "country_id": 75,
    "country_code": "FR",
    "latitude": "42.01426000",
    "longitude": "8.76855000",
    "native": null,
    "timezone": null,
    "translations": {}
  },
  {
    "id": 39804,
    "name": "Bastia",
    "state_id": 4806,
    "state_code": "20R",
    "country_id": 75,
    "country_code": "FR",
    "latitude": "42.70278000",
    "longitude": "9.45000000",
    "native": null,
    "timezone": null,
    "translations": {}
  },
  {
    "id": 40018,
    "name": "Biguglia",
    "state_id": 4806,
    "state_code": "20R",
    "country_id": 75,
    "country_code": "FR",
    "latitude": "42.62692000",
    "longitude": "9.42018000",
    "native": null,
    "timezone": null,
    "translations": {}
  },
  {
    "id": 40114,
    "name": "Bonifacio",
    "state_id": 4806,
    "state_code": "20R",
    "country_id": 75,
    "country_code": "FR",
    "latitude": "41.38740000",
    "longitude": "9.15941000",
    "native": null,
    "timezone": null,
    "translations": {}
  },
  {
    "id": 40140,
    "name": "Borgo",
    "state_id": 4806,
    "state_code": "20R",
    "country_id": 75,
    "country_code": "FR",
    "latitude": "42.55488000",
    "longitude": "9.42636000",
    "native": null,
    "timezone": null,
    "translations": {}
  },
  {
    "id": 40252,
    "name": "Brando",
    "state_id": 4806,
    "state_code": "20R",
    "country_id": 75,
    "country_code": "FR",
    "latitude": "42.76667000",
    "longitude": "9.45000000",
    "native": null,
    "timezone": null,
    "translations": {}
  },
  {
    "id": 40470,
    "name": "Calenzana",
    "state_id": 4806,
    "state_code": "20R",
    "country_id": 75,
    "country_code": "FR",
    "latitude": "42.50855000",
    "longitude": "8.85538000",
    "native": null,
    "timezone": null,
    "translations": {}
  },
  {
    "id": 40479,
    "name": "Calvi",
    "state_id": 4806,
    "state_code": "20R",
    "country_id": 75,
    "country_code": "FR",
    "latitude": "42.56604000",
    "longitude": "8.75713000",
    "native": null,
    "timezone": null,
    "translations": {}
  },
  {
    "id": 40543,
    "name": "Cargèse",
    "state_id": 4806,
    "state_code": "20R",
    "country_id": 75,
    "country_code": "FR",
    "latitude": "42.13629000",
    "longitude": "8.59586000",
    "native": null,
    "timezone": null,
    "translations": {}
  },
  {
    "id": 40611,
    "name": "Cauro",
    "state_id": 4806,
    "state_code": "20R",
    "country_id": 75,
    "country_code": "FR",
    "latitude": "41.91756000",
    "longitude": "8.91480000",
    "native": null,
    "timezone": null,
    "translations": {}
  },
  {
    "id": 40657,
    "name": "Cervione",
    "state_id": 4806,
    "state_code": "20R",
    "country_id": 75,
    "country_code": "FR",
    "latitude": "42.32835000",
    "longitude": "9.49343000",
    "native": null,
    "timezone": null,
    "translations": {}
  },
  {
    "id": 41205,
    "name": "Corte",
    "state_id": 4806,
    "state_code": "20R",
    "country_id": 75,
    "country_code": "FR",
    "latitude": "42.30956000",
    "longitude": "9.14917000",
    "native": null,
    "timezone": null,
    "translations": {}
  },
  {
    "id": 41384,
    "name": "Cuttoli-Corticchiato",
    "state_id": 4806,
    "state_code": "20R",
    "country_id": 75,
    "country_code": "FR",
    "latitude": "41.98333000",
    "longitude": "8.91667000",
    "native": null,
    "timezone": null,
    "translations": {}
  },
  {
    "id": 41818,
    "name": "Figari",
    "state_id": 4806,
    "state_code": "20R",
    "country_id": 75,
    "country_code": "FR",
    "latitude": "41.48792000",
    "longitude": "9.13013000",
    "native": null,
    "timezone": null,
    "translations": {}
  },
  {
    "id": 41994,
    "name": "Furiani",
    "state_id": 4806,
    "state_code": "20R",
    "country_id": 75,
    "country_code": "FR",
    "latitude": "42.65847000",
    "longitude": "9.41446000",
    "native": null,
    "timezone": null,
    "translations": {}
  },
  {
    "id": 42084,
    "name": "Ghisonaccia",
    "state_id": 4806,
    "state_code": "20R",
    "country_id": 75,
    "country_code": "FR",
    "latitude": "42.01582000",
    "longitude": "9.40507000",
    "native": null,
    "timezone": null,
    "translations": {}
  },
  {
    "id": 42227,
    "name": "Grosseto-Prugna",
    "state_id": 4806,
    "state_code": "20R",
    "country_id": 75,
    "country_code": "FR",
    "latitude": "41.87097000",
    "longitude": "8.96403000",
    "native": null,
    "timezone": null,
    "translations": {}
  },
  {
    "id": 42629,
    "name": "L'Île-Rousse",
    "state_id": 4806,
    "state_code": "20R",
    "country_id": 75,
    "country_code": "FR",
    "latitude": "42.63371000",
    "longitude": "8.93764000",
    "native": null,
    "timezone": null,
    "translations": {}
  },
  {
    "id": 43502,
    "name": "Linguizzetta",
    "state_id": 4806,
    "state_code": "20R",
    "country_id": 75,
    "country_code": "FR",
    "latitude": "42.26384000",
    "longitude": "9.47297000",
    "native": null,
    "timezone": null,
    "translations": {}
  },
  {
    "id": 43631,
    "name": "Lucciana",
    "state_id": 4806,
    "state_code": "20R",
    "country_id": 75,
    "country_code": "FR",
    "latitude": "42.54609000",
    "longitude": "9.41865000",
    "native": null,
    "timezone": null,
    "translations": {}
  },
  {
    "id": 43650,
    "name": "Lumio",
    "state_id": 4806,
    "state_code": "20R",
    "country_id": 75,
    "country_code": "FR",
    "latitude": "42.57894000",
    "longitude": "8.83373000",
    "native": null,
    "timezone": null,
    "translations": {}
  },
  {
    "id": 44252,
    "name": "Monticello",
    "state_id": 4806,
    "state_code": "20R",
    "country_id": 75,
    "country_code": "FR",
    "latitude": "42.61705000",
    "longitude": "8.95477000",
    "native": null,
    "timezone": null,
    "translations": {}
  },
  {
    "id": 44363,
    "name": "Morosaglia",
    "state_id": 4806,
    "state_code": "20R",
    "country_id": 75,
    "country_code": "FR",
    "latitude": "42.43511000",
    "longitude": "9.30009000",
    "native": null,
    "timezone": null,
    "translations": {}
  },
  {
    "id": 44732,
    "name": "Oletta",
    "state_id": 4806,
    "state_code": "20R",
    "country_id": 75,
    "country_code": "FR",
    "latitude": "42.62991000",
    "longitude": "9.35431000",
    "native": null,
    "timezone": null,
    "translations": {}
  },
  {
    "id": 44736,
    "name": "Olmeto",
    "state_id": 4806,
    "state_code": "20R",
    "country_id": 75,
    "country_code": "FR",
    "latitude": "41.71724000",
    "longitude": "8.91783000",
    "native": null,
    "timezone": null,
    "translations": {}
  },
  {
    "id": 44893,
    "name": "Penta-di-Casinca",
    "state_id": 4806,
    "state_code": "20R",
    "country_id": 75,
    "country_code": "FR",
    "latitude": "42.46579000",
    "longitude": "9.45884000",
    "native": null,
    "timezone": null,
    "translations": {}
  },
  {
    "id": 44896,
    "name": "Peri",
    "state_id": 4806,
    "state_code": "20R",
    "country_id": 75,
    "country_code": "FR",
    "latitude": "42.00345000",
    "longitude": "8.92066000",
    "native": null,
    "timezone": null,
    "translations": {}
  },
  {
    "id": 44966,
    "name": "Pietranera",
    "state_id": 4806,
    "state_code": "20R",
    "country_id": 75,
    "country_code": "FR",
    "latitude": "42.72338000",
    "longitude": "9.45621000",
    "native": null,
    "timezone": null,
    "translations": {}
  },
  {
    "id": 44967,
    "name": "Pietrosella",
    "state_id": 4806,
    "state_code": "20R",
    "country_id": 75,
    "country_code": "FR",
    "latitude": "41.83576000",
    "longitude": "8.84573000",
    "native": null,
    "timezone": null,
    "translations": {}
  },
  {
    "id": 45245,
    "name": "Porto-Vecchio",
    "state_id": 4806,
    "state_code": "20R",
    "country_id": 75,
    "country_code": "FR",
    "latitude": "41.59101000",
    "longitude": "9.27947000",
    "native": null,
    "timezone": null,
    "translations": {}
  },
  {
    "id": 45294,
    "name": "Propriano",
    "state_id": 4806,
    "state_code": "20R",
    "country_id": 75,
    "country_code": "FR",
    "latitude": "41.67590000",
    "longitude": "8.90412000",
    "native": null,
    "timezone": null,
    "translations": {}
  },
  {
    "id": 45300,
    "name": "Prunelli-di-Fiumorbo",
    "state_id": 4806,
    "state_code": "20R",
    "country_id": 75,
    "country_code": "FR",
    "latitude": "42.01047000",
    "longitude": "9.32473000",
    "native": null,
    "timezone": null,
    "translations": {}
  },
  {
    "id": 45932,
    "name": "Saint-Florent",
    "state_id": 4806,
    "state_code": "20R",
    "country_id": 75,
    "country_code": "FR",
    "latitude": "42.68150000",
    "longitude": "9.30396000",
    "native": null,
    "timezone": null,
    "translations": {}
  },
  {
    "id": 46778,
    "name": "San-Martino-di-Lota",
    "state_id": 4806,
    "state_code": "20R",
    "country_id": 75,
    "country_code": "FR",
    "latitude": "42.73163000",
    "longitude": "9.43966000",
    "native": null,
    "timezone": null,
    "translations": {}
  },
  {
    "id": 46779,
    "name": "San-Nicolao",
    "state_id": 4806,
    "state_code": "20R",
    "country_id": 75,
    "country_code": "FR",
    "latitude": "42.36993000",
    "longitude": "9.51443000",
    "native": null,
    "timezone": null,
    "translations": {}
  },
  {
    "id": 46795,
    "name": "Santa-Lucia-di-Moriani",
    "state_id": 4806,
    "state_code": "20R",
    "country_id": 75,
    "country_code": "FR",
    "latitude": "42.38212000",
    "longitude": "9.52242000",
    "native": null,
    "timezone": null,
    "translations": {}
  },
  {
    "id": 46796,
    "name": "Santa-Maria-di-Lota",
    "state_id": 4806,
    "state_code": "20R",
    "country_id": 75,
    "country_code": "FR",
    "latitude": "42.74783000",
    "longitude": "9.43202000",
    "native": null,
    "timezone": null,
    "translations": {}
  },
  {
    "id": 46807,
    "name": "Sari-Solenzara",
    "state_id": 4806,
    "state_code": "20R",
    "country_id": 75,
    "country_code": "FR",
    "latitude": "41.83519000",
    "longitude": "9.37470000",
    "native": null,
    "timezone": null,
    "translations": {}
  },
  {
    "id": 46817,
    "name": "Sarrola",
    "state_id": 4806,
    "state_code": "20R",
    "country_id": 75,
    "country_code": "FR",
    "latitude": "42.02828000",
    "longitude": "8.84241000",
    "native": null,
    "timezone": null,
    "translations": {}
  },
  {
    "id": 46823,
    "name": "Sartène",
    "state_id": 4806,
    "state_code": "20R",
    "country_id": 75,
    "country_code": "FR",
    "latitude": "41.61667000",
    "longitude": "8.98333000",
    "native": null,
    "timezone": null,
    "translations": {}
  },
  {
    "id": 47007,
    "name": "Sisco",
    "state_id": 4806,
    "state_code": "20R",
    "country_id": 75,
    "country_code": "FR",
    "latitude": "42.80000000",
    "longitude": "9.43333000",
    "native": null,
    "timezone": null,
    "translations": {}
  },
  {
    "id": 47588,
    "name": "Ventiseri",
    "state_id": 4806,
    "state_code": "20R",
    "country_id": 75,
    "country_code": "FR",
    "latitude": "41.94356000",
    "longitude": "9.33342000",
    "native": null,
    "timezone": null,
    "translations": {}
  },
  {
    "id": 47647,
    "name": "Vescovato",
    "state_id": 4806,
    "state_code": "20R",
    "country_id": 75,
    "country_code": "FR",
    "latitude": "42.49293000",
    "longitude": "9.43934000",
    "native": null,
    "timezone": null,
    "translations": {}
  },
  {
    "id": 48028,
    "name": "Zonza",
    "state_id": 4806,
    "state_code": "20R",
    "country_id": 75,
    "country_code": "FR",
    "latitude": "41.74934000",
    "longitude": "9.17082000",
    "native": null,
    "timezone": null,
    "translations": {}
  }
]