[
  {
    "id": 103999,
    "name": "Åby",
    "state_id": 1536,
    "state_code": "E",
    "country_id": 213,
    "country_code": "SE",
    "latitude": "58.66214850",
    "longitude": "16.17592570",
    "native": null,
    "timezone": null,
    "translations": {}
  },
  {
    "id": 104023,
    "name": "Åtvidaberg",
    "state_id": 1536,
    "state_code": "E",
    "country_id": 213,
    "country_code": "SE",
    "latitude": "58.20152000",
    "longitude": "15.99770000",
    "native": null,
    "timezone": null,
    "translations": {}
  },
  {
    "id": 103032,
    "name": "Berg",
    "state_id": 1536,
    "state_code": "E",
    "country_id": 213,
    "country_code": "SE",
    "latitude": "58.48831000",
    "longitude": "15.52969000",
    "native": null,
    "timezone": null,
    "translations": {}
  },
  {
    "id": 103072,
    "name": "Borensberg",
    "state_id": 1536,
    "state_code": "E",
    "country_id": 213,
    "country_code": "SE",
    "latitude": "58.56667000",
    "longitude": "15.28333000",
    "native": null,
    "timezone": null,
    "translations": {}
  },
  {
    "id": 103079,
    "name": "Boxholm",
    "state_id": 1536,
    "state_code": "E",
    "country_id": 213,
    "country_code": "SE",
    "latitude": "58.19719000",
    "longitude": "15.05376000",
    "native": null,
    "timezone": null,
    "translations": {}
  },
  {
    "id": 103138,
    "name": "Ekängen",
    "state_id": 1536,
    "state_code": "E",
    "country_id": 213,
    "country_code": "SE",
    "latitude": "58.46667000",
    "longitude": "15.63333000",
    "native": null,
    "timezone": null,
    "translations": {}
  },
  {
    "id": 103166,
    "name": "Finspång",
    "state_id": 1536,
    "state_code": "E",
    "country_id": 213,
    "country_code": "SE",
    "latitude": "58.70578000",
    "longitude": "15.76739000",
    "native": null,
    "timezone": null,
    "translations": {}
  },
  {
    "id": 103221,
    "name": "Grebo",
    "state_id": 1536,
    "state_code": "E",
    "country_id": 213,
    "country_code": "SE",
    "latitude": "58.30145000",
    "longitude": "15.87085000",
    "native": null,
    "timezone": null,
    "translations": {}
  },
  {
    "id": 103236,
    "name": "Gusum",
    "state_id": 1536,
    "state_code": "E",
    "country_id": 213,
    "country_code": "SE",
    "latitude": "58.26880000",
    "longitude": "16.49894000",
    "native": null,
    "timezone": null,
    "translations": {}
  },
  {
    "id": 103281,
    "name": "Herrestad",
    "state_id": 1536,
    "state_code": "E",
    "country_id": 213,
    "country_code": "SE",
    "latitude": "58.38333000",
    "longitude": "14.80000000",
    "native": null,
    "timezone": null,
    "translations": {}
  },
  {
    "id": 103358,
    "name": "Jursla",
    "state_id": 1536,
    "state_code": "E",
    "country_id": 213,
    "country_code": "SE",
    "latitude": "58.65764340",
    "longitude": "16.16024780",
    "native": null,
    "timezone": null,
    "translations": {}
  },
  {
    "id": 103391,
    "name": "Kimstad",
    "state_id": 1536,
    "state_code": "E",
    "country_id": 213,
    "country_code": "SE",
    "latitude": "58.54967000",
    "longitude": "15.96296000",
    "native": null,
    "timezone": null,
    "translations": {}
  },
  {
    "id": 103396,
    "name": "Kisa",
    "state_id": 1536,
    "state_code": "E",
    "country_id": 213,
    "country_code": "SE",
    "latitude": "57.98781000",
    "longitude": "15.63303000",
    "native": null,
    "timezone": null,
    "translations": {}
  },
  {
    "id": 103418,
    "name": "Krokek",
    "state_id": 1536,
    "state_code": "E",
    "country_id": 213,
    "country_code": "SE",
    "latitude": "58.67231000",
    "longitude": "16.36741000",
    "native": null,
    "timezone": null,
    "translations": {}
  },
  {
    "id": 103474,
    "name": "Lindö",
    "state_id": 1536,
    "state_code": "E",
    "country_id": 213,
    "country_code": "SE",
    "latitude": "58.61667000",
    "longitude": "16.25000000",
    "native": null,
    "timezone": null,
    "translations": {}
  },
  {
    "id": 103475,
    "name": "Linghem",
    "state_id": 1536,
    "state_code": "E",
    "country_id": 213,
    "country_code": "SE",
    "latitude": "58.43333000",
    "longitude": "15.78333000",
    "native": null,
    "timezone": null,
    "translations": {}
  },
  {
    "id": 103476,
    "name": "Linköping",
    "state_id": 1536,
    "state_code": "E",
    "country_id": 213,
    "country_code": "SE",
    "latitude": "58.41086000",
    "longitude": "15.62157000",
    "native": null,
    "timezone": null,
    "translations": {}
  },
  {
    "id": 103483,
    "name": "Ljungsbro",
    "state_id": 1536,
    "state_code": "E",
    "country_id": 213,
    "country_code": "SE",
    "latitude": "58.51667000",
    "longitude": "15.50000000",
    "native": null,
    "timezone": null,
    "translations": {}
  },
  {
    "id": 103516,
    "name": "Malmslätt",
    "state_id": 1536,
    "state_code": "E",
    "country_id": 213,
    "country_code": "SE",
    "latitude": "58.41102000",
    "longitude": "15.51647000",
    "native": null,
    "timezone": null,
    "translations": {}
  },
  {
    "id": 103522,
    "name": "Mantorp",
    "state_id": 1536,
    "state_code": "E",
    "country_id": 213,
    "country_code": "SE",
    "latitude": "58.35000000",
    "longitude": "15.28333000",
    "native": null,
    "timezone": null,
    "translations": {}
  },
  {
    "id": 103540,
    "name": "Mjölby",
    "state_id": 1536,
    "state_code": "E",
    "country_id": 213,
    "country_code": "SE",
    "latitude": "58.32595000",
    "longitude": "15.12365000",
    "native": null,
    "timezone": null,
    "translations": {}
  },
  {
    "id": 103548,
    "name": "Motala",
    "state_id": 1536,
    "state_code": "E",
    "country_id": 213,
    "country_code": "SE",
    "latitude": "58.53706000",
    "longitude": "15.03649000",
    "native": null,
    "timezone": null,
    "translations": {}
  },
  {
    "id": 103586,
    "name": "Norrköping",
    "state_id": 1536,
    "state_code": "E",
    "country_id": 213,
    "country_code": "SE",
    "latitude": "58.59419000",
    "longitude": "16.18260000",
    "native": null,
    "timezone": null,
    "translations": {}
  },
  {
    "id": 104027,
    "name": "Ödeshög",
    "state_id": 1536,
    "state_code": "E",
    "country_id": 213,
    "country_code": "SE",
    "latitude": "58.22949000",
    "longitude": "14.65294000",
    "native": null,
    "timezone": null,
    "translations": {}
  },
  {
    "id": 104044,
    "name": "Österbymo",
    "state_id": 1536,
    "state_code": "E",
    "country_id": 213,
    "country_code": "SE",
    "latitude": "57.82465000",
    "longitude": "15.27357000",
    "native": null,
    "timezone": null,
    "translations": {}
  },
  {
    "id": 103647,
    "name": "Rimforsa",
    "state_id": 1536,
    "state_code": "E",
    "country_id": 213,
    "country_code": "SE",
    "latitude": "58.13624000",
    "longitude": "15.68650000",
    "native": null,
    "timezone": null,
    "translations": {}
  },
  {
    "id": 103661,
    "name": "Ryd",
    "state_id": 1536,
    "state_code": "E",
    "country_id": 213,
    "country_code": "SE",
    "latitude": "58.66667000",
    "longitude": "15.08333000",
    "native": null,
    "timezone": null,
    "translations": {}
  },
  {
    "id": 103718,
    "name": "Skänninge",
    "state_id": 1536,
    "state_code": "E",
    "country_id": 213,
    "country_code": "SE",
    "latitude": "58.39427000",
    "longitude": "15.08659000",
    "native": null,
    "timezone": null,
    "translations": {}
  },
  {
    "id": 103719,
    "name": "Skärblacka",
    "state_id": 1536,
    "state_code": "E",
    "country_id": 213,
    "country_code": "SE",
    "latitude": "58.56667000",
    "longitude": "15.90000000",
    "native": null,
    "timezone": null,
    "translations": {}
  },
  {
    "id": 103821,
    "name": "Söderköping",
    "state_id": 1536,
    "state_code": "E",
    "country_id": 213,
    "country_code": "SE",
    "latitude": "58.48057000",
    "longitude": "16.32221000",
    "native": null,
    "timezone": null,
    "translations": {}
  },
  {
    "id": 103752,
    "name": "Stenstorp",
    "state_id": 1536,
    "state_code": "E",
    "country_id": 213,
    "country_code": "SE",
    "latitude": "58.48333000",
    "longitude": "15.06667000",
    "native": null,
    "timezone": null,
    "translations": {}
  },
  {
    "id": 103778,
    "name": "Sturefors",
    "state_id": 1536,
    "state_code": "E",
    "country_id": 213,
    "country_code": "SE",
    "latitude": "58.33333000",
    "longitude": "15.73333000",
    "native": null,
    "timezone": null,
    "translations": {}
  },
  {
    "id": 103803,
    "name": "Svärtinge",
    "state_id": 1536,
    "state_code": "E",
    "country_id": 213,
    "country_code": "SE",
    "latitude": "58.65507000",
    "longitude": "16.02823000",
    "native": null,
    "timezone": null,
    "translations": {}
  },
  {
    "id": 103836,
    "name": "Tallboda",
    "state_id": 1536,
    "state_code": "E",
    "country_id": 213,
    "country_code": "SE",
    "latitude": "58.42521000",
    "longitude": "15.68154000",
    "native": null,
    "timezone": null,
    "translations": {}
  },
  {
    "id": 103907,
    "name": "Vadstena",
    "state_id": 1536,
    "state_code": "E",
    "country_id": 213,
    "country_code": "SE",
    "latitude": "58.44863000",
    "longitude": "14.88969000",
    "native": null,
    "timezone": null,
    "translations": {}
  },
  {
    "id": 103913,
    "name": "Valdemarsvik",
    "state_id": 1536,
    "state_code": "E",
    "country_id": 213,
    "country_code": "SE",
    "latitude": "58.20310000",
    "longitude": "16.60225000",
    "native": null,
    "timezone": null,
    "translations": {}
  },
  {
    "id": 103944,
    "name": "Vikingstad",
    "state_id": 1536,
    "state_code": "E",
    "country_id": 213,
    "country_code": "SE",
    "latitude": "58.38304000",
    "longitude": "15.43201000",
    "native": null,
    "timezone": null,
    "translations": {}
  }
]