[
  {
    "id": 2964,
    "name": "Al Wahat",
    "country_id": 124,
    "country_code": "LY",
    "fips_code": null,
    "iso2": "WA",
    "type": "popularate",
    "latitude": "29.15731230",
    "longitude": "21.74963920",
    "native": "الواه",
    "timezone": "Africa/Tripoli",
    "translations": {}
  },
  {
    "id": 2981,
    "name": "Benghazi",
    "country_id": 124,
    "country_code": "LY",
    "fips_code": null,
    "iso2": "BA",
    "type": "popularate",
    "latitude": "32.11942420",
    "longitude": "20.08679090",
    "native": "بنغازي",
    "timezone": "Africa/Tripoli",
    "translations": {}
  },
  {
    "id": 2966,
    "name": "Derna",
    "country_id": 124,
    "country_code": "LY",
    "fips_code": null,
    "iso2": "DR",
    "type": "popularate",
    "latitude": "32.75561300",
    "longitude": "22.63774320",
    "native": "Derna",
    "timezone": "Africa/Tripoli",
    "translations": {}
  },
  {
    "id": 2969,
    "name": "Ghat",
    "country_id": 124,
    "country_code": "LY",
    "fips_code": null,
    "iso2": "GT",
    "type": "popularate",
    "latitude": "24.96403710",
    "longitude": "10.17592850",
    "native": "غات",
    "timezone": "Africa/Tripoli",
    "translations": {}
  },
  {
    "id": 2980,
    "name": "Jabal al Akhdar",
    "country_id": 124,
    "country_code": "LY",
    "fips_code": null,
    "iso2": "JA",
    "type": "popularate",
    "latitude": "32.48741190",
    "longitude": "21.70897290",
    "native": "Jabal al Akhdar",
    "timezone": "Africa/Tripoli",
    "translations": {}
  },
  {
    "id": 2974,
    "name": "Jabal al Gharbi",
    "country_id": 124,
    "country_code": "LY",
    "fips_code": null,
    "iso2": "JG",
    "type": "popularate",
    "latitude": "30.70464900",
    "longitude": "13.22338590",
    "native": "Jabal al Gharbi",
    "timezone": "Africa/Tripoli",
    "translations": {}
  },
  {
    "id": 2979,
    "name": "Jafara",
    "country_id": 124,
    "country_code": "LY",
    "fips_code": null,
    "iso2": "JI",
    "type": "popularate",
    "latitude": "32.55879160",
    "longitude": "13.07070240",
    "native": "Jafara",
    "timezone": "Africa/Tripoli",
    "translations": {}
  },
  {
    "id": 2970,
    "name": "Jufra",
    "country_id": 124,
    "country_code": "LY",
    "fips_code": null,
    "iso2": "JU",
    "type": "popularate",
    "latitude": "28.00557240",
    "longitude": "16.74302920",
    "native": "jufra",
    "timezone": "Africa/Tripoli",
    "translations": {}
  },
  {
    "id": 2972,
    "name": "Kufra",
    "country_id": 124,
    "country_code": "LY",
    "fips_code": null,
    "iso2": "KF",
    "type": "popularate",
    "latitude": "23.33237760",
    "longitude": "22.08403310",
    "native": "صُندُوق",
    "timezone": "Africa/Tripoli",
    "translations": {}
  },
  {
    "id": 2968,
    "name": "Marj",
    "country_id": 124,
    "country_code": "LY",
    "fips_code": null,
    "iso2": "MJ",
    "type": "popularate",
    "latitude": "31.91087280",
    "longitude": "21.14778770",
    "native": "مارج",
    "timezone": "Africa/Tripoli",
    "translations": {}
  },
  {
    "id": 2978,
    "name": "Misrata",
    "country_id": 124,
    "country_code": "LY",
    "fips_code": null,
    "iso2": "MI",
    "type": "popularate",
    "latitude": "32.37459230",
    "longitude": "15.09058030",
    "native": "أسراتا",
    "timezone": "Africa/Tripoli",
    "translations": {}
  },
  {
    "id": 2961,
    "name": "Murqub",
    "country_id": 124,
    "country_code": "LY",
    "fips_code": null,
    "iso2": "MB",
    "type": "popularate",
    "latitude": "32.40710580",
    "longitude": "13.86219030",
    "native": "murqub",
    "timezone": "Africa/Tripoli",
    "translations": {}
  },
  {
    "id": 2967,
    "name": "Murzuq",
    "country_id": 124,
    "country_code": "LY",
    "fips_code": null,
    "iso2": "MQ",
    "type": "popularate",
    "latitude": "25.91822620",
    "longitude": "13.92600010",
    "native": "مورزوك",
    "timezone": "Africa/Tripoli",
    "translations": {}
  },
  {
    "id": 2976,
    "name": "Nalut",
    "country_id": 124,
    "country_code": "LY",
    "fips_code": null,
    "iso2": "NL",
    "type": "popularate",
    "latitude": "31.86378650",
    "longitude": "10.98279030",
    "native": "نالوت",
    "timezone": "Africa/Tripoli",
    "translations": {}
  },
  {
    "id": 2962,
    "name": "Nuqat al Khams",
    "country_id": 124,
    "country_code": "LY",
    "fips_code": null,
    "iso2": "NQ",
    "type": "popularate",
    "latitude": "32.71771530",
    "longitude": "11.98964150",
    "native": "Nuqat al Khams",
    "timezone": "Africa/Tripoli",
    "translations": {}
  },
  {
    "id": 2965,
    "name": "Sabha",
    "country_id": 124,
    "country_code": "LY",
    "fips_code": null,
    "iso2": "SB",
    "type": "popularate",
    "latitude": "27.03654060",
    "longitude": "14.42902360",
    "native": "سبها",
    "timezone": "Africa/Tripoli",
    "translations": {}
  },
  {
    "id": 2977,
    "name": "Sirte",
    "country_id": 124,
    "country_code": "LY",
    "fips_code": null,
    "iso2": "SR",
    "type": "popularate",
    "latitude": "31.20596250",
    "longitude": "16.58362060",
    "native": "سيرتي",
    "timezone": "Africa/Tripoli",
    "translations": {}
  },
  {
    "id": 2971,
    "name": "Tripoli",
    "country_id": 124,
    "country_code": "LY",
    "fips_code": null,
    "iso2": "TB",
    "type": "popularate",
    "latitude": "32.77338990",
    "longitude": "13.33187320",
    "native": "طرابلس",
    "timezone": "Africa/Tripoli",
    "translations": {}
  },
  {
    "id": 2973,
    "name": "Wadi al Hayaa",
    "country_id": 124,
    "country_code": "LY",
    "fips_code": null,
    "iso2": "WD",
    "type": "popularate",
    "latitude": "26.42333690",
    "longitude": "12.71836380",
    "native": "Wadi al Hayaa",
    "timezone": "Africa/Tripoli",
    "translations": {}
  },
  {
    "id": 2975,
    "name": "Wadi al Shatii",
    "country_id": 124,
    "country_code": "LY",
    "fips_code": null,
    "iso2": "WS",
    "type": "popularate",
    "latitude": "27.60231720",
    "longitude": "12.86376270",
    "native": "طريق الشادي",
    "timezone": "Africa/Tripoli",
    "translations": {}
  },
  {
    "id": 2963,
    "name": "Zawiya",
    "country_id": 124,
    "country_code": "LY",
    "fips_code": null,
    "iso2": "ZA",
    "type": "popularate",
    "latitude": "32.76302820",
    "longitude": "12.73649620",
    "native": "زاويا",
    "timezone": "Africa/Tripoli",
    "translations": {}
  }
]