[
  {
    "id": 130048,
    "name": "Baruta",
    "state_id": 2037,
    "state_code": "M",
    "country_id": 239,
    "country_code": "VE",
    "latitude": "10.43424000",
    "longitude": "-66.87558000",
    "native": null,
    "timezone": null,
    "translations": {}
  },
  {
    "id": 130058,
    "name": "Carrizal",
    "state_id": 2037,
    "state_code": "M",
    "country_id": 239,
    "country_code": "VE",
    "latitude": "10.34985000",
    "longitude": "-66.98632000",
    "native": null,
    "timezone": null,
    "translations": {}
  },
  {
    "id": 130061,
    "name": "Caucaguita",
    "state_id": 2037,
    "state_code": "M",
    "country_id": 239,
    "country_code": "VE",
    "latitude": "10.35782000",
    "longitude": "-66.80252000",
    "native": null,
    "timezone": null,
    "translations": {}
  },
  {
    "id": 130062,
    "name": "Caucagüito",
    "state_id": 2037,
    "state_code": "M",
    "country_id": 239,
    "country_code": "VE",
    "latitude": "10.48666000",
    "longitude": "-66.73799000",
    "native": null,
    "timezone": null,
    "translations": {}
  },
  {
    "id": 130063,
    "name": "Chacao",
    "state_id": 2037,
    "state_code": "M",
    "country_id": 239,
    "country_code": "VE",
    "latitude": "10.49581000",
    "longitude": "-66.85367000",
    "native": null,
    "timezone": null,
    "translations": {}
  },
  {
    "id": 130064,
    "name": "Charallave",
    "state_id": 2037,
    "state_code": "M",
    "country_id": 239,
    "country_code": "VE",
    "latitude": "10.24247000",
    "longitude": "-66.85723000",
    "native": null,
    "timezone": null,
    "translations": {}
  },
  {
    "id": 130073,
    "name": "Cúa",
    "state_id": 2037,
    "state_code": "M",
    "country_id": 239,
    "country_code": "VE",
    "latitude": "10.16245000",
    "longitude": "-66.88248000",
    "native": null,
    "timezone": null,
    "translations": {}
  },
  {
    "id": 130075,
    "name": "El Cafetal",
    "state_id": 2037,
    "state_code": "M",
    "country_id": 239,
    "country_code": "VE",
    "latitude": "10.46541000",
    "longitude": "-66.82951000",
    "native": null,
    "timezone": null,
    "translations": {}
  },
  {
    "id": 130076,
    "name": "El Hatillo",
    "state_id": 2037,
    "state_code": "M",
    "country_id": 239,
    "country_code": "VE",
    "latitude": "10.42411000",
    "longitude": "-66.82581000",
    "native": null,
    "timezone": null,
    "translations": {}
  },
  {
    "id": 130083,
    "name": "Guarenas",
    "state_id": 2037,
    "state_code": "M",
    "country_id": 239,
    "country_code": "VE",
    "latitude": "10.47027000",
    "longitude": "-66.61934000",
    "native": null,
    "timezone": null,
    "translations": {}
  },
  {
    "id": 130084,
    "name": "Guatire",
    "state_id": 2037,
    "state_code": "M",
    "country_id": 239,
    "country_code": "VE",
    "latitude": "10.47400000",
    "longitude": "-66.54241000",
    "native": null,
    "timezone": null,
    "translations": {}
  },
  {
    "id": 130089,
    "name": "La Dolorita",
    "state_id": 2037,
    "state_code": "M",
    "country_id": 239,
    "country_code": "VE",
    "latitude": "10.48830000",
    "longitude": "-66.78608000",
    "native": null,
    "timezone": null,
    "translations": {}
  },
  {
    "id": 130097,
    "name": "Los Dos Caminos",
    "state_id": 2037,
    "state_code": "M",
    "country_id": 239,
    "country_code": "VE",
    "latitude": "10.49389000",
    "longitude": "-66.82863000",
    "native": null,
    "timezone": null,
    "translations": {}
  },
  {
    "id": 130100,
    "name": "Los Teques",
    "state_id": 2037,
    "state_code": "M",
    "country_id": 239,
    "country_code": "VE",
    "latitude": "10.34447000",
    "longitude": "-67.04325000",
    "native": null,
    "timezone": null,
    "translations": {}
  },
  {
    "id": 130126,
    "name": "Ocumare del Tuy",
    "state_id": 2037,
    "state_code": "M",
    "country_id": 239,
    "country_code": "VE",
    "latitude": "10.11820000",
    "longitude": "-66.77513000",
    "native": null,
    "timezone": null,
    "translations": {}
  },
  {
    "id": 130129,
    "name": "Petare",
    "state_id": 2037,
    "state_code": "M",
    "country_id": 239,
    "country_code": "VE",
    "latitude": "10.47679000",
    "longitude": "-66.80786000",
    "native": null,
    "timezone": null,
    "translations": {}
  },
  {
    "id": 130139,
    "name": "San Antonio de Los Altos",
    "state_id": 2037,
    "state_code": "M",
    "country_id": 239,
    "country_code": "VE",
    "latitude": "10.38853000",
    "longitude": "-66.95179000",
    "native": null,
    "timezone": null,
    "translations": {}
  },
  {
    "id": 130155,
    "name": "Santa Teresa del Tuy",
    "state_id": 2037,
    "state_code": "M",
    "country_id": 239,
    "country_code": "VE",
    "latitude": "10.23291000",
    "longitude": "-66.66474000",
    "native": null,
    "timezone": null,
    "translations": {}
  }
]