[
  {
    "id": 153894,
    "name": "Bogra ",
    "state_id": 753,
    "state_code": "E",
    "country_id": 19,
    "country_code": "BD",
    "latitude": "24.82966450",
    "longitude": "89.02598570",
    "native": null,
    "timezone": null,
    "translations": {}
  },
  {
    "id": 153895,
    "name": "Chapai Nawabganj",
    "state_id": 753,
    "state_code": "E",
    "country_id": 19,
    "country_code": "BD",
    "latitude": "24.59988690",
    "longitude": "88.28504660",
    "native": null,
    "timezone": null,
    "translations": {}
  },
  {
    "id": 153897,
    "name": "Joypurhat ",
    "state_id": 753,
    "state_code": "E",
    "country_id": 19,
    "country_code": "BD",
    "latitude": "25.06567070",
    "longitude": "88.76832650",
    "native": null,
    "timezone": null,
    "translations": {}
  },
  {
    "id": 153896,
    "name": "Naogaon ",
    "state_id": 753,
    "state_code": "E",
    "country_id": 19,
    "country_code": "BD",
    "latitude": "24.87425080",
    "longitude": "88.43751910",
    "native": null,
    "timezone": null,
    "translations": {}
  },
  {
    "id": 153890,
    "name": "Natore ",
    "state_id": 753,
    "state_code": "E",
    "country_id": 19,
    "country_code": "BD",
    "latitude": "24.38021070",
    "longitude": "88.76302520",
    "native": null,
    "timezone": null,
    "translations": {}
  },
  {
    "id": 153893,
    "name": "Pabna ",
    "state_id": 753,
    "state_code": "E",
    "country_id": 19,
    "country_code": "BD",
    "latitude": "24.08126720",
    "longitude": "89.03724420",
    "native": null,
    "timezone": null,
    "translations": {}
  },
  {
    "id": 153891,
    "name": "Rajshahi ",
    "state_id": 753,
    "state_code": "E",
    "country_id": 19,
    "country_code": "BD",
    "latitude": "24.42073360",
    "longitude": "88.29602140",
    "native": null,
    "timezone": null,
    "translations": {}
  },
  {
    "id": 153892,
    "name": "Sirajganj ",
    "state_id": 753,
    "state_code": "E",
    "country_id": 19,
    "country_code": "BD",
    "latitude": "24.39876240",
    "longitude": "88.87641810",
    "native": null,
    "timezone": null,
    "translations": {}
  }
]