[
  {
    "id": 156516,
    "name": "Abainville",
    "state_id": 5023,
    "state_code": "55",
    "country_id": 75,
    "country_code": "FR",
    "latitude": "48.53100980",
    "longitude": "5.48230790",
    "native": null,
    "timezone": null,
    "translations": {}
  },
  {
    "id": 156517,
    "name": "Aincreville",
    "state_id": 5023,
    "state_code": "55",
    "country_id": 75,
    "country_code": "FR",
    "latitude": "49.36873540",
    "longitude": "5.09406930",
    "native": null,
    "timezone": null,
    "translations": {}
  },
  {
    "id": 156518,
    "name": "Amanty",
    "state_id": 5023,
    "state_code": "55",
    "country_id": 75,
    "country_code": "FR",
    "latitude": "48.51595410",
    "longitude": "5.56034560",
    "native": null,
    "timezone": null,
    "translations": {}
  },
  {
    "id": 156519,
    "name": "Ambly-sur-Meuse",
    "state_id": 5023,
    "state_code": "55",
    "country_id": 75,
    "country_code": "FR",
    "latitude": "49.02195200",
    "longitude": "5.43145940",
    "native": null,
    "timezone": null,
    "translations": {}
  },
  {
    "id": 156520,
    "name": "Amel-sur-l'Étang",
    "state_id": 5023,
    "state_code": "55",
    "country_id": 75,
    "country_code": "FR",
    "latitude": "49.25692170",
    "longitude": "5.60368590",
    "native": null,
    "timezone": null,
    "translations": {}
  },
  {
    "id": 156521,
    "name": "Ancemont",
    "state_id": 5023,
    "state_code": "55",
    "country_id": 75,
    "country_code": "FR",
    "latitude": "49.06315250",
    "longitude": "5.33983060",
    "native": null,
    "timezone": null,
    "translations": {}
  },
  {
    "id": 156523,
    "name": "Andernay",
    "state_id": 5023,
    "state_code": "55",
    "country_id": 75,
    "country_code": "FR",
    "latitude": "48.78265100",
    "longitude": "4.93179330",
    "native": null,
    "timezone": null,
    "translations": {}
  },
  {
    "id": 156524,
    "name": "Apremont-la-Forêt",
    "state_id": 5023,
    "state_code": "55",
    "country_id": 75,
    "country_code": "FR",
    "latitude": "48.84666850",
    "longitude": "5.53810130",
    "native": null,
    "timezone": null,
    "translations": {}
  },
  {
    "id": 156525,
    "name": "Arrancy-sur-Crusnes",
    "state_id": 5023,
    "state_code": "55",
    "country_id": 75,
    "country_code": "FR",
    "latitude": "49.41265820",
    "longitude": "5.60859030",
    "native": null,
    "timezone": null,
    "translations": {}
  },
  {
    "id": 156526,
    "name": "Aubréville",
    "state_id": 5023,
    "state_code": "55",
    "country_id": 75,
    "country_code": "FR",
    "latitude": "49.15977260",
    "longitude": "5.01532490",
    "native": null,
    "timezone": null,
    "translations": {}
  },
  {
    "id": 156527,
    "name": "Aulnois-en-Perthois",
    "state_id": 5023,
    "state_code": "55",
    "country_id": 75,
    "country_code": "FR",
    "latitude": "48.63622250",
    "longitude": "5.10201810",
    "native": null,
    "timezone": null,
    "translations": {}
  },
  {
    "id": 156528,
    "name": "Autrécourt-sur-Aire",
    "state_id": 5023,
    "state_code": "55",
    "country_id": 75,
    "country_code": "FR",
    "latitude": "49.02722290",
    "longitude": "5.10256540",
    "native": null,
    "timezone": null,
    "translations": {}
  },
  {
    "id": 156529,
    "name": "Autréville-Saint-Lambert",
    "state_id": 5023,
    "state_code": "55",
    "country_id": 75,
    "country_code": "FR",
    "latitude": "49.56444980",
    "longitude": "5.11449740",
    "native": null,
    "timezone": null,
    "translations": {}
  },
  {
    "id": 156530,
    "name": "Avillers-Sainte-Croix",
    "state_id": 5023,
    "state_code": "55",
    "country_id": 75,
    "country_code": "FR",
    "latitude": "49.03371100",
    "longitude": "5.68130890",
    "native": null,
    "timezone": null,
    "translations": {}
  },
  {
    "id": 156531,
    "name": "Avioth",
    "state_id": 5023,
    "state_code": "55",
    "country_id": 75,
    "country_code": "FR",
    "latitude": "49.56734390",
    "longitude": "5.36901670",
    "native": null,
    "timezone": null,
    "translations": {}
  },
  {
    "id": 156532,
    "name": "Avocourt",
    "state_id": 5023,
    "state_code": "55",
    "country_id": 75,
    "country_code": "FR",
    "latitude": "49.20457090",
    "longitude": "5.09943710",
    "native": null,
    "timezone": null,
    "translations": {}
  },
  {
    "id": 156533,
    "name": "Azannes-et-Soumazannes",
    "state_id": 5023,
    "state_code": "55",
    "country_id": 75,
    "country_code": "FR",
    "latitude": "49.28802350",
    "longitude": "5.42713150",
    "native": null,
    "timezone": null,
    "translations": {}
  },
  {
    "id": 156534,
    "name": "Baâlon",
    "state_id": 5023,
    "state_code": "55",
    "country_id": 75,
    "country_code": "FR",
    "latitude": "49.48503050",
    "longitude": "5.22105230",
    "native": null,
    "timezone": null,
    "translations": {}
  },
  {
    "id": 156535,
    "name": "Badonvilliers-Gérauvilliers",
    "state_id": 5023,
    "state_code": "55",
    "country_id": 75,
    "country_code": "FR",
    "latitude": "48.54338000",
    "longitude": "5.53683120",
    "native": null,
    "timezone": null,
    "translations": {}
  },
  {
    "id": 156536,
    "name": "Bannoncourt",
    "state_id": 5023,
    "state_code": "55",
    "country_id": 75,
    "country_code": "FR",
    "latitude": "48.95506220",
    "longitude": "5.43923310",
    "native": null,
    "timezone": null,
    "translations": {}
  },
  {
    "id": 156537,
    "name": "Bantheville",
    "state_id": 5023,
    "state_code": "55",
    "country_id": 75,
    "country_code": "FR",
    "latitude": "49.35219980",
    "longitude": "5.03047660",
    "native": null,
    "timezone": null,
    "translations": {}
  },
  {
    "id": 156539,
    "name": "Baudonvilliers",
    "state_id": 5023,
    "state_code": "55",
    "country_id": 75,
    "country_code": "FR",
    "latitude": "48.68944380",
    "longitude": "4.98494400",
    "native": null,
    "timezone": null,
    "translations": {}
  },
  {
    "id": 156540,
    "name": "Baudrémont",
    "state_id": 5023,
    "state_code": "55",
    "country_id": 75,
    "country_code": "FR",
    "latitude": "48.83632990",
    "longitude": "5.37398420",
    "native": null,
    "timezone": null,
    "translations": {}
  },
  {
    "id": 156541,
    "name": "Baulny",
    "state_id": 5023,
    "state_code": "55",
    "country_id": 75,
    "country_code": "FR",
    "latitude": "49.26608760",
    "longitude": "5.00457180",
    "native": null,
    "timezone": null,
    "translations": {}
  },
  {
    "id": 156542,
    "name": "Bazeilles-sur-Othain",
    "state_id": 5023,
    "state_code": "55",
    "country_id": 75,
    "country_code": "FR",
    "latitude": "49.50065480",
    "longitude": "5.40665560",
    "native": null,
    "timezone": null,
    "translations": {}
  },
  {
    "id": 156543,
    "name": "Bazincourt-sur-Saulx",
    "state_id": 5023,
    "state_code": "55",
    "country_id": 75,
    "country_code": "FR",
    "latitude": "48.68737020",
    "longitude": "5.09979600",
    "native": null,
    "timezone": null,
    "translations": {}
  },
  {
    "id": 156544,
    "name": "Beauclair",
    "state_id": 5023,
    "state_code": "55",
    "country_id": 75,
    "country_code": "FR",
    "latitude": "49.44816660",
    "longitude": "5.10405100",
    "native": null,
    "timezone": null,
    "translations": {}
  },
  {
    "id": 156545,
    "name": "Beaufort-en-Argonne",
    "state_id": 5023,
    "state_code": "55",
    "country_id": 75,
    "country_code": "FR",
    "latitude": "49.48004650",
    "longitude": "5.08994040",
    "native": null,
    "timezone": null,
    "translations": {}
  },
  {
    "id": 156546,
    "name": "Beaulieu-en-Argonne",
    "state_id": 5023,
    "state_code": "55",
    "country_id": 75,
    "country_code": "FR",
    "latitude": "49.04495330",
    "longitude": "4.95134220",
    "native": null,
    "timezone": null,
    "translations": {}
  },
  {
    "id": 156547,
    "name": "Beaumont-en-Verdunois",
    "state_id": 5023,
    "state_code": "55",
    "country_id": 75,
    "country_code": "FR",
    "latitude": "49.26503880",
    "longitude": "5.38276650",
    "native": null,
    "timezone": null,
    "translations": {}
  },
  {
    "id": 156548,
    "name": "Beausite",
    "state_id": 5023,
    "state_code": "55",
    "country_id": 75,
    "country_code": "FR",
    "latitude": "48.96575030",
    "longitude": "5.17705850",
    "native": null,
    "timezone": null,
    "translations": {}
  },
  {
    "id": 156549,
    "name": "Behonne",
    "state_id": 5023,
    "state_code": "55",
    "country_id": 75,
    "country_code": "FR",
    "latitude": "48.79775790",
    "longitude": "5.14955660",
    "native": null,
    "timezone": null,
    "translations": {}
  },
  {
    "id": 156550,
    "name": "Belleray",
    "state_id": 5023,
    "state_code": "55",
    "country_id": 75,
    "country_code": "FR",
    "latitude": "49.12816470",
    "longitude": "5.33195000",
    "native": null,
    "timezone": null,
    "translations": {}
  },
  {
    "id": 156552,
    "name": "Belrain",
    "state_id": 5023,
    "state_code": "55",
    "country_id": 75,
    "country_code": "FR",
    "latitude": "48.86166180",
    "longitude": "5.28584050",
    "native": null,
    "timezone": null,
    "translations": {}
  },
  {
    "id": 156553,
    "name": "Belrupt-en-Verdunois",
    "state_id": 5023,
    "state_code": "55",
    "country_id": 75,
    "country_code": "FR",
    "latitude": "49.14968100",
    "longitude": "5.40670410",
    "native": null,
    "timezone": null,
    "translations": {}
  },
  {
    "id": 156554,
    "name": "Beney-en-Woëvre",
    "state_id": 5023,
    "state_code": "55",
    "country_id": 75,
    "country_code": "FR",
    "latitude": "48.96326650",
    "longitude": "5.76147070",
    "native": null,
    "timezone": null,
    "translations": {}
  },
  {
    "id": 156555,
    "name": "Béthelainville",
    "state_id": 5023,
    "state_code": "55",
    "country_id": 75,
    "country_code": "FR",
    "latitude": "49.16937570",
    "longitude": "5.18317160",
    "native": null,
    "timezone": null,
    "translations": {}
  },
  {
    "id": 156556,
    "name": "Béthincourt",
    "state_id": 5023,
    "state_code": "55",
    "country_id": 75,
    "country_code": "FR",
    "latitude": "49.24773570",
    "longitude": "5.17879730",
    "native": null,
    "timezone": null,
    "translations": {}
  },
  {
    "id": 156557,
    "name": "Beurey-sur-Saulx",
    "state_id": 5023,
    "state_code": "55",
    "country_id": 75,
    "country_code": "FR",
    "latitude": "48.75928430",
    "longitude": "4.98768960",
    "native": null,
    "timezone": null,
    "translations": {}
  },
  {
    "id": 156558,
    "name": "Bezonvaux",
    "state_id": 5023,
    "state_code": "55",
    "country_id": 75,
    "country_code": "FR",
    "latitude": "49.22943350",
    "longitude": "5.43391160",
    "native": null,
    "timezone": null,
    "translations": {}
  },
  {
    "id": 156559,
    "name": "Biencourt-sur-Orge",
    "state_id": 5023,
    "state_code": "55",
    "country_id": 75,
    "country_code": "FR",
    "latitude": "48.56973070",
    "longitude": "5.30373790",
    "native": null,
    "timezone": null,
    "translations": {}
  },
  {
    "id": 156560,
    "name": "Billy-sous-Mangiennes",
    "state_id": 5023,
    "state_code": "55",
    "country_id": 75,
    "country_code": "FR",
    "latitude": "49.32213940",
    "longitude": "5.52382890",
    "native": null,
    "timezone": null,
    "translations": {}
  },
  {
    "id": 156561,
    "name": "Bislée",
    "state_id": 5023,
    "state_code": "55",
    "country_id": 75,
    "country_code": "FR",
    "latitude": "48.87218620",
    "longitude": "5.48834500",
    "native": null,
    "timezone": null,
    "translations": {}
  },
  {
    "id": 156562,
    "name": "Blanzée",
    "state_id": 5023,
    "state_code": "55",
    "country_id": 75,
    "country_code": "FR",
    "latitude": "49.16092680",
    "longitude": "5.51290460",
    "native": null,
    "timezone": null,
    "translations": {}
  },
  {
    "id": 156563,
    "name": "Boinville-en-Woëvre",
    "state_id": 5023,
    "state_code": "55",
    "country_id": 75,
    "country_code": "FR",
    "latitude": "49.18807600",
    "longitude": "5.65839910",
    "native": null,
    "timezone": null,
    "translations": {}
  },
  {
    "id": 156564,
    "name": "Boncourt-sur-Meuse",
    "state_id": 5023,
    "state_code": "55",
    "country_id": 75,
    "country_code": "FR",
    "latitude": "48.81156610",
    "longitude": "5.54251880",
    "native": null,
    "timezone": null,
    "translations": {}
  },
  {
    "id": 156565,
    "name": "Bonnet",
    "state_id": 5023,
    "state_code": "55",
    "country_id": 75,
    "country_code": "FR",
    "latitude": "48.52428290",
    "longitude": "5.38061550",
    "native": null,
    "timezone": null,
    "translations": {}
  },
  {
    "id": 156566,
    "name": "Bonzée",
    "state_id": 5023,
    "state_code": "55",
    "country_id": 75,
    "country_code": "FR",
    "latitude": "49.08936250",
    "longitude": "5.52794380",
    "native": null,
    "timezone": null,
    "translations": {}
  },
  {
    "id": 156567,
    "name": "Bouconville-sur-Madt",
    "state_id": 5023,
    "state_code": "55",
    "country_id": 75,
    "country_code": "FR",
    "latitude": "48.84400040",
    "longitude": "5.68321140",
    "native": null,
    "timezone": null,
    "translations": {}
  },
  {
    "id": 156569,
    "name": "Bouquemont",
    "state_id": 5023,
    "state_code": "55",
    "country_id": 75,
    "country_code": "FR",
    "latitude": "48.98252930",
    "longitude": "5.38611640",
    "native": null,
    "timezone": null,
    "translations": {}
  },
  {
    "id": 156570,
    "name": "Boureuilles",
    "state_id": 5023,
    "state_code": "55",
    "country_id": 75,
    "country_code": "FR",
    "latitude": "49.19876160",
    "longitude": "4.93943150",
    "native": null,
    "timezone": null,
    "translations": {}
  },
  {
    "id": 156571,
    "name": "Bovée-sur-Barboure",
    "state_id": 5023,
    "state_code": "55",
    "country_id": 75,
    "country_code": "FR",
    "latitude": "48.63655590",
    "longitude": "5.47106230",
    "native": null,
    "timezone": null,
    "translations": {}
  },
  {
    "id": 156572,
    "name": "Boviolles",
    "state_id": 5023,
    "state_code": "55",
    "country_id": 75,
    "country_code": "FR",
    "latitude": "48.64329430",
    "longitude": "5.39484800",
    "native": null,
    "timezone": null,
    "translations": {}
  },
  {
    "id": 156573,
    "name": "Brabant-en-Argonne",
    "state_id": 5023,
    "state_code": "55",
    "country_id": 75,
    "country_code": "FR",
    "latitude": "49.11984150",
    "longitude": "5.10926080",
    "native": null,
    "timezone": null,
    "translations": {}
  },
  {
    "id": 156574,
    "name": "Brabant-le-Roi",
    "state_id": 5023,
    "state_code": "55",
    "country_id": 75,
    "country_code": "FR",
    "latitude": "48.85758340",
    "longitude": "4.93707330",
    "native": null,
    "timezone": null,
    "translations": {}
  },
  {
    "id": 156575,
    "name": "Brabant-sur-Meuse",
    "state_id": 5023,
    "state_code": "55",
    "country_id": 75,
    "country_code": "FR",
    "latitude": "49.28018550",
    "longitude": "5.30167730",
    "native": null,
    "timezone": null,
    "translations": {}
  },
  {
    "id": 156576,
    "name": "Brandeville",
    "state_id": 5023,
    "state_code": "55",
    "country_id": 75,
    "country_code": "FR",
    "latitude": "49.39148270",
    "longitude": "5.26739040",
    "native": null,
    "timezone": null,
    "translations": {}
  },
  {
    "id": 156577,
    "name": "Braquis",
    "state_id": 5023,
    "state_code": "55",
    "country_id": 75,
    "country_code": "FR",
    "latitude": "49.15631520",
    "longitude": "5.60512950",
    "native": null,
    "timezone": null,
    "translations": {}
  },
  {
    "id": 156578,
    "name": "Bras-sur-Meuse",
    "state_id": 5023,
    "state_code": "55",
    "country_id": 75,
    "country_code": "FR",
    "latitude": "49.20744030",
    "longitude": "5.36994010",
    "native": null,
    "timezone": null,
    "translations": {}
  },
  {
    "id": 156579,
    "name": "Brauvilliers",
    "state_id": 5023,
    "state_code": "55",
    "country_id": 75,
    "country_code": "FR",
    "latitude": "48.57677050",
    "longitude": "5.13436530",
    "native": null,
    "timezone": null,
    "translations": {}
  },
  {
    "id": 156580,
    "name": "Bréhéville",
    "state_id": 5023,
    "state_code": "55",
    "country_id": 75,
    "country_code": "FR",
    "latitude": "49.38276840",
    "longitude": "5.28926900",
    "native": null,
    "timezone": null,
    "translations": {}
  },
  {
    "id": 156581,
    "name": "Breux",
    "state_id": 5023,
    "state_code": "55",
    "country_id": 75,
    "country_code": "FR",
    "latitude": "49.59296770",
    "longitude": "5.35490690",
    "native": null,
    "timezone": null,
    "translations": {}
  },
  {
    "id": 156582,
    "name": "Brieulles-sur-Meuse",
    "state_id": 5023,
    "state_code": "55",
    "country_id": 75,
    "country_code": "FR",
    "latitude": "49.32830230",
    "longitude": "5.13096880",
    "native": null,
    "timezone": null,
    "translations": {}
  },
  {
    "id": 156583,
    "name": "Brillon-en-Barrois",
    "state_id": 5023,
    "state_code": "55",
    "country_id": 75,
    "country_code": "FR",
    "latitude": "48.71708160",
    "longitude": "5.06660850",
    "native": null,
    "timezone": null,
    "translations": {}
  },
  {
    "id": 156584,
    "name": "Brixey-aux-Chanoines",
    "state_id": 5023,
    "state_code": "55",
    "country_id": 75,
    "country_code": "FR",
    "latitude": "48.47541490",
    "longitude": "5.69548150",
    "native": null,
    "timezone": null,
    "translations": {}
  },
  {
    "id": 156585,
    "name": "Brizeaux",
    "state_id": 5023,
    "state_code": "55",
    "country_id": 75,
    "country_code": "FR",
    "latitude": "49.00537420",
    "longitude": "5.03490360",
    "native": null,
    "timezone": null,
    "translations": {}
  },
  {
    "id": 156586,
    "name": "Brocourt-en-Argonne",
    "state_id": 5023,
    "state_code": "55",
    "country_id": 75,
    "country_code": "FR",
    "latitude": "49.11169840",
    "longitude": "5.15081550",
    "native": null,
    "timezone": null,
    "translations": {}
  },
  {
    "id": 156587,
    "name": "Brouennes",
    "state_id": 5023,
    "state_code": "55",
    "country_id": 75,
    "country_code": "FR",
    "latitude": "49.52228260",
    "longitude": "5.23014080",
    "native": null,
    "timezone": null,
    "translations": {}
  },
  {
    "id": 156588,
    "name": "Broussey-en-Blois",
    "state_id": 5023,
    "state_code": "55",
    "country_id": 75,
    "country_code": "FR",
    "latitude": "48.63423170",
    "longitude": "5.51211270",
    "native": null,
    "timezone": null,
    "translations": {}
  },
  {
    "id": 156589,
    "name": "Broussey-Raulecourt",
    "state_id": 5023,
    "state_code": "55",
    "country_id": 75,
    "country_code": "FR",
    "latitude": "48.81420930",
    "longitude": "5.67384860",
    "native": null,
    "timezone": null,
    "translations": {}
  },
  {
    "id": 156590,
    "name": "Bure",
    "state_id": 5023,
    "state_code": "55",
    "country_id": 75,
    "country_code": "FR",
    "latitude": "48.50617190",
    "longitude": "5.30068860",
    "native": null,
    "timezone": null,
    "translations": {}
  },
  {
    "id": 156591,
    "name": "Burey-en-Vaux",
    "state_id": 5023,
    "state_code": "55",
    "country_id": 75,
    "country_code": "FR",
    "latitude": "48.55584050",
    "longitude": "5.60489550",
    "native": null,
    "timezone": null,
    "translations": {}
  },
  {
    "id": 156592,
    "name": "Burey-la-Côte",
    "state_id": 5023,
    "state_code": "55",
    "country_id": 75,
    "country_code": "FR",
    "latitude": "48.50108450",
    "longitude": "5.66313430",
    "native": null,
    "timezone": null,
    "translations": {}
  },
  {
    "id": 156593,
    "name": "Buxières-sous-les-Côtes",
    "state_id": 5023,
    "state_code": "55",
    "country_id": 75,
    "country_code": "FR",
    "latitude": "48.90551910",
    "longitude": "5.64024070",
    "native": null,
    "timezone": null,
    "translations": {}
  },
  {
    "id": 156594,
    "name": "Buzy-Darmont",
    "state_id": 5023,
    "state_code": "55",
    "country_id": 75,
    "country_code": "FR",
    "latitude": "49.17104480",
    "longitude": "5.67398990",
    "native": null,
    "timezone": null,
    "translations": {}
  },
  {
    "id": 156595,
    "name": "Cesse",
    "state_id": 5023,
    "state_code": "55",
    "country_id": 75,
    "country_code": "FR",
    "latitude": "49.50861990",
    "longitude": "5.11759360",
    "native": null,
    "timezone": null,
    "translations": {}
  },
  {
    "id": 156596,
    "name": "Chaillon",
    "state_id": 5023,
    "state_code": "55",
    "country_id": 75,
    "country_code": "FR",
    "latitude": "48.94960800",
    "longitude": "5.61048030",
    "native": null,
    "timezone": null,
    "translations": {}
  },
  {
    "id": 156597,
    "name": "Chalaines",
    "state_id": 5023,
    "state_code": "55",
    "country_id": 75,
    "country_code": "FR",
    "latitude": "48.59631660",
    "longitude": "5.67679300",
    "native": null,
    "timezone": null,
    "translations": {}
  },
  {
    "id": 156598,
    "name": "Champneuville",
    "state_id": 5023,
    "state_code": "55",
    "country_id": 75,
    "country_code": "FR",
    "latitude": "49.23773020",
    "longitude": "5.29069960",
    "native": null,
    "timezone": null,
    "translations": {}
  },
  {
    "id": 156599,
    "name": "Champougny",
    "state_id": 5023,
    "state_code": "55",
    "country_id": 75,
    "country_code": "FR",
    "latitude": "48.54366520",
    "longitude": "5.68076440",
    "native": null,
    "timezone": null,
    "translations": {}
  },
  {
    "id": 156600,
    "name": "Chanteraine",
    "state_id": 5023,
    "state_code": "55",
    "country_id": 75,
    "country_code": "FR",
    "latitude": "48.67540010",
    "longitude": "5.34771790",
    "native": null,
    "timezone": null,
    "translations": {}
  },
  {
    "id": 156601,
    "name": "Chardogne",
    "state_id": 5023,
    "state_code": "55",
    "country_id": 75,
    "country_code": "FR",
    "latitude": "48.82633270",
    "longitude": "5.08644240",
    "native": null,
    "timezone": null,
    "translations": {}
  },
  {
    "id": 156602,
    "name": "Charny-sur-Meuse",
    "state_id": 5023,
    "state_code": "55",
    "country_id": 75,
    "country_code": "FR",
    "latitude": "49.20240380",
    "longitude": "5.32159870",
    "native": null,
    "timezone": null,
    "translations": {}
  },
  {
    "id": 156603,
    "name": "Charpentry",
    "state_id": 5023,
    "state_code": "55",
    "country_id": 75,
    "country_code": "FR",
    "latitude": "49.25820080",
    "longitude": "5.02068500",
    "native": null,
    "timezone": null,
    "translations": {}
  },
  {
    "id": 156604,
    "name": "Chassey-Beaupré",
    "state_id": 5023,
    "state_code": "55",
    "country_id": 75,
    "country_code": "FR",
    "latitude": "48.44462180",
    "longitude": "5.39618320",
    "native": null,
    "timezone": null,
    "translations": {}
  },
  {
    "id": 156605,
    "name": "Châtillon-sous-les-Côtes",
    "state_id": 5023,
    "state_code": "55",
    "country_id": 75,
    "country_code": "FR",
    "latitude": "49.13929530",
    "longitude": "5.47165910",
    "native": null,
    "timezone": null,
    "translations": {}
  },
  {
    "id": 156606,
    "name": "Chattancourt",
    "state_id": 5023,
    "state_code": "55",
    "country_id": 75,
    "country_code": "FR",
    "latitude": "49.21543200",
    "longitude": "5.22409810",
    "native": null,
    "timezone": null,
    "translations": {}
  },
  {
    "id": 156607,
    "name": "Chaumont-devant-Damvillers",
    "state_id": 5023,
    "state_code": "55",
    "country_id": 75,
    "country_code": "FR",
    "latitude": "49.31078030",
    "longitude": "5.41337090",
    "native": null,
    "timezone": null,
    "translations": {}
  },
  {
    "id": 156608,
    "name": "Chaumont-sur-Aire",
    "state_id": 5023,
    "state_code": "55",
    "country_id": 75,
    "country_code": "FR",
    "latitude": "48.92317480",
    "longitude": "5.22943310",
    "native": null,
    "timezone": null,
    "translations": {}
  },
  {
    "id": 156609,
    "name": "Chauvency-le-Château",
    "state_id": 5023,
    "state_code": "55",
    "country_id": 75,
    "country_code": "FR",
    "latitude": "49.52816520",
    "longitude": "5.26469820",
    "native": null,
    "timezone": null,
    "translations": {}
  },
  {
    "id": 156610,
    "name": "Chauvency-Saint-Hubert",
    "state_id": 5023,
    "state_code": "55",
    "country_id": 75,
    "country_code": "FR",
    "latitude": "49.53857260",
    "longitude": "5.27781260",
    "native": null,
    "timezone": null,
    "translations": {}
  },
  {
    "id": 156611,
    "name": "Chauvoncourt",
    "state_id": 5023,
    "state_code": "55",
    "country_id": 75,
    "country_code": "FR",
    "latitude": "48.89397020",
    "longitude": "5.45227170",
    "native": null,
    "timezone": null,
    "translations": {}
  },
  {
    "id": 156612,
    "name": "Cheppy",
    "state_id": 5023,
    "state_code": "55",
    "country_id": 75,
    "country_code": "FR",
    "latitude": "49.22691970",
    "longitude": "5.03692550",
    "native": null,
    "timezone": null,
    "translations": {}
  },
  {
    "id": 156613,
    "name": "Chonville-Malaumont",
    "state_id": 5023,
    "state_code": "55",
    "country_id": 75,
    "country_code": "FR",
    "latitude": "48.75918510",
    "longitude": "5.44537090",
    "native": null,
    "timezone": null,
    "translations": {}
  },
  {
    "id": 156614,
    "name": "Cierges-sous-Montfaucon",
    "state_id": 5023,
    "state_code": "55",
    "country_id": 75,
    "country_code": "FR",
    "latitude": "49.30086390",
    "longitude": "5.04903330",
    "native": null,
    "timezone": null,
    "translations": {}
  },
  {
    "id": 156616,
    "name": "Cléry-le-Grand",
    "state_id": 5023,
    "state_code": "55",
    "country_id": 75,
    "country_code": "FR",
    "latitude": "49.36199880",
    "longitude": "5.12141630",
    "native": null,
    "timezone": null,
    "translations": {}
  },
  {
    "id": 156617,
    "name": "Cléry-le-Petit",
    "state_id": 5023,
    "state_code": "55",
    "country_id": 75,
    "country_code": "FR",
    "latitude": "49.36466670",
    "longitude": "5.14508480",
    "native": null,
    "timezone": null,
    "translations": {}
  },
  {
    "id": 156618,
    "name": "Combles-en-Barrois",
    "state_id": 5023,
    "state_code": "55",
    "country_id": 75,
    "country_code": "FR",
    "latitude": "48.74269090",
    "longitude": "5.09174410",
    "native": null,
    "timezone": null,
    "translations": {}
  },
  {
    "id": 156619,
    "name": "Combres-sous-les-Côtes",
    "state_id": 5023,
    "state_code": "55",
    "country_id": 75,
    "country_code": "FR",
    "latitude": "49.06337160",
    "longitude": "5.59950120",
    "native": null,
    "timezone": null,
    "translations": {}
  },
  {
    "id": 156621,
    "name": "Consenvoye",
    "state_id": 5023,
    "state_code": "55",
    "country_id": 75,
    "country_code": "FR",
    "latitude": "49.29606920",
    "longitude": "5.27234190",
    "native": null,
    "timezone": null,
    "translations": {}
  },
  {
    "id": 156622,
    "name": "Contrisson",
    "state_id": 5023,
    "state_code": "55",
    "country_id": 75,
    "country_code": "FR",
    "latitude": "48.80288550",
    "longitude": "4.91588870",
    "native": null,
    "timezone": null,
    "translations": {}
  },
  {
    "id": 156623,
    "name": "Courcelles-en-Barrois",
    "state_id": 5023,
    "state_code": "55",
    "country_id": 75,
    "country_code": "FR",
    "latitude": "48.82518430",
    "longitude": "5.38643030",
    "native": null,
    "timezone": null,
    "translations": {}
  },
  {
    "id": 156624,
    "name": "Courcelles-sur-Aire",
    "state_id": 5023,
    "state_code": "55",
    "country_id": 75,
    "country_code": "FR",
    "latitude": "48.94070550",
    "longitude": "5.19180790",
    "native": null,
    "timezone": null,
    "translations": {}
  },
  {
    "id": 156625,
    "name": "Courouvre",
    "state_id": 5023,
    "state_code": "55",
    "country_id": 75,
    "country_code": "FR",
    "latitude": "48.94540440",
    "longitude": "5.33629130",
    "native": null,
    "timezone": null,
    "translations": {}
  },
  {
    "id": 156626,
    "name": "Cousances-les-Forges",
    "state_id": 5023,
    "state_code": "55",
    "country_id": 75,
    "country_code": "FR",
    "latitude": "48.61826840",
    "longitude": "5.04726340",
    "native": null,
    "timezone": null,
    "translations": {}
  },
  {
    "id": 156627,
    "name": "Cousances-lès-Triconville",
    "state_id": 5023,
    "state_code": "55",
    "country_id": 75,
    "country_code": "FR",
    "latitude": "48.77029360",
    "longitude": "5.36191510",
    "native": null,
    "timezone": null,
    "translations": {}
  },
  {
    "id": 156628,
    "name": "Couvertpuis",
    "state_id": 5023,
    "state_code": "55",
    "country_id": 75,
    "country_code": "FR",
    "latitude": "48.58014930",
    "longitude": "5.28529890",
    "native": null,
    "timezone": null,
    "translations": {}
  },
  {
    "id": 156629,
    "name": "Couvonges",
    "state_id": 5023,
    "state_code": "55",
    "country_id": 75,
    "country_code": "FR",
    "latitude": "48.77718840",
    "longitude": "5.01707740",
    "native": null,
    "timezone": null,
    "translations": {}
  },
  {
    "id": 156630,
    "name": "Cuisy",
    "state_id": 5023,
    "state_code": "55",
    "country_id": 75,
    "country_code": "FR",
    "latitude": "49.26836240",
    "longitude": "5.16782620",
    "native": null,
    "timezone": null,
    "translations": {}
  },
  {
    "id": 156631,
    "name": "Culey",
    "state_id": 5023,
    "state_code": "55",
    "country_id": 75,
    "country_code": "FR",
    "latitude": "48.76706400",
    "longitude": "5.23013760",
    "native": null,
    "timezone": null,
    "translations": {}
  },
  {
    "id": 156632,
    "name": "Cumières-le-Mort-Homme",
    "state_id": 5023,
    "state_code": "55",
    "country_id": 75,
    "country_code": "FR",
    "latitude": "49.23403960",
    "longitude": "5.22347290",
    "native": null,
    "timezone": null,
    "translations": {}
  },
  {
    "id": 156633,
    "name": "Cunel",
    "state_id": 5023,
    "state_code": "55",
    "country_id": 75,
    "country_code": "FR",
    "latitude": "49.33130970",
    "longitude": "5.09780700",
    "native": null,
    "timezone": null,
    "translations": {}
  },
  {
    "id": 156634,
    "name": "Dagonville",
    "state_id": 5023,
    "state_code": "55",
    "country_id": 75,
    "country_code": "FR",
    "latitude": "48.79035680",
    "longitude": "5.34194090",
    "native": null,
    "timezone": null,
    "translations": {}
  },
  {
    "id": 156635,
    "name": "Dainville-Bertheléville",
    "state_id": 5023,
    "state_code": "55",
    "country_id": 75,
    "country_code": "FR",
    "latitude": "48.45076010",
    "longitude": "5.47221330",
    "native": null,
    "timezone": null,
    "translations": {}
  },
  {
    "id": 156636,
    "name": "Damloup",
    "state_id": 5023,
    "state_code": "55",
    "country_id": 75,
    "country_code": "FR",
    "latitude": "49.19852150",
    "longitude": "5.45380840",
    "native": null,
    "timezone": null,
    "translations": {}
  },
  {
    "id": 156637,
    "name": "Dammarie-sur-Saulx",
    "state_id": 5023,
    "state_code": "55",
    "country_id": 75,
    "country_code": "FR",
    "latitude": "48.59881920",
    "longitude": "5.15605990",
    "native": null,
    "timezone": null,
    "translations": {}
  },
  {
    "id": 156638,
    "name": "Damvillers",
    "state_id": 5023,
    "state_code": "55",
    "country_id": 75,
    "country_code": "FR",
    "latitude": "49.34312080",
    "longitude": "5.37353910",
    "native": null,
    "timezone": null,
    "translations": {}
  },
  {
    "id": 156639,
    "name": "Dannevoux",
    "state_id": 5023,
    "state_code": "55",
    "country_id": 75,
    "country_code": "FR",
    "latitude": "49.30878460",
    "longitude": "5.18085810",
    "native": null,
    "timezone": null,
    "translations": {}
  },
  {
    "id": 156640,
    "name": "Delouze-Rosières",
    "state_id": 5023,
    "state_code": "55",
    "country_id": 75,
    "country_code": "FR",
    "latitude": "48.56803930",
    "longitude": "5.49407230",
    "native": null,
    "timezone": null,
    "translations": {}
  },
  {
    "id": 156641,
    "name": "Delut",
    "state_id": 5023,
    "state_code": "55",
    "country_id": 75,
    "country_code": "FR",
    "latitude": "49.41059840",
    "longitude": "5.37942990",
    "native": null,
    "timezone": null,
    "translations": {}
  },
  {
    "id": 156642,
    "name": "Demange-Baudignécourt",
    "state_id": 5023,
    "state_code": "55",
    "country_id": 75,
    "country_code": "FR",
    "latitude": "48.58652540",
    "longitude": "5.42366080",
    "native": null,
    "timezone": null,
    "translations": {}
  },
  {
    "id": 156643,
    "name": "Dieppe-sous-Douaumont",
    "state_id": 5023,
    "state_code": "55",
    "country_id": 75,
    "country_code": "FR",
    "latitude": "49.22170900",
    "longitude": "5.47881840",
    "native": null,
    "timezone": null,
    "translations": {}
  },
  {
    "id": 156645,
    "name": "Dombasle-en-Argonne",
    "state_id": 5023,
    "state_code": "55",
    "country_id": 75,
    "country_code": "FR",
    "latitude": "49.14537170",
    "longitude": "5.17647300",
    "native": null,
    "timezone": null,
    "translations": {}
  },
  {
    "id": 156646,
    "name": "Dombras",
    "state_id": 5023,
    "state_code": "55",
    "country_id": 75,
    "country_code": "FR",
    "latitude": "49.37883560",
    "longitude": "5.41036750",
    "native": null,
    "timezone": null,
    "translations": {}
  },
  {
    "id": 156647,
    "name": "Dommartin-la-Montagne",
    "state_id": 5023,
    "state_code": "55",
    "country_id": 75,
    "country_code": "FR",
    "latitude": "49.02573240",
    "longitude": "5.57926490",
    "native": null,
    "timezone": null,
    "translations": {}
  },
  {
    "id": 156648,
    "name": "Dommary-Baroncourt",
    "state_id": 5023,
    "state_code": "55",
    "country_id": 75,
    "country_code": "FR",
    "latitude": "49.28028740",
    "longitude": "5.67728050",
    "native": null,
    "timezone": null,
    "translations": {}
  },
  {
    "id": 156649,
    "name": "Dompcevrin",
    "state_id": 5023,
    "state_code": "55",
    "country_id": 75,
    "country_code": "FR",
    "latitude": "48.93055070",
    "longitude": "5.42454910",
    "native": null,
    "timezone": null,
    "translations": {}
  },
  {
    "id": 156650,
    "name": "Dompierre-aux-Bois",
    "state_id": 5023,
    "state_code": "55",
    "country_id": 75,
    "country_code": "FR",
    "latitude": "48.99911790",
    "longitude": "5.57509550",
    "native": null,
    "timezone": null,
    "translations": {}
  },
  {
    "id": 156651,
    "name": "Domremy-la-Canne",
    "state_id": 5023,
    "state_code": "55",
    "country_id": 75,
    "country_code": "FR",
    "latitude": "49.29728350",
    "longitude": "5.68417590",
    "native": null,
    "timezone": null,
    "translations": {}
  },
  {
    "id": 156652,
    "name": "Doncourt-aux-Templiers",
    "state_id": 5023,
    "state_code": "55",
    "country_id": 75,
    "country_code": "FR",
    "latitude": "49.06006010",
    "longitude": "5.69990800",
    "native": null,
    "timezone": null,
    "translations": {}
  },
  {
    "id": 156653,
    "name": "Douaumont-Vaux",
    "state_id": 5023,
    "state_code": "55",
    "country_id": 75,
    "country_code": "FR",
    "latitude": "49.21405440",
    "longitude": "5.41049540",
    "native": null,
    "timezone": null,
    "translations": {}
  },
  {
    "id": 156654,
    "name": "Doulcon",
    "state_id": 5023,
    "state_code": "55",
    "country_id": 75,
    "country_code": "FR",
    "latitude": "49.38563860",
    "longitude": "5.13535030",
    "native": null,
    "timezone": null,
    "translations": {}
  },
  {
    "id": 156655,
    "name": "Dugny-sur-Meuse",
    "state_id": 5023,
    "state_code": "55",
    "country_id": 75,
    "country_code": "FR",
    "latitude": "49.09857610",
    "longitude": "5.32499720",
    "native": null,
    "timezone": null,
    "translations": {}
  },
  {
    "id": 156656,
    "name": "Dun-sur-Meuse",
    "state_id": 5023,
    "state_code": "55",
    "country_id": 75,
    "country_code": "FR",
    "latitude": "49.38387500",
    "longitude": "5.17572900",
    "native": null,
    "timezone": null,
    "translations": {}
  },
  {
    "id": 156657,
    "name": "Duzey",
    "state_id": 5023,
    "state_code": "55",
    "country_id": 75,
    "country_code": "FR",
    "latitude": "49.35967880",
    "longitude": "5.59701880",
    "native": null,
    "timezone": null,
    "translations": {}
  },
  {
    "id": 156658,
    "name": "Écouviez",
    "state_id": 5023,
    "state_code": "55",
    "country_id": 75,
    "country_code": "FR",
    "latitude": "49.53369880",
    "longitude": "5.43264160",
    "native": null,
    "timezone": null,
    "translations": {}
  },
  {
    "id": 156659,
    "name": "Écurey-en-Verdunois",
    "state_id": 5023,
    "state_code": "55",
    "country_id": 75,
    "country_code": "FR",
    "latitude": "49.35516280",
    "longitude": "5.30155390",
    "native": null,
    "timezone": null,
    "translations": {}
  },
  {
    "id": 156660,
    "name": "Eix",
    "state_id": 5023,
    "state_code": "55",
    "country_id": 75,
    "country_code": "FR",
    "latitude": "49.18118600",
    "longitude": "5.43284740",
    "native": null,
    "timezone": null,
    "translations": {}
  },
  {
    "id": 156661,
    "name": "Épiez-sur-Meuse",
    "state_id": 5023,
    "state_code": "55",
    "country_id": 75,
    "country_code": "FR",
    "latitude": "48.54271260",
    "longitude": "5.60663510",
    "native": null,
    "timezone": null,
    "translations": {}
  },
  {
    "id": 156662,
    "name": "Épinonville",
    "state_id": 5023,
    "state_code": "55",
    "country_id": 75,
    "country_code": "FR",
    "latitude": "49.27244850",
    "longitude": "5.04228590",
    "native": null,
    "timezone": null,
    "translations": {}
  },
  {
    "id": 156663,
    "name": "Érize-la-Brûlée",
    "state_id": 5023,
    "state_code": "55",
    "country_id": 75,
    "country_code": "FR",
    "latitude": "48.84655530",
    "longitude": "5.23343380",
    "native": null,
    "timezone": null,
    "translations": {}
  },
  {
    "id": 156664,
    "name": "Érize-la-Petite",
    "state_id": 5023,
    "state_code": "55",
    "country_id": 75,
    "country_code": "FR",
    "latitude": "48.91314970",
    "longitude": "5.20041290",
    "native": null,
    "timezone": null,
    "translations": {}
  },
  {
    "id": 156665,
    "name": "Érize-Saint-Dizier",
    "state_id": 5023,
    "state_code": "55",
    "country_id": 75,
    "country_code": "FR",
    "latitude": "48.81039430",
    "longitude": "5.26027330",
    "native": null,
    "timezone": null,
    "translations": {}
  },
  {
    "id": 156666,
    "name": "Erneville-aux-Bois",
    "state_id": 5023,
    "state_code": "55",
    "country_id": 75,
    "country_code": "FR",
    "latitude": "48.74248130",
    "longitude": "5.32570030",
    "native": null,
    "timezone": null,
    "translations": {}
  },
  {
    "id": 156667,
    "name": "Esnes-en-Argonne",
    "state_id": 5023,
    "state_code": "55",
    "country_id": 75,
    "country_code": "FR",
    "latitude": "49.20980860",
    "longitude": "5.16265640",
    "native": null,
    "timezone": null,
    "translations": {}
  },
  {
    "id": 156669,
    "name": "Éton",
    "state_id": 5023,
    "state_code": "55",
    "country_id": 75,
    "country_code": "FR",
    "latitude": "49.26444120",
    "longitude": "5.64690050",
    "native": null,
    "timezone": null,
    "translations": {}
  },
  {
    "id": 156670,
    "name": "Étraye",
    "state_id": 5023,
    "state_code": "55",
    "country_id": 75,
    "country_code": "FR",
    "latitude": "49.32635870",
    "longitude": "5.33667130",
    "native": null,
    "timezone": null,
    "translations": {}
  },
  {
    "id": 156672,
    "name": "Èvres",
    "state_id": 5023,
    "state_code": "55",
    "country_id": 75,
    "country_code": "FR",
    "latitude": "48.98242380",
    "longitude": "5.08814040",
    "native": null,
    "timezone": null,
    "translations": {}
  },
  {
    "id": 156674,
    "name": "Flassigny",
    "state_id": 5023,
    "state_code": "55",
    "country_id": 75,
    "country_code": "FR",
    "latitude": "49.47493530",
    "longitude": "5.42203110",
    "native": null,
    "timezone": null,
    "translations": {}
  },
  {
    "id": 156675,
    "name": "Fleury-devant-Douaumont",
    "state_id": 5023,
    "state_code": "55",
    "country_id": 75,
    "country_code": "FR",
    "latitude": "49.19480710",
    "longitude": "5.40129030",
    "native": null,
    "timezone": null,
    "translations": {}
  },
  {
    "id": 156676,
    "name": "Foameix-Ornel",
    "state_id": 5023,
    "state_code": "55",
    "country_id": 75,
    "country_code": "FR",
    "latitude": "49.23577310",
    "longitude": "5.56870100",
    "native": null,
    "timezone": null,
    "translations": {}
  },
  {
    "id": 156677,
    "name": "Fontaines-Saint-Clair",
    "state_id": 5023,
    "state_code": "55",
    "country_id": 75,
    "country_code": "FR",
    "latitude": "49.36622470",
    "longitude": "5.22594770",
    "native": null,
    "timezone": null,
    "translations": {}
  },
  {
    "id": 156678,
    "name": "Forges-sur-Meuse",
    "state_id": 5023,
    "state_code": "55",
    "country_id": 75,
    "country_code": "FR",
    "latitude": "49.26011730",
    "longitude": "5.23676210",
    "native": null,
    "timezone": null,
    "translations": {}
  },
  {
    "id": 156679,
    "name": "Foucaucourt-sur-Thabas",
    "state_id": 5023,
    "state_code": "55",
    "country_id": 75,
    "country_code": "FR",
    "latitude": "49.00684770",
    "longitude": "5.05826020",
    "native": null,
    "timezone": null,
    "translations": {}
  },
  {
    "id": 156680,
    "name": "Fouchères-aux-Bois",
    "state_id": 5023,
    "state_code": "55",
    "country_id": 75,
    "country_code": "FR",
    "latitude": "48.63089260",
    "longitude": "5.22906400",
    "native": null,
    "timezone": null,
    "translations": {}
  },
  {
    "id": 156681,
    "name": "Frémeréville-sous-les-Côtes",
    "state_id": 5023,
    "state_code": "55",
    "country_id": 75,
    "country_code": "FR",
    "latitude": "48.80427430",
    "longitude": "5.63531920",
    "native": null,
    "timezone": null,
    "translations": {}
  },
  {
    "id": 156682,
    "name": "Fresnes-au-Mont",
    "state_id": 5023,
    "state_code": "55",
    "country_id": 75,
    "country_code": "FR",
    "latitude": "48.89838960",
    "longitude": "5.40186990",
    "native": null,
    "timezone": null,
    "translations": {}
  },
  {
    "id": 156683,
    "name": "Fresnes-en-Woëvre",
    "state_id": 5023,
    "state_code": "55",
    "country_id": 75,
    "country_code": "FR",
    "latitude": "49.10141030",
    "longitude": "5.61431420",
    "native": null,
    "timezone": null,
    "translations": {}
  },
  {
    "id": 156684,
    "name": "Froidos",
    "state_id": 5023,
    "state_code": "55",
    "country_id": 75,
    "country_code": "FR",
    "latitude": "49.06095920",
    "longitude": "5.07956950",
    "native": null,
    "timezone": null,
    "translations": {}
  },
  {
    "id": 156685,
    "name": "Fromeréville-les-Vallons",
    "state_id": 5023,
    "state_code": "55",
    "country_id": 75,
    "country_code": "FR",
    "latitude": "49.16579740",
    "longitude": "5.25175220",
    "native": null,
    "timezone": null,
    "translations": {}
  },
  {
    "id": 156686,
    "name": "Fromezey",
    "state_id": 5023,
    "state_code": "55",
    "country_id": 75,
    "country_code": "FR",
    "latitude": "49.20921930",
    "longitude": "5.56209080",
    "native": null,
    "timezone": null,
    "translations": {}
  },
  {
    "id": 156687,
    "name": "Futeau",
    "state_id": 5023,
    "state_code": "55",
    "country_id": 75,
    "country_code": "FR",
    "latitude": "49.07606670",
    "longitude": "4.98997100",
    "native": null,
    "timezone": null,
    "translations": {}
  },
  {
    "id": 156688,
    "name": "Génicourt-sur-Meuse",
    "state_id": 5023,
    "state_code": "55",
    "country_id": 75,
    "country_code": "FR",
    "latitude": "49.04435540",
    "longitude": "5.42202400",
    "native": null,
    "timezone": null,
    "translations": {}
  },
  {
    "id": 156689,
    "name": "Gercourt-et-Drillancourt",
    "state_id": 5023,
    "state_code": "55",
    "country_id": 75,
    "country_code": "FR",
    "latitude": "49.28175700",
    "longitude": "5.19607620",
    "native": null,
    "timezone": null,
    "translations": {}
  },
  {
    "id": 156690,
    "name": "Géry",
    "state_id": 5023,
    "state_code": "55",
    "country_id": 75,
    "country_code": "FR",
    "latitude": "48.78662760",
    "longitude": "5.28271640",
    "native": null,
    "timezone": null,
    "translations": {}
  },
  {
    "id": 156691,
    "name": "Gesnes-en-Argonne",
    "state_id": 5023,
    "state_code": "55",
    "country_id": 75,
    "country_code": "FR",
    "latitude": "49.30610080",
    "longitude": "5.01526970",
    "native": null,
    "timezone": null,
    "translations": {}
  },
  {
    "id": 156692,
    "name": "Geville",
    "state_id": 5023,
    "state_code": "55",
    "country_id": 75,
    "country_code": "FR",
    "latitude": "48.78319060",
    "longitude": "5.62937410",
    "native": null,
    "timezone": null,
    "translations": {}
  },
  {
    "id": 156693,
    "name": "Gimécourt",
    "state_id": 5023,
    "state_code": "55",
    "country_id": 75,
    "country_code": "FR",
    "latitude": "48.84750360",
    "longitude": "5.33693110",
    "native": null,
    "timezone": null,
    "translations": {}
  },
  {
    "id": 156694,
    "name": "Gincrey",
    "state_id": 5023,
    "state_code": "55",
    "country_id": 75,
    "country_code": "FR",
    "latitude": "49.26158630",
    "longitude": "5.52290520",
    "native": null,
    "timezone": null,
    "translations": {}
  },
  {
    "id": 156695,
    "name": "Girauvoisin",
    "state_id": 5023,
    "state_code": "55",
    "country_id": 75,
    "country_code": "FR",
    "latitude": "48.80566180",
    "longitude": "5.61518780",
    "native": null,
    "timezone": null,
    "translations": {}
  },
  {
    "id": 156696,
    "name": "Givrauval",
    "state_id": 5023,
    "state_code": "55",
    "country_id": 75,
    "country_code": "FR",
    "latitude": "48.65654630",
    "longitude": "5.27917760",
    "native": null,
    "timezone": null,
    "translations": {}
  },
  {
    "id": 156698,
    "name": "Gouraincourt",
    "state_id": 5023,
    "state_code": "55",
    "country_id": 75,
    "country_code": "FR",
    "latitude": "49.29887280",
    "longitude": "5.64604260",
    "native": null,
    "timezone": null,
    "translations": {}
  },
  {
    "id": 156699,
    "name": "Goussaincourt",
    "state_id": 5023,
    "state_code": "55",
    "country_id": 75,
    "country_code": "FR",
    "latitude": "48.48259330",
    "longitude": "5.65118080",
    "native": null,
    "timezone": null,
    "translations": {}
  },
  {
    "id": 156700,
    "name": "Gremilly",
    "state_id": 5023,
    "state_code": "55",
    "country_id": 75,
    "country_code": "FR",
    "latitude": "49.28286700",
    "longitude": "5.47156470",
    "native": null,
    "timezone": null,
    "translations": {}
  },
  {
    "id": 156701,
    "name": "Grimaucourt-en-Woëvre",
    "state_id": 5023,
    "state_code": "55",
    "country_id": 75,
    "country_code": "FR",
    "latitude": "49.16400020",
    "longitude": "5.54610850",
    "native": null,
    "timezone": null,
    "translations": {}
  },
  {
    "id": 156702,
    "name": "Grimaucourt-près-Sampigny",
    "state_id": 5023,
    "state_code": "55",
    "country_id": 75,
    "country_code": "FR",
    "latitude": "48.78025070",
    "longitude": "5.42828180",
    "native": null,
    "timezone": null,
    "translations": {}
  },
  {
    "id": 156703,
    "name": "Guerpont",
    "state_id": 5023,
    "state_code": "55",
    "country_id": 75,
    "country_code": "FR",
    "latitude": "48.71948670",
    "longitude": "5.23646480",
    "native": null,
    "timezone": null,
    "translations": {}
  },
  {
    "id": 156704,
    "name": "Gussainville",
    "state_id": 5023,
    "state_code": "55",
    "country_id": 75,
    "country_code": "FR",
    "latitude": "49.16678060",
    "longitude": "5.64030070",
    "native": null,
    "timezone": null,
    "translations": {}
  },
  {
    "id": 156705,
    "name": "Haironville",
    "state_id": 5023,
    "state_code": "55",
    "country_id": 75,
    "country_code": "FR",
    "latitude": "48.68611870",
    "longitude": "5.07057680",
    "native": null,
    "timezone": null,
    "translations": {}
  },
  {
    "id": 156706,
    "name": "Halles-sous-les-Côtes",
    "state_id": 5023,
    "state_code": "55",
    "country_id": 75,
    "country_code": "FR",
    "latitude": "49.44653080",
    "longitude": "5.10668190",
    "native": null,
    "timezone": null,
    "translations": {}
  },
  {
    "id": 156707,
    "name": "Han-lès-Juvigny",
    "state_id": 5023,
    "state_code": "55",
    "country_id": 75,
    "country_code": "FR",
    "latitude": "49.48162460",
    "longitude": "5.30914860",
    "native": null,
    "timezone": null,
    "translations": {}
  },
  {
    "id": 156708,
    "name": "Han-sur-Meuse",
    "state_id": 5023,
    "state_code": "55",
    "country_id": 75,
    "country_code": "FR",
    "latitude": "48.85392610",
    "longitude": "5.51471810",
    "native": null,
    "timezone": null,
    "translations": {}
  },
  {
    "id": 156709,
    "name": "Hannonville-sous-les-Côtes",
    "state_id": 5023,
    "state_code": "55",
    "country_id": 75,
    "country_code": "FR",
    "latitude": "49.03228060",
    "longitude": "5.61124840",
    "native": null,
    "timezone": null,
    "translations": {}
  },
  {
    "id": 156710,
    "name": "Harville",
    "state_id": 5023,
    "state_code": "55",
    "country_id": 75,
    "country_code": "FR",
    "latitude": "49.09448080",
    "longitude": "5.70667950",
    "native": null,
    "timezone": null,
    "translations": {}
  },
  {
    "id": 156711,
    "name": "Haudainville",
    "state_id": 5023,
    "state_code": "55",
    "country_id": 75,
    "country_code": "FR",
    "latitude": "49.12455040",
    "longitude": "5.38986590",
    "native": null,
    "timezone": null,
    "translations": {}
  },
  {
    "id": 156712,
    "name": "Haudiomont",
    "state_id": 5023,
    "state_code": "55",
    "country_id": 75,
    "country_code": "FR",
    "latitude": "49.11303330",
    "longitude": "5.49673180",
    "native": null,
    "timezone": null,
    "translations": {}
  },
  {
    "id": 156713,
    "name": "Haumont-près-Samogneux",
    "state_id": 5023,
    "state_code": "55",
    "country_id": 75,
    "country_code": "FR",
    "latitude": "49.27880470",
    "longitude": "5.33166540",
    "native": null,
    "timezone": null,
    "translations": {}
  },
  {
    "id": 156714,
    "name": "Heippes",
    "state_id": 5023,
    "state_code": "55",
    "country_id": 75,
    "country_code": "FR",
    "latitude": "48.99926790",
    "longitude": "5.25614560",
    "native": null,
    "timezone": null,
    "translations": {}
  },
  {
    "id": 156715,
    "name": "Hennemont",
    "state_id": 5023,
    "state_code": "55",
    "country_id": 75,
    "country_code": "FR",
    "latitude": "49.14302440",
    "longitude": "5.63103730",
    "native": null,
    "timezone": null,
    "translations": {}
  },
  {
    "id": 156716,
    "name": "Herbeuville",
    "state_id": 5023,
    "state_code": "55",
    "country_id": 75,
    "country_code": "FR",
    "latitude": "49.04767900",
    "longitude": "5.61981550",
    "native": null,
    "timezone": null,
    "translations": {}
  },
  {
    "id": 156717,
    "name": "Herméville-en-Woëvre",
    "state_id": 5023,
    "state_code": "55",
    "country_id": 75,
    "country_code": "FR",
    "latitude": "49.17674840",
    "longitude": "5.56306380",
    "native": null,
    "timezone": null,
    "translations": {}
  },
  {
    "id": 156718,
    "name": "Heudicourt-sous-les-Côtes",
    "state_id": 5023,
    "state_code": "55",
    "country_id": 75,
    "country_code": "FR",
    "latitude": "48.93683270",
    "longitude": "5.65332710",
    "native": null,
    "timezone": null,
    "translations": {}
  },
  {
    "id": 156719,
    "name": "Hévilliers",
    "state_id": 5023,
    "state_code": "55",
    "country_id": 75,
    "country_code": "FR",
    "latitude": "48.60235530",
    "longitude": "5.28392300",
    "native": null,
    "timezone": null,
    "translations": {}
  },
  {
    "id": 156720,
    "name": "Horville-en-Ornois",
    "state_id": 5023,
    "state_code": "55",
    "country_id": 75,
    "country_code": "FR",
    "latitude": "48.48566250",
    "longitude": "5.44821910",
    "native": null,
    "timezone": null,
    "translations": {}
  },
  {
    "id": 156721,
    "name": "Houdelaincourt",
    "state_id": 5023,
    "state_code": "55",
    "country_id": 75,
    "country_code": "FR",
    "latitude": "48.54996910",
    "longitude": "5.41082810",
    "native": null,
    "timezone": null,
    "translations": {}
  },
  {
    "id": 156722,
    "name": "Inor",
    "state_id": 5023,
    "state_code": "55",
    "country_id": 75,
    "country_code": "FR",
    "latitude": "49.55268560",
    "longitude": "5.14423740",
    "native": null,
    "timezone": null,
    "translations": {}
  },
  {
    "id": 156723,
    "name": "Ippécourt",
    "state_id": 5023,
    "state_code": "55",
    "country_id": 75,
    "country_code": "FR",
    "latitude": "49.03898800",
    "longitude": "5.19091120",
    "native": null,
    "timezone": null,
    "translations": {}
  },
  {
    "id": 156724,
    "name": "Iré-le-Sec",
    "state_id": 5023,
    "state_code": "55",
    "country_id": 75,
    "country_code": "FR",
    "latitude": "49.47432720",
    "longitude": "5.37490210",
    "native": null,
    "timezone": null,
    "translations": {}
  },
  {
    "id": 156725,
    "name": "Jametz",
    "state_id": 5023,
    "state_code": "55",
    "country_id": 75,
    "country_code": "FR",
    "latitude": "49.42495130",
    "longitude": "5.35090450",
    "native": null,
    "timezone": null,
    "translations": {}
  },
  {
    "id": 156726,
    "name": "Jonville-en-Woëvre",
    "state_id": 5023,
    "state_code": "55",
    "country_id": 75,
    "country_code": "FR",
    "latitude": "49.06458360",
    "longitude": "5.73544610",
    "native": null,
    "timezone": null,
    "translations": {}
  },
  {
    "id": 156727,
    "name": "Jouy-en-Argonne",
    "state_id": 5023,
    "state_code": "55",
    "country_id": 75,
    "country_code": "FR",
    "latitude": "49.13768450",
    "longitude": "5.20114130",
    "native": null,
    "timezone": null,
    "translations": {}
  },
  {
    "id": 156728,
    "name": "Julvécourt",
    "state_id": 5023,
    "state_code": "55",
    "country_id": 75,
    "country_code": "FR",
    "latitude": "49.05963720",
    "longitude": "5.16737320",
    "native": null,
    "timezone": null,
    "translations": {}
  },
  {
    "id": 156729,
    "name": "Juvigny-en-Perthois",
    "state_id": 5023,
    "state_code": "55",
    "country_id": 75,
    "country_code": "FR",
    "latitude": "48.59771700",
    "longitude": "5.14595740",
    "native": null,
    "timezone": null,
    "translations": {}
  },
  {
    "id": 156730,
    "name": "Juvigny-sur-Loison",
    "state_id": 5023,
    "state_code": "55",
    "country_id": 75,
    "country_code": "FR",
    "latitude": "49.46169380",
    "longitude": "5.29455350",
    "native": null,
    "timezone": null,
    "translations": {}
  },
  {
    "id": 156731,
    "name": "Kœur-la-Grande",
    "state_id": 5023,
    "state_code": "55",
    "country_id": 75,
    "country_code": "FR",
    "latitude": "48.86481860",
    "longitude": "5.42116640",
    "native": null,
    "timezone": null,
    "translations": {}
  },
  {
    "id": 156732,
    "name": "Kœur-la-Petite",
    "state_id": 5023,
    "state_code": "55",
    "country_id": 75,
    "country_code": "FR",
    "latitude": "48.85336650",
    "longitude": "5.41985460",
    "native": null,
    "timezone": null,
    "translations": {}
  },
  {
    "id": 156733,
    "name": "L'Isle-en-Rigault",
    "state_id": 5023,
    "state_code": "55",
    "country_id": 75,
    "country_code": "FR",
    "latitude": "48.71034120",
    "longitude": "4.98890440",
    "native": null,
    "timezone": null,
    "translations": {}
  },
  {
    "id": 156734,
    "name": "Labeuville",
    "state_id": 5023,
    "state_code": "55",
    "country_id": 75,
    "country_code": "FR",
    "latitude": "49.08808290",
    "longitude": "5.73148930",
    "native": null,
    "timezone": null,
    "translations": {}
  },
  {
    "id": 156735,
    "name": "Lachalade",
    "state_id": 5023,
    "state_code": "55",
    "country_id": 75,
    "country_code": "FR",
    "latitude": "49.17805000",
    "longitude": "4.94442650",
    "native": null,
    "timezone": null,
    "translations": {}
  },
  {
    "id": 156736,
    "name": "Lachaussée",
    "state_id": 5023,
    "state_code": "55",
    "country_id": 75,
    "country_code": "FR",
    "latitude": "49.03218530",
    "longitude": "5.75716150",
    "native": null,
    "timezone": null,
    "translations": {}
  },
  {
    "id": 156737,
    "name": "Lacroix-sur-Meuse",
    "state_id": 5023,
    "state_code": "55",
    "country_id": 75,
    "country_code": "FR",
    "latitude": "48.98457220",
    "longitude": "5.48871750",
    "native": null,
    "timezone": null,
    "translations": {}
  },
  {
    "id": 156738,
    "name": "Lahaymeix",
    "state_id": 5023,
    "state_code": "55",
    "country_id": 75,
    "country_code": "FR",
    "latitude": "48.93384780",
    "longitude": "5.37734030",
    "native": null,
    "timezone": null,
    "translations": {}
  },
  {
    "id": 156739,
    "name": "Lahayville",
    "state_id": 5023,
    "state_code": "55",
    "country_id": 75,
    "country_code": "FR",
    "latitude": "48.89466810",
    "longitude": "5.74852350",
    "native": null,
    "timezone": null,
    "translations": {}
  },
  {
    "id": 156740,
    "name": "Laheycourt",
    "state_id": 5023,
    "state_code": "55",
    "country_id": 75,
    "country_code": "FR",
    "latitude": "48.90099470",
    "longitude": "4.99404560",
    "native": null,
    "timezone": null,
    "translations": {}
  },
  {
    "id": 156741,
    "name": "Laimont",
    "state_id": 5023,
    "state_code": "55",
    "country_id": 75,
    "country_code": "FR",
    "latitude": "48.84216070",
    "longitude": "5.00037490",
    "native": null,
    "timezone": null,
    "translations": {}
  },
  {
    "id": 156742,
    "name": "Lamorville",
    "state_id": 5023,
    "state_code": "55",
    "country_id": 75,
    "country_code": "FR",
    "latitude": "48.96243500",
    "longitude": "5.51747290",
    "native": null,
    "timezone": null,
    "translations": {}
  },
  {
    "id": 156743,
    "name": "Lamouilly",
    "state_id": 5023,
    "state_code": "55",
    "country_id": 75,
    "country_code": "FR",
    "latitude": "49.54799770",
    "longitude": "5.22391800",
    "native": null,
    "timezone": null,
    "translations": {}
  },
  {
    "id": 156744,
    "name": "Landrecourt-Lempire",
    "state_id": 5023,
    "state_code": "55",
    "country_id": 75,
    "country_code": "FR",
    "latitude": "49.09544020",
    "longitude": "5.29041840",
    "native": null,
    "timezone": null,
    "translations": {}
  },
  {
    "id": 156745,
    "name": "Laneuville-au-Rupt",
    "state_id": 5023,
    "state_code": "55",
    "country_id": 75,
    "country_code": "FR",
    "latitude": "48.70712280",
    "longitude": "5.53474740",
    "native": null,
    "timezone": null,
    "translations": {}
  },
  {
    "id": 156746,
    "name": "Laneuville-sur-Meuse",
    "state_id": 5023,
    "state_code": "55",
    "country_id": 75,
    "country_code": "FR",
    "latitude": "49.49595450",
    "longitude": "5.07622270",
    "native": null,
    "timezone": null,
    "translations": {}
  },
  {
    "id": 156747,
    "name": "Lanhères",
    "state_id": 5023,
    "state_code": "55",
    "country_id": 75,
    "country_code": "FR",
    "latitude": "49.21001140",
    "longitude": "5.69107820",
    "native": null,
    "timezone": null,
    "translations": {}
  },
  {
    "id": 156748,
    "name": "Latour-en-Woëvre",
    "state_id": 5023,
    "state_code": "55",
    "country_id": 75,
    "country_code": "FR",
    "latitude": "49.09196160",
    "longitude": "5.78100630",
    "native": null,
    "timezone": null,
    "translations": {}
  },
  {
    "id": 156749,
    "name": "Lavallée",
    "state_id": 5023,
    "state_code": "55",
    "country_id": 75,
    "country_code": "FR",
    "latitude": "48.80668120",
    "longitude": "5.29407120",
    "native": null,
    "timezone": null,
    "translations": {}
  },
  {
    "id": 156750,
    "name": "Lavincourt",
    "state_id": 5023,
    "state_code": "55",
    "country_id": 75,
    "country_code": "FR",
    "latitude": "48.65676000",
    "longitude": "5.12446310",
    "native": null,
    "timezone": null,
    "translations": {}
  },
  {
    "id": 156751,
    "name": "Lavoye",
    "state_id": 5023,
    "state_code": "55",
    "country_id": 75,
    "country_code": "FR",
    "latitude": "49.04927300",
    "longitude": "5.09529430",
    "native": null,
    "timezone": null,
    "translations": {}
  },
  {
    "id": 156752,
    "name": "Le Bouchon-sur-Saulx",
    "state_id": 5023,
    "state_code": "55",
    "country_id": 75,
    "country_code": "FR",
    "latitude": "48.61058000",
    "longitude": "5.20360510",
    "native": null,
    "timezone": null,
    "translations": {}
  },
  {
    "id": 156753,
    "name": "Le Claon",
    "state_id": 5023,
    "state_code": "55",
    "country_id": 75,
    "country_code": "FR",
    "latitude": "49.14518460",
    "longitude": "4.97181320",
    "native": null,
    "timezone": null,
    "translations": {}
  },
  {
    "id": 156764,
    "name": "Le Neufour",
    "state_id": 5023,
    "state_code": "55",
    "country_id": 75,
    "country_code": "FR",
    "latitude": "49.12899740",
    "longitude": "4.97358390",
    "native": null,
    "timezone": null,
    "translations": {}
  },
  {
    "id": 156754,
    "name": "Lemmes",
    "state_id": 5023,
    "state_code": "55",
    "country_id": 75,
    "country_code": "FR",
    "latitude": "49.06958470",
    "longitude": "5.27160930",
    "native": null,
    "timezone": null,
    "translations": {}
  },
  {
    "id": 156756,
    "name": "Les Éparges",
    "state_id": 5023,
    "state_code": "55",
    "country_id": 75,
    "country_code": "FR",
    "latitude": "49.06483370",
    "longitude": "5.56482080",
    "native": null,
    "timezone": null,
    "translations": {}
  },
  {
    "id": 156757,
    "name": "Les Hauts-de-Chée",
    "state_id": 5023,
    "state_code": "55",
    "country_id": 75,
    "country_code": "FR",
    "latitude": "48.87241210",
    "longitude": "5.08857110",
    "native": null,
    "timezone": null,
    "translations": {}
  },
  {
    "id": 156758,
    "name": "Les Islettes",
    "state_id": 5023,
    "state_code": "55",
    "country_id": 75,
    "country_code": "FR",
    "latitude": "49.10976760",
    "longitude": "4.98837530",
    "native": null,
    "timezone": null,
    "translations": {}
  },
  {
    "id": 156765,
    "name": "Les Monthairons",
    "state_id": 5023,
    "state_code": "55",
    "country_id": 75,
    "country_code": "FR",
    "latitude": "49.04510600",
    "longitude": "5.34484380",
    "native": null,
    "timezone": null,
    "translations": {}
  },
  {
    "id": 156766,
    "name": "Les Paroches",
    "state_id": 5023,
    "state_code": "55",
    "country_id": 75,
    "country_code": "FR",
    "latitude": "48.91054240",
    "longitude": "5.44069240",
    "native": null,
    "timezone": null,
    "translations": {}
  },
  {
    "id": 156767,
    "name": "Les Roises",
    "state_id": 5023,
    "state_code": "55",
    "country_id": 75,
    "country_code": "FR",
    "latitude": "48.44983690",
    "longitude": "5.59265890",
    "native": null,
    "timezone": null,
    "translations": {}
  },
  {
    "id": 156768,
    "name": "Les Souhesmes-Rampont",
    "state_id": 5023,
    "state_code": "55",
    "country_id": 75,
    "country_code": "FR",
    "latitude": "49.08737720",
    "longitude": "5.20642280",
    "native": null,
    "timezone": null,
    "translations": {}
  },
  {
    "id": 156769,
    "name": "Les Trois-Domaines",
    "state_id": 5023,
    "state_code": "55",
    "country_id": 75,
    "country_code": "FR",
    "latitude": "48.96837770",
    "longitude": "5.25085440",
    "native": null,
    "timezone": null,
    "translations": {}
  },
  {
    "id": 156759,
    "name": "Levoncourt",
    "state_id": 5023,
    "state_code": "55",
    "country_id": 75,
    "country_code": "FR",
    "latitude": "48.82728170",
    "longitude": "5.31061830",
    "native": null,
    "timezone": null,
    "translations": {}
  },
  {
    "id": 156760,
    "name": "Lignières-sur-Aire",
    "state_id": 5023,
    "state_code": "55",
    "country_id": 75,
    "country_code": "FR",
    "latitude": "48.81250750",
    "longitude": "5.34924760",
    "native": null,
    "timezone": null,
    "translations": {}
  },
  {
    "id": 156762,
    "name": "Liny-devant-Dun",
    "state_id": 5023,
    "state_code": "55",
    "country_id": 75,
    "country_code": "FR",
    "latitude": "49.35314080",
    "longitude": "5.17028470",
    "native": null,
    "timezone": null,
    "translations": {}
  },
  {
    "id": 156763,
    "name": "Lion-devant-Dun",
    "state_id": 5023,
    "state_code": "55",
    "country_id": 75,
    "country_code": "FR",
    "latitude": "49.41638290",
    "longitude": "5.21439040",
    "native": null,
    "timezone": null,
    "translations": {}
  },
  {
    "id": 156770,
    "name": "Lisle-en-Barrois",
    "state_id": 5023,
    "state_code": "55",
    "country_id": 75,
    "country_code": "FR",
    "latitude": "48.92092060",
    "longitude": "4.99907020",
    "native": null,
    "timezone": null,
    "translations": {}
  },
  {
    "id": 156771,
    "name": "Lissey",
    "state_id": 5023,
    "state_code": "55",
    "country_id": 75,
    "country_code": "FR",
    "latitude": "49.38126050",
    "longitude": "5.31856950",
    "native": null,
    "timezone": null,
    "translations": {}
  },
  {
    "id": 156772,
    "name": "Loisey",
    "state_id": 5023,
    "state_code": "55",
    "country_id": 75,
    "country_code": "FR",
    "latitude": "48.77090380",
    "longitude": "5.25876420",
    "native": null,
    "timezone": null,
    "translations": {}
  },
  {
    "id": 156773,
    "name": "Loison",
    "state_id": 5023,
    "state_code": "55",
    "country_id": 75,
    "country_code": "FR",
    "latitude": "49.30455620",
    "longitude": "5.54947980",
    "native": null,
    "timezone": null,
    "translations": {}
  },
  {
    "id": 156774,
    "name": "Longchamps-sur-Aire",
    "state_id": 5023,
    "state_code": "55",
    "country_id": 75,
    "country_code": "FR",
    "latitude": "48.91302260",
    "longitude": "5.26826000",
    "native": null,
    "timezone": null,
    "translations": {}
  },
  {
    "id": 156775,
    "name": "Longeaux",
    "state_id": 5023,
    "state_code": "55",
    "country_id": 75,
    "country_code": "FR",
    "latitude": "48.64047460",
    "longitude": "5.30677090",
    "native": null,
    "timezone": null,
    "translations": {}
  },
  {
    "id": 156777,
    "name": "Loupmont",
    "state_id": 5023,
    "state_code": "55",
    "country_id": 75,
    "country_code": "FR",
    "latitude": "48.86629450",
    "longitude": "5.63696570",
    "native": null,
    "timezone": null,
    "translations": {}
  },
  {
    "id": 156778,
    "name": "Louppy-le-Château",
    "state_id": 5023,
    "state_code": "55",
    "country_id": 75,
    "country_code": "FR",
    "latitude": "48.86677960",
    "longitude": "5.03235960",
    "native": null,
    "timezone": null,
    "translations": {}
  },
  {
    "id": 156779,
    "name": "Louppy-sur-Loison",
    "state_id": 5023,
    "state_code": "55",
    "country_id": 75,
    "country_code": "FR",
    "latitude": "49.43927580",
    "longitude": "5.29751160",
    "native": null,
    "timezone": null,
    "translations": {}
  },
  {
    "id": 156780,
    "name": "Louvemont-Côte-du-Poivre",
    "state_id": 5023,
    "state_code": "55",
    "country_id": 75,
    "country_code": "FR",
    "latitude": "49.23725740",
    "longitude": "5.37891040",
    "native": null,
    "timezone": null,
    "translations": {}
  },
  {
    "id": 156781,
    "name": "Luzy-Saint-Martin",
    "state_id": 5023,
    "state_code": "55",
    "country_id": 75,
    "country_code": "FR",
    "latitude": "49.52924190",
    "longitude": "5.12112750",
    "native": null,
    "timezone": null,
    "translations": {}
  },
  {
    "id": 156782,
    "name": "Maizeray",
    "state_id": 5023,
    "state_code": "55",
    "country_id": 75,
    "country_code": "FR",
    "latitude": "49.10370880",
    "longitude": "5.68021760",
    "native": null,
    "timezone": null,
    "translations": {}
  },
  {
    "id": 156783,
    "name": "Maizey",
    "state_id": 5023,
    "state_code": "55",
    "country_id": 75,
    "country_code": "FR",
    "latitude": "48.92395630",
    "longitude": "5.50049520",
    "native": null,
    "timezone": null,
    "translations": {}
  },
  {
    "id": 156784,
    "name": "Malancourt",
    "state_id": 5023,
    "state_code": "55",
    "country_id": 75,
    "country_code": "FR",
    "latitude": "49.23751010",
    "longitude": "5.13534470",
    "native": null,
    "timezone": null,
    "translations": {}
  },
  {
    "id": 156785,
    "name": "Mandres-en-Barrois",
    "state_id": 5023,
    "state_code": "55",
    "country_id": 75,
    "country_code": "FR",
    "latitude": "48.50282240",
    "longitude": "5.35750910",
    "native": null,
    "timezone": null,
    "translations": {}
  },
  {
    "id": 156786,
    "name": "Mangiennes",
    "state_id": 5023,
    "state_code": "55",
    "country_id": 75,
    "country_code": "FR",
    "latitude": "49.34534300",
    "longitude": "5.49659930",
    "native": null,
    "timezone": null,
    "translations": {}
  },
  {
    "id": 156787,
    "name": "Manheulles",
    "state_id": 5023,
    "state_code": "55",
    "country_id": 75,
    "country_code": "FR",
    "latitude": "49.12287230",
    "longitude": "5.55430970",
    "native": null,
    "timezone": null,
    "translations": {}
  },
  {
    "id": 156788,
    "name": "Marchéville-en-Woëvre",
    "state_id": 5023,
    "state_code": "55",
    "country_id": 75,
    "country_code": "FR",
    "latitude": "49.08947350",
    "longitude": "5.65831990",
    "native": null,
    "timezone": null,
    "translations": {}
  },
  {
    "id": 156789,
    "name": "Marre",
    "state_id": 5023,
    "state_code": "55",
    "country_id": 75,
    "country_code": "FR",
    "latitude": "49.20284350",
    "longitude": "5.25620120",
    "native": null,
    "timezone": null,
    "translations": {}
  },
  {
    "id": 156790,
    "name": "Marson-sur-Barboure",
    "state_id": 5023,
    "state_code": "55",
    "country_id": 75,
    "country_code": "FR",
    "latitude": "48.63354360",
    "longitude": "5.42387600",
    "native": null,
    "timezone": null,
    "translations": {}
  },
  {
    "id": 156791,
    "name": "Martincourt-sur-Meuse",
    "state_id": 5023,
    "state_code": "55",
    "country_id": 75,
    "country_code": "FR",
    "latitude": "49.53480160",
    "longitude": "5.15811550",
    "native": null,
    "timezone": null,
    "translations": {}
  },
  {
    "id": 156792,
    "name": "Marville",
    "state_id": 5023,
    "state_code": "55",
    "country_id": 75,
    "country_code": "FR",
    "latitude": "49.44232400",
    "longitude": "5.39772750",
    "native": null,
    "timezone": null,
    "translations": {}
  },
  {
    "id": 156793,
    "name": "Maucourt-sur-Orne",
    "state_id": 5023,
    "state_code": "55",
    "country_id": 75,
    "country_code": "FR",
    "latitude": "49.25303790",
    "longitude": "5.47233340",
    "native": null,
    "timezone": null,
    "translations": {}
  },
  {
    "id": 156794,
    "name": "Maulan",
    "state_id": 5023,
    "state_code": "55",
    "country_id": 75,
    "country_code": "FR",
    "latitude": "48.66570050",
    "longitude": "5.23911690",
    "native": null,
    "timezone": null,
    "translations": {}
  },
  {
    "id": 156795,
    "name": "Mauvages",
    "state_id": 5023,
    "state_code": "55",
    "country_id": 75,
    "country_code": "FR",
    "latitude": "48.59319760",
    "longitude": "5.50996030",
    "native": null,
    "timezone": null,
    "translations": {}
  },
  {
    "id": 156796,
    "name": "Maxey-sur-Vaise",
    "state_id": 5023,
    "state_code": "55",
    "country_id": 75,
    "country_code": "FR",
    "latitude": "48.53212620",
    "longitude": "5.61641680",
    "native": null,
    "timezone": null,
    "translations": {}
  },
  {
    "id": 156797,
    "name": "Mécrin",
    "state_id": 5023,
    "state_code": "55",
    "country_id": 75,
    "country_code": "FR",
    "latitude": "48.82882580",
    "longitude": "5.52594770",
    "native": null,
    "timezone": null,
    "translations": {}
  },
  {
    "id": 156798,
    "name": "Méligny-le-Grand",
    "state_id": 5023,
    "state_code": "55",
    "country_id": 75,
    "country_code": "FR",
    "latitude": "48.67459780",
    "longitude": "5.45287580",
    "native": null,
    "timezone": null,
    "translations": {}
  },
  {
    "id": 156799,
    "name": "Méligny-le-Petit",
    "state_id": 5023,
    "state_code": "55",
    "country_id": 75,
    "country_code": "FR",
    "latitude": "48.65740500",
    "longitude": "5.44816310",
    "native": null,
    "timezone": null,
    "translations": {}
  },
  {
    "id": 156800,
    "name": "Menaucourt",
    "state_id": 5023,
    "state_code": "55",
    "country_id": 75,
    "country_code": "FR",
    "latitude": "48.65449780",
    "longitude": "5.34115580",
    "native": null,
    "timezone": null,
    "translations": {}
  },
  {
    "id": 156801,
    "name": "Ménil-aux-Bois",
    "state_id": 5023,
    "state_code": "55",
    "country_id": 75,
    "country_code": "FR",
    "latitude": "48.80366090",
    "longitude": "5.42070360",
    "native": null,
    "timezone": null,
    "translations": {}
  },
  {
    "id": 156802,
    "name": "Ménil-la-Horgne",
    "state_id": 5023,
    "state_code": "55",
    "country_id": 75,
    "country_code": "FR",
    "latitude": "48.70352050",
    "longitude": "5.49840410",
    "native": null,
    "timezone": null,
    "translations": {}
  },
  {
    "id": 156803,
    "name": "Ménil-sur-Saulx",
    "state_id": 5023,
    "state_code": "55",
    "country_id": 75,
    "country_code": "FR",
    "latitude": "48.61796640",
    "longitude": "5.16525110",
    "native": null,
    "timezone": null,
    "translations": {}
  },
  {
    "id": 156804,
    "name": "Merles-sur-Loison",
    "state_id": 5023,
    "state_code": "55",
    "country_id": 75,
    "country_code": "FR",
    "latitude": "49.36581570",
    "longitude": "5.43022050",
    "native": null,
    "timezone": null,
    "translations": {}
  },
  {
    "id": 156805,
    "name": "Milly-sur-Bradon",
    "state_id": 5023,
    "state_code": "55",
    "country_id": 75,
    "country_code": "FR",
    "latitude": "49.39910620",
    "longitude": "5.17617910",
    "native": null,
    "timezone": null,
    "translations": {}
  },
  {
    "id": 156806,
    "name": "Mogeville",
    "state_id": 5023,
    "state_code": "55",
    "country_id": 75,
    "country_code": "FR",
    "latitude": "49.24592900",
    "longitude": "5.51960560",
    "native": null,
    "timezone": null,
    "translations": {}
  },
  {
    "id": 156807,
    "name": "Mognéville",
    "state_id": 5023,
    "state_code": "55",
    "country_id": 75,
    "country_code": "FR",
    "latitude": "48.77494590",
    "longitude": "4.94684710",
    "native": null,
    "timezone": null,
    "translations": {}
  },
  {
    "id": 156808,
    "name": "Moirey-Flabas-Crépion",
    "state_id": 5023,
    "state_code": "55",
    "country_id": 75,
    "country_code": "FR",
    "latitude": "49.30128550",
    "longitude": "5.34345680",
    "native": null,
    "timezone": null,
    "translations": {}
  },
  {
    "id": 156809,
    "name": "Mont-devant-Sassey",
    "state_id": 5023,
    "state_code": "55",
    "country_id": 75,
    "country_code": "FR",
    "latitude": "49.41472350",
    "longitude": "5.12242480",
    "native": null,
    "timezone": null,
    "translations": {}
  },
  {
    "id": 156810,
    "name": "Montblainville",
    "state_id": 5023,
    "state_code": "55",
    "country_id": 75,
    "country_code": "FR",
    "latitude": "49.24044610",
    "longitude": "4.94896330",
    "native": null,
    "timezone": null,
    "translations": {}
  },
  {
    "id": 156811,
    "name": "Montbras",
    "state_id": 5023,
    "state_code": "55",
    "country_id": 75,
    "country_code": "FR",
    "latitude": "48.51541550",
    "longitude": "5.67415730",
    "native": null,
    "timezone": null,
    "translations": {}
  },
  {
    "id": 156812,
    "name": "Montfaucon-d'Argonne",
    "state_id": 5023,
    "state_code": "55",
    "country_id": 75,
    "country_code": "FR",
    "latitude": "49.25511670",
    "longitude": "5.09399230",
    "native": null,
    "timezone": null,
    "translations": {}
  },
  {
    "id": 156813,
    "name": "Montiers-sur-Saulx",
    "state_id": 5023,
    "state_code": "55",
    "country_id": 75,
    "country_code": "FR",
    "latitude": "48.54129060",
    "longitude": "5.17808750",
    "native": null,
    "timezone": null,
    "translations": {}
  },
  {
    "id": 156814,
    "name": "Montigny-devant-Sassey",
    "state_id": 5023,
    "state_code": "55",
    "country_id": 75,
    "country_code": "FR",
    "latitude": "49.42721330",
    "longitude": "5.11367380",
    "native": null,
    "timezone": null,
    "translations": {}
  },
  {
    "id": 156815,
    "name": "Montigny-lès-Vaucouleurs",
    "state_id": 5023,
    "state_code": "55",
    "country_id": 75,
    "country_code": "FR",
    "latitude": "48.57842130",
    "longitude": "5.58350230",
    "native": null,
    "timezone": null,
    "translations": {}
  },
  {
    "id": 156817,
    "name": "Montplonne",
    "state_id": 5023,
    "state_code": "55",
    "country_id": 75,
    "country_code": "FR",
    "latitude": "48.69825150",
    "longitude": "5.12465920",
    "native": null,
    "timezone": null,
    "translations": {}
  },
  {
    "id": 156818,
    "name": "Montsec",
    "state_id": 5023,
    "state_code": "55",
    "country_id": 75,
    "country_code": "FR",
    "latitude": "48.89018870",
    "longitude": "5.70477830",
    "native": null,
    "timezone": null,
    "translations": {}
  },
  {
    "id": 156819,
    "name": "Montzéville",
    "state_id": 5023,
    "state_code": "55",
    "country_id": 75,
    "country_code": "FR",
    "latitude": "49.18811860",
    "longitude": "5.17103330",
    "native": null,
    "timezone": null,
    "translations": {}
  },
  {
    "id": 156820,
    "name": "Moranville",
    "state_id": 5023,
    "state_code": "55",
    "country_id": 75,
    "country_code": "FR",
    "latitude": "49.17791340",
    "longitude": "5.52085510",
    "native": null,
    "timezone": null,
    "translations": {}
  },
  {
    "id": 156821,
    "name": "Morgemoulin",
    "state_id": 5023,
    "state_code": "55",
    "country_id": 75,
    "country_code": "FR",
    "latitude": "49.23037680",
    "longitude": "5.52805680",
    "native": null,
    "timezone": null,
    "translations": {}
  },
  {
    "id": 156822,
    "name": "Morley",
    "state_id": 5023,
    "state_code": "55",
    "country_id": 75,
    "country_code": "FR",
    "latitude": "48.57427170",
    "longitude": "5.14208990",
    "native": null,
    "timezone": null,
    "translations": {}
  },
  {
    "id": 156823,
    "name": "Mouilly",
    "state_id": 5023,
    "state_code": "55",
    "country_id": 75,
    "country_code": "FR",
    "latitude": "49.05658510",
    "longitude": "5.49533380",
    "native": null,
    "timezone": null,
    "translations": {}
  },
  {
    "id": 156824,
    "name": "Moulainville",
    "state_id": 5023,
    "state_code": "55",
    "country_id": 75,
    "country_code": "FR",
    "latitude": "49.15871350",
    "longitude": "5.43794770",
    "native": null,
    "timezone": null,
    "translations": {}
  },
  {
    "id": 156825,
    "name": "Moulins-Saint-Hubert",
    "state_id": 5023,
    "state_code": "55",
    "country_id": 75,
    "country_code": "FR",
    "latitude": "49.57729150",
    "longitude": "5.10827700",
    "native": null,
    "timezone": null,
    "translations": {}
  },
  {
    "id": 156826,
    "name": "Moulotte",
    "state_id": 5023,
    "state_code": "55",
    "country_id": 75,
    "country_code": "FR",
    "latitude": "49.10091420",
    "longitude": "5.72986820",
    "native": null,
    "timezone": null,
    "translations": {}
  },
  {
    "id": 156827,
    "name": "Mouzay",
    "state_id": 5023,
    "state_code": "55",
    "country_id": 75,
    "country_code": "FR",
    "latitude": "49.45307520",
    "longitude": "5.20224690",
    "native": null,
    "timezone": null,
    "translations": {}
  },
  {
    "id": 156828,
    "name": "Murvaux",
    "state_id": 5023,
    "state_code": "55",
    "country_id": 75,
    "country_code": "FR",
    "latitude": "49.39733450",
    "longitude": "5.23565530",
    "native": null,
    "timezone": null,
    "translations": {}
  },
  {
    "id": 156829,
    "name": "Muzeray",
    "state_id": 5023,
    "state_code": "55",
    "country_id": 75,
    "country_code": "FR",
    "latitude": "49.33849650",
    "longitude": "5.58153110",
    "native": null,
    "timezone": null,
    "translations": {}
  },
  {
    "id": 156830,
    "name": "Naives-en-Blois",
    "state_id": 5023,
    "state_code": "55",
    "country_id": 75,
    "country_code": "FR",
    "latitude": "48.66652170",
    "longitude": "5.50951110",
    "native": null,
    "timezone": null,
    "translations": {}
  },
  {
    "id": 156831,
    "name": "Naives-Rosières",
    "state_id": 5023,
    "state_code": "55",
    "country_id": 75,
    "country_code": "FR",
    "latitude": "48.80310300",
    "longitude": "5.18959950",
    "native": null,
    "timezone": null,
    "translations": {}
  },
  {
    "id": 156832,
    "name": "Naix-aux-Forges",
    "state_id": 5023,
    "state_code": "55",
    "country_id": 75,
    "country_code": "FR",
    "latitude": "48.63121150",
    "longitude": "5.34977740",
    "native": null,
    "timezone": null,
    "translations": {}
  },
  {
    "id": 156833,
    "name": "Nançois-le-Grand",
    "state_id": 5023,
    "state_code": "55",
    "country_id": 75,
    "country_code": "FR",
    "latitude": "48.71288460",
    "longitude": "5.37208600",
    "native": null,
    "timezone": null,
    "translations": {}
  },
  {
    "id": 156834,
    "name": "Nançois-sur-Ornain",
    "state_id": 5023,
    "state_code": "55",
    "country_id": 75,
    "country_code": "FR",
    "latitude": "48.72201370",
    "longitude": "5.29725970",
    "native": null,
    "timezone": null,
    "translations": {}
  },
  {
    "id": 156835,
    "name": "Nant-le-Grand",
    "state_id": 5023,
    "state_code": "55",
    "country_id": 75,
    "country_code": "FR",
    "latitude": "48.68087330",
    "longitude": "5.19105120",
    "native": null,
    "timezone": null,
    "translations": {}
  },
  {
    "id": 156836,
    "name": "Nant-le-Petit",
    "state_id": 5023,
    "state_code": "55",
    "country_id": 75,
    "country_code": "FR",
    "latitude": "48.65135630",
    "longitude": "5.20701390",
    "native": null,
    "timezone": null,
    "translations": {}
  },
  {
    "id": 156837,
    "name": "Nantillois",
    "state_id": 5023,
    "state_code": "55",
    "country_id": 75,
    "country_code": "FR",
    "latitude": "49.30256190",
    "longitude": "5.11210260",
    "native": null,
    "timezone": null,
    "translations": {}
  },
  {
    "id": 156838,
    "name": "Nantois",
    "state_id": 5023,
    "state_code": "55",
    "country_id": 75,
    "country_code": "FR",
    "latitude": "48.62775160",
    "longitude": "5.32116460",
    "native": null,
    "timezone": null,
    "translations": {}
  },
  {
    "id": 156839,
    "name": "Nepvant",
    "state_id": 5023,
    "state_code": "55",
    "country_id": 75,
    "country_code": "FR",
    "latitude": "49.53639180",
    "longitude": "5.20240100",
    "native": null,
    "timezone": null,
    "translations": {}
  },
  {
    "id": 156840,
    "name": "Nettancourt",
    "state_id": 5023,
    "state_code": "55",
    "country_id": 75,
    "country_code": "FR",
    "latitude": "48.87401090",
    "longitude": "4.89467490",
    "native": null,
    "timezone": null,
    "translations": {}
  },
  {
    "id": 156841,
    "name": "Neuville-en-Verdunois",
    "state_id": 5023,
    "state_code": "55",
    "country_id": 75,
    "country_code": "FR",
    "latitude": "48.94890690",
    "longitude": "5.26469190",
    "native": null,
    "timezone": null,
    "translations": {}
  },
  {
    "id": 156842,
    "name": "Neuville-lès-Vaucouleurs",
    "state_id": 5023,
    "state_code": "55",
    "country_id": 75,
    "country_code": "FR",
    "latitude": "48.57722510",
    "longitude": "5.63663620",
    "native": null,
    "timezone": null,
    "translations": {}
  },
  {
    "id": 156843,
    "name": "Neuville-sur-Ornain",
    "state_id": 5023,
    "state_code": "55",
    "country_id": 75,
    "country_code": "FR",
    "latitude": "48.82352660",
    "longitude": "5.00837360",
    "native": null,
    "timezone": null,
    "translations": {}
  },
  {
    "id": 156844,
    "name": "Neuvilly-en-Argonne",
    "state_id": 5023,
    "state_code": "55",
    "country_id": 75,
    "country_code": "FR",
    "latitude": "49.16129370",
    "longitude": "4.95021200",
    "native": null,
    "timezone": null,
    "translations": {}
  },
  {
    "id": 156845,
    "name": "Nicey-sur-Aire",
    "state_id": 5023,
    "state_code": "55",
    "country_id": 75,
    "country_code": "FR",
    "latitude": "48.89577810",
    "longitude": "5.30867370",
    "native": null,
    "timezone": null,
    "translations": {}
  },
  {
    "id": 156846,
    "name": "Nixéville-Blercourt",
    "state_id": 5023,
    "state_code": "55",
    "country_id": 75,
    "country_code": "FR",
    "latitude": "49.11151800",
    "longitude": "5.17292930",
    "native": null,
    "timezone": null,
    "translations": {}
  },
  {
    "id": 156847,
    "name": "Nonsard-Lamarche",
    "state_id": 5023,
    "state_code": "55",
    "country_id": 75,
    "country_code": "FR",
    "latitude": "48.93664820",
    "longitude": "5.72052730",
    "native": null,
    "timezone": null,
    "translations": {}
  },
  {
    "id": 156848,
    "name": "Nouillonpont",
    "state_id": 5023,
    "state_code": "55",
    "country_id": 75,
    "country_code": "FR",
    "latitude": "49.35709260",
    "longitude": "5.62448760",
    "native": null,
    "timezone": null,
    "translations": {}
  },
  {
    "id": 156849,
    "name": "Noyers-Auzécourt",
    "state_id": 5023,
    "state_code": "55",
    "country_id": 75,
    "country_code": "FR",
    "latitude": "48.88520160",
    "longitude": "4.94208700",
    "native": null,
    "timezone": null,
    "translations": {}
  },
  {
    "id": 156850,
    "name": "Nubécourt",
    "state_id": 5023,
    "state_code": "55",
    "country_id": 75,
    "country_code": "FR",
    "latitude": "49.00615460",
    "longitude": "5.13427310",
    "native": null,
    "timezone": null,
    "translations": {}
  },
  {
    "id": 156851,
    "name": "Olizy-sur-Chiers",
    "state_id": 5023,
    "state_code": "55",
    "country_id": 75,
    "country_code": "FR",
    "latitude": "49.55730540",
    "longitude": "5.18622590",
    "native": null,
    "timezone": null,
    "translations": {}
  },
  {
    "id": 156852,
    "name": "Ornes",
    "state_id": 5023,
    "state_code": "55",
    "country_id": 75,
    "country_code": "FR",
    "latitude": "49.25764690",
    "longitude": "5.44034480",
    "native": null,
    "timezone": null,
    "translations": {}
  },
  {
    "id": 156853,
    "name": "Osches",
    "state_id": 5023,
    "state_code": "55",
    "country_id": 75,
    "country_code": "FR",
    "latitude": "49.04531270",
    "longitude": "5.22975570",
    "native": null,
    "timezone": null,
    "translations": {}
  },
  {
    "id": 156854,
    "name": "Ourches-sur-Meuse",
    "state_id": 5023,
    "state_code": "55",
    "country_id": 75,
    "country_code": "FR",
    "latitude": "48.66715320",
    "longitude": "5.67230760",
    "native": null,
    "timezone": null,
    "translations": {}
  },
  {
    "id": 156855,
    "name": "Pagny-la-Blanche-Côte",
    "state_id": 5023,
    "state_code": "55",
    "country_id": 75,
    "country_code": "FR",
    "latitude": "48.53759320",
    "longitude": "5.69872950",
    "native": null,
    "timezone": null,
    "translations": {}
  },
  {
    "id": 156856,
    "name": "Pagny-sur-Meuse",
    "state_id": 5023,
    "state_code": "55",
    "country_id": 75,
    "country_code": "FR",
    "latitude": "48.69041270",
    "longitude": "5.69074200",
    "native": null,
    "timezone": null,
    "translations": {}
  },
  {
    "id": 156857,
    "name": "Pareid",
    "state_id": 5023,
    "state_code": "55",
    "country_id": 75,
    "country_code": "FR",
    "latitude": "49.12737300",
    "longitude": "5.68667760",
    "native": null,
    "timezone": null,
    "translations": {}
  },
  {
    "id": 156858,
    "name": "Parfondrupt",
    "state_id": 5023,
    "state_code": "55",
    "country_id": 75,
    "country_code": "FR",
    "latitude": "49.14905020",
    "longitude": "5.70298920",
    "native": null,
    "timezone": null,
    "translations": {}
  },
  {
    "id": 156859,
    "name": "Peuvillers",
    "state_id": 5023,
    "state_code": "55",
    "country_id": 75,
    "country_code": "FR",
    "latitude": "49.36784770",
    "longitude": "5.38234520",
    "native": null,
    "timezone": null,
    "translations": {}
  },
  {
    "id": 156860,
    "name": "Pierrefitte-sur-Aire",
    "state_id": 5023,
    "state_code": "55",
    "country_id": 75,
    "country_code": "FR",
    "latitude": "48.90505420",
    "longitude": "5.30423020",
    "native": null,
    "timezone": null,
    "translations": {}
  },
  {
    "id": 156861,
    "name": "Pillon",
    "state_id": 5023,
    "state_code": "55",
    "country_id": 75,
    "country_code": "FR",
    "latitude": "49.37121790",
    "longitude": "5.54355010",
    "native": null,
    "timezone": null,
    "translations": {}
  },
  {
    "id": 156862,
    "name": "Pintheville",
    "state_id": 5023,
    "state_code": "55",
    "country_id": 75,
    "country_code": "FR",
    "latitude": "49.11617870",
    "longitude": "5.64788820",
    "native": null,
    "timezone": null,
    "translations": {}
  },
  {
    "id": 156863,
    "name": "Pont-sur-Meuse",
    "state_id": 5023,
    "state_code": "55",
    "country_id": 75,
    "country_code": "FR",
    "latitude": "48.81097850",
    "longitude": "5.53249380",
    "native": null,
    "timezone": null,
    "translations": {}
  },
  {
    "id": 156864,
    "name": "Pouilly-sur-Meuse",
    "state_id": 5023,
    "state_code": "55",
    "country_id": 75,
    "country_code": "FR",
    "latitude": "49.53871480",
    "longitude": "5.08140300",
    "native": null,
    "timezone": null,
    "translations": {}
  },
  {
    "id": 156865,
    "name": "Pretz-en-Argonne",
    "state_id": 5023,
    "state_code": "55",
    "country_id": 75,
    "country_code": "FR",
    "latitude": "48.95851050",
    "longitude": "5.12465780",
    "native": null,
    "timezone": null,
    "translations": {}
  },
  {
    "id": 156866,
    "name": "Quincy-Landzécourt",
    "state_id": 5023,
    "state_code": "55",
    "country_id": 75,
    "country_code": "FR",
    "latitude": "49.48921610",
    "longitude": "5.25340950",
    "native": null,
    "timezone": null,
    "translations": {}
  },
  {
    "id": 156867,
    "name": "Raival",
    "state_id": 5023,
    "state_code": "55",
    "country_id": 75,
    "country_code": "FR",
    "latitude": "48.88469720",
    "longitude": "5.20796430",
    "native": null,
    "timezone": null,
    "translations": {}
  },
  {
    "id": 156868,
    "name": "Rambluzin-et-Benoite-Vaux",
    "state_id": 5023,
    "state_code": "55",
    "country_id": 75,
    "country_code": "FR",
    "latitude": "48.98645580",
    "longitude": "5.29668640",
    "native": null,
    "timezone": null,
    "translations": {}
  },
  {
    "id": 156869,
    "name": "Rambucourt",
    "state_id": 5023,
    "state_code": "55",
    "country_id": 75,
    "country_code": "FR",
    "latitude": "48.83053820",
    "longitude": "5.71199610",
    "native": null,
    "timezone": null,
    "translations": {}
  },
  {
    "id": 156870,
    "name": "Rancourt-sur-Ornain",
    "state_id": 5023,
    "state_code": "55",
    "country_id": 75,
    "country_code": "FR",
    "latitude": "48.81906730",
    "longitude": "4.89557360",
    "native": null,
    "timezone": null,
    "translations": {}
  },
  {
    "id": 156871,
    "name": "Ranzières",
    "state_id": 5023,
    "state_code": "55",
    "country_id": 75,
    "country_code": "FR",
    "latitude": "49.02437660",
    "longitude": "5.46121670",
    "native": null,
    "timezone": null,
    "translations": {}
  },
  {
    "id": 156872,
    "name": "Rarécourt",
    "state_id": 5023,
    "state_code": "55",
    "country_id": 75,
    "country_code": "FR",
    "latitude": "49.07635530",
    "longitude": "5.04722430",
    "native": null,
    "timezone": null,
    "translations": {}
  },
  {
    "id": 156873,
    "name": "Récicourt",
    "state_id": 5023,
    "state_code": "55",
    "country_id": 75,
    "country_code": "FR",
    "latitude": "49.15422010",
    "longitude": "5.12024930",
    "native": null,
    "timezone": null,
    "translations": {}
  },
  {
    "id": 156874,
    "name": "Récourt-le-Creux",
    "state_id": 5023,
    "state_code": "55",
    "country_id": 75,
    "country_code": "FR",
    "latitude": "48.99777820",
    "longitude": "5.33598140",
    "native": null,
    "timezone": null,
    "translations": {}
  },
  {
    "id": 156875,
    "name": "Reffroy",
    "state_id": 5023,
    "state_code": "55",
    "country_id": 75,
    "country_code": "FR",
    "latitude": "48.62655930",
    "longitude": "5.44900300",
    "native": null,
    "timezone": null,
    "translations": {}
  },
  {
    "id": 156876,
    "name": "Regnéville-sur-Meuse",
    "state_id": 5023,
    "state_code": "55",
    "country_id": 75,
    "country_code": "FR",
    "latitude": "49.25414010",
    "longitude": "5.29522690",
    "native": null,
    "timezone": null,
    "translations": {}
  },
  {
    "id": 156877,
    "name": "Rembercourt-Sommaisne",
    "state_id": 5023,
    "state_code": "55",
    "country_id": 75,
    "country_code": "FR",
    "latitude": "48.92070550",
    "longitude": "5.13996830",
    "native": null,
    "timezone": null,
    "translations": {}
  },
  {
    "id": 156878,
    "name": "Remennecourt",
    "state_id": 5023,
    "state_code": "55",
    "country_id": 75,
    "country_code": "FR",
    "latitude": "48.79904120",
    "longitude": "4.89349600",
    "native": null,
    "timezone": null,
    "translations": {}
  },
  {
    "id": 156879,
    "name": "Remoiville",
    "state_id": 5023,
    "state_code": "55",
    "country_id": 75,
    "country_code": "FR",
    "latitude": "49.43692670",
    "longitude": "5.34035810",
    "native": null,
    "timezone": null,
    "translations": {}
  },
  {
    "id": 156880,
    "name": "Resson",
    "state_id": 5023,
    "state_code": "55",
    "country_id": 75,
    "country_code": "FR",
    "latitude": "48.77247840",
    "longitude": "5.20976770",
    "native": null,
    "timezone": null,
    "translations": {}
  },
  {
    "id": 156882,
    "name": "Réville-aux-Bois",
    "state_id": 5023,
    "state_code": "55",
    "country_id": 75,
    "country_code": "FR",
    "latitude": "49.33783130",
    "longitude": "5.30238870",
    "native": null,
    "timezone": null,
    "translations": {}
  },
  {
    "id": 156883,
    "name": "Riaville",
    "state_id": 5023,
    "state_code": "55",
    "country_id": 75,
    "country_code": "FR",
    "latitude": "49.09599830",
    "longitude": "5.64647140",
    "native": null,
    "timezone": null,
    "translations": {}
  },
  {
    "id": 156884,
    "name": "Ribeaucourt",
    "state_id": 5023,
    "state_code": "55",
    "country_id": 75,
    "country_code": "FR",
    "latitude": "48.54223820",
    "longitude": "5.31379210",
    "native": null,
    "timezone": null,
    "translations": {}
  },
  {
    "id": 156885,
    "name": "Richecourt",
    "state_id": 5023,
    "state_code": "55",
    "country_id": 75,
    "country_code": "FR",
    "latitude": "48.89443880",
    "longitude": "5.73382990",
    "native": null,
    "timezone": null,
    "translations": {}
  },
  {
    "id": 156886,
    "name": "Rigny-la-Salle",
    "state_id": 5023,
    "state_code": "55",
    "country_id": 75,
    "country_code": "FR",
    "latitude": "48.62536020",
    "longitude": "5.67972210",
    "native": null,
    "timezone": null,
    "translations": {}
  },
  {
    "id": 156887,
    "name": "Rigny-Saint-Martin",
    "state_id": 5023,
    "state_code": "55",
    "country_id": 75,
    "country_code": "FR",
    "latitude": "48.61012660",
    "longitude": "5.71068250",
    "native": null,
    "timezone": null,
    "translations": {}
  },
  {
    "id": 156888,
    "name": "Robert-Espagne",
    "state_id": 5023,
    "state_code": "55",
    "country_id": 75,
    "country_code": "FR",
    "latitude": "48.72926730",
    "longitude": "5.00469050",
    "native": null,
    "timezone": null,
    "translations": {}
  },
  {
    "id": 156889,
    "name": "Romagne-sous-les-Côtes",
    "state_id": 5023,
    "state_code": "55",
    "country_id": 75,
    "country_code": "FR",
    "latitude": "49.33024820",
    "longitude": "5.42692970",
    "native": null,
    "timezone": null,
    "translations": {}
  },
  {
    "id": 156890,
    "name": "Romagne-sous-Montfaucon",
    "state_id": 5023,
    "state_code": "55",
    "country_id": 75,
    "country_code": "FR",
    "latitude": "49.32753510",
    "longitude": "5.02688150",
    "native": null,
    "timezone": null,
    "translations": {}
  },
  {
    "id": 156891,
    "name": "Ronvaux",
    "state_id": 5023,
    "state_code": "55",
    "country_id": 75,
    "country_code": "FR",
    "latitude": "49.13147700",
    "longitude": "5.53890910",
    "native": null,
    "timezone": null,
    "translations": {}
  },