[
  {
    "id": 81789,
    "name": "Bongao",
    "state_id": 1293,
    "state_code": "TAW",
    "country_id": 174,
    "country_code": "PH",
    "latitude": "5.09318240",
    "longitude": "119.67366970",
    "native": null,
    "timezone": null,
    "translations": {}
  },
  {
    "id": 83017,
    "name": "Languyan",
    "state_id": 1293,
    "state_code": "TAW",
    "country_id": 174,
    "country_code": "PH",
    "latitude": "5.31145130",
    "longitude": "119.78489910",
    "native": null,
    "timezone": null,
    "translations": {}
  },
  {
    "id": 154838,
    "name": "Mapun",
    "state_id": 1293,
    "state_code": "TAW",
    "country_id": 174,
    "country_code": "PH",
    "latitude": "7.00709880",
    "longitude": "118.39656420",
    "native": null,
    "timezone": null,
    "translations": {}
  },
  {
    "id": 144661,
    "name": "Panglima Sugala",
    "state_id": 1293,
    "state_code": "TAW",
    "country_id": 174,
    "country_code": "PH",
    "latitude": "5.09037590",
    "longitude": "119.86262590",
    "native": null,
    "timezone": null,
    "translations": {}
  },
  {
    "id": 144715,
    "name": "Sapa-Sapa",
    "state_id": 1293,
    "state_code": "TAW",
    "country_id": 174,
    "country_code": "PH",
    "latitude": "5.07907680",
    "longitude": "120.04398620",
    "native": null,
    "timezone": null,
    "translations": {}
  },
  {
    "id": 154839,
    "name": "Sibutu",
    "state_id": 1293,
    "state_code": "TAW",
    "country_id": 174,
    "country_code": "PH",
    "latitude": "4.77833460",
    "longitude": "119.39391690",
    "native": null,
    "timezone": null,
    "translations": {}
  },
  {
    "id": 84805,
    "name": "Simunul",
    "state_id": 1293,
    "state_code": "TAW",
    "country_id": 174,
    "country_code": "PH",
    "latitude": "4.86746250",
    "longitude": "119.74779680",
    "native": null,
    "timezone": null,
    "translations": {}
  },
  {
    "id": 84833,
    "name": "Sitangkai",
    "state_id": 1293,
    "state_code": "TAW",
    "country_id": 174,
    "country_code": "PH",
    "latitude": "4.76052680",
    "longitude": "119.23786430",
    "native": null,
    "timezone": null,
    "translations": {}
  },
  {
    "id": 144725,
    "name": "South Ubian",
    "state_id": 1293,
    "state_code": "TAW",
    "country_id": 174,
    "country_code": "PH",
    "latitude": "5.33296120",
    "longitude": "120.36104470",
    "native": null,
    "timezone": null,
    "translations": {}
  },
  {
    "id": 144741,
    "name": "Tandubas",
    "state_id": 1293,
    "state_code": "TAW",
    "country_id": 174,
    "country_code": "PH",
    "latitude": "5.21943750",
    "longitude": "120.09565630",
    "native": null,
    "timezone": null,
    "translations": {}
  },
  {
    "id": 144759,
    "name": "Turtle Islands",
    "state_id": 1293,
    "state_code": "TAW",
    "country_id": 174,
    "country_code": "PH",
    "latitude": "6.23034090",
    "longitude": "118.00511410",
    "native": null,
    "timezone": null,
    "translations": {}
  }
]