[
  {
    "id": 68179,
    "name": "Alcaraces",
    "state_id": 3472,
    "state_code": "COL",
    "country_id": 142,
    "country_code": "MX",
    "latitude": "19.36433000",
    "longitude": "-103.57676000",
    "native": null,
    "timezone": null,
    "translations": {}
  },
  {
    "id": 68354,
    "name": "Armería",
    "state_id": 3472,
    "state_code": "COL",
    "country_id": 142,
    "country_code": "MX",
    "latitude": "18.95554000",
    "longitude": "-103.98357000",
    "native": null,
    "timezone": null,
    "translations": {}
  },
  {
    "id": 68443,
    "name": "Augusto Gómez Villanueva",
    "state_id": 3472,
    "state_code": "COL",
    "country_id": 142,
    "country_code": "MX",
    "latitude": "19.02154000",
    "longitude": "-104.00156000",
    "native": null,
    "timezone": null,
    "translations": {}
  },
  {
    "id": 68732,
    "name": "Caleras",
    "state_id": 3472,
    "state_code": "COL",
    "country_id": 142,
    "country_code": "MX",
    "latitude": "18.99687000",
    "longitude": "-103.87898000",
    "native": null,
    "timezone": null,
    "translations": {}
  },
  {
    "id": 68768,
    "name": "Camotlán de Miraflores",
    "state_id": 3472,
    "state_code": "COL",
    "country_id": 142,
    "country_code": "MX",
    "latitude": "19.22033000",
    "longitude": "-104.23491000",
    "native": null,
    "timezone": null,
    "translations": {}
  },
  {
    "id": 68933,
    "name": "Cerro de Ortega",
    "state_id": 3472,
    "state_code": "COL",
    "country_id": 142,
    "country_code": "MX",
    "latitude": "18.75080000",
    "longitude": "-103.72155000",
    "native": null,
    "timezone": null,
    "translations": {}
  },
  {
    "id": 69186,
    "name": "Ciudad de Armería",
    "state_id": 3472,
    "state_code": "COL",
    "country_id": 142,
    "country_code": "MX",
    "latitude": "18.93780000",
    "longitude": "-103.96417000",
    "native": null,
    "timezone": null,
    "translations": {}
  },
  {
    "id": 69193,
    "name": "Ciudad de Villa de Álvarez",
    "state_id": 3472,
    "state_code": "COL",
    "country_id": 142,
    "country_code": "MX",
    "latitude": "19.26722000",
    "longitude": "-103.73778000",
    "native": null,
    "timezone": null,
    "translations": {}
  },
  {
    "id": 69247,
    "name": "Cofradía",
    "state_id": 3472,
    "state_code": "COL",
    "country_id": 142,
    "country_code": "MX",
    "latitude": "19.43333000",
    "longitude": "-103.55000000",
    "native": null,
    "timezone": null,
    "translations": {}
  },
  {
    "id": 69248,
    "name": "Cofradía de Juárez",
    "state_id": 3472,
    "state_code": "COL",
    "country_id": 142,
    "country_code": "MX",
    "latitude": "18.96261000",
    "longitude": "-103.95549000",
    "native": null,
    "timezone": null,
    "translations": {}
  },
  {
    "id": 69249,
    "name": "Cofradía de Morelos",
    "state_id": 3472,
    "state_code": "COL",
    "country_id": 142,
    "country_code": "MX",
    "latitude": "18.86785000",
    "longitude": "-103.83668000",
    "native": null,
    "timezone": null,
    "translations": {}
  },
  {
    "id": 69251,
    "name": "Cofradía de Suchitlán",
    "state_id": 3472,
    "state_code": "COL",
    "country_id": 142,
    "country_code": "MX",
    "latitude": "19.40954000",
    "longitude": "-103.70043000",
    "native": null,
    "timezone": null,
    "translations": {}
  },
  {
    "id": 69416,
    "name": "Comala",
    "state_id": 3472,
    "state_code": "COL",
    "country_id": 142,
    "country_code": "MX",
    "latitude": "19.32717000",
    "longitude": "-103.75926000",
    "native": null,
    "timezone": null,
    "translations": {}
  },
  {
    "id": 69477,
    "name": "Coquimatlán",
    "state_id": 3472,
    "state_code": "COL",
    "country_id": 142,
    "country_code": "MX",
    "latitude": "19.20625000",
    "longitude": "-103.80952000",
    "native": null,
    "timezone": null,
    "translations": {}
  },
  {
    "id": 69582,
    "name": "Cuauhtémoc",
    "state_id": 3472,
    "state_code": "COL",
    "country_id": 142,
    "country_code": "MX",
    "latitude": "19.32861000",
    "longitude": "-103.60284000",
    "native": null,
    "timezone": null,
    "translations": {}
  },
  {
    "id": 69653,
    "name": "Cuyutlán",
    "state_id": 3472,
    "state_code": "COL",
    "country_id": 142,
    "country_code": "MX",
    "latitude": "18.91937000",
    "longitude": "-104.06873000",
    "native": null,
    "timezone": null,
    "translations": {}
  },
  {
    "id": 69911,
    "name": "El Colomo",
    "state_id": 3472,
    "state_code": "COL",
    "country_id": 142,
    "country_code": "MX",
    "latitude": "19.06101000",
    "longitude": "-104.25853000",
    "native": null,
    "timezone": null,
    "translations": {}
  },
  {
    "id": 70059,
    "name": "El Naranjo",
    "state_id": 3472,
    "state_code": "COL",
    "country_id": 142,
    "country_code": "MX",
    "latitude": "19.13016000",
    "longitude": "-104.41821000",
    "native": null,
    "timezone": null,
    "translations": {}
  },
  {
    "id": 70233,
    "name": "El Trapiche",
    "state_id": 3472,
    "state_code": "COL",
    "country_id": 142,
    "country_code": "MX",
    "latitude": "19.27787000",
    "longitude": "-103.66090000",
    "native": null,
    "timezone": null,
    "translations": {}
  },
  {
    "id": 70942,
    "name": "Ixtlahuacán",
    "state_id": 3472,
    "state_code": "COL",
    "country_id": 142,
    "country_code": "MX",
    "latitude": "19.00119000",
    "longitude": "-103.73638000",
    "native": null,
    "timezone": null,
    "translations": {}
  },
  {
    "id": 70972,
    "name": "Jalipa",
    "state_id": 3472,
    "state_code": "COL",
    "country_id": 142,
    "country_code": "MX",
    "latitude": "19.12275000",
    "longitude": "-104.26737000",
    "native": null,
    "timezone": null,
    "translations": {}
  },
  {
    "id": 71212,
    "name": "La Central",
    "state_id": 3472,
    "state_code": "COL",
    "country_id": 142,
    "country_code": "MX",
    "latitude": "19.14276000",
    "longitude": "-104.43819000",
    "native": null,
    "timezone": null,
    "translations": {}
  },
  {
    "id": 71862,
    "name": "Los Tepames",
    "state_id": 3472,
    "state_code": "COL",
    "country_id": 142,
    "country_code": "MX",
    "latitude": "19.09389000",
    "longitude": "-103.62250000",
    "native": null,
    "timezone": null,
    "translations": {}
  },
  {
    "id": 71918,
    "name": "Madrid",
    "state_id": 3472,
    "state_code": "COL",
    "country_id": 142,
    "country_code": "MX",
    "latitude": "19.08459000",
    "longitude": "-103.87123000",
    "native": null,
    "timezone": null,
    "translations": {}
  },
  {
    "id": 153374,
    "name": "Manzanillo",
    "state_id": 3472,
    "state_code": "COL",
    "country_id": 142,
    "country_code": "MX",
    "latitude": "19.11360000",
    "longitude": "-104.34600000",
    "native": null,
    "timezone": null,
    "translations": {}
  },
  {
    "id": 72146,
    "name": "Minatitlán",
    "state_id": 3472,
    "state_code": "COL",
    "country_id": 142,
    "country_code": "MX",
    "latitude": "19.36667000",
    "longitude": "-104.06667000",
    "native": null,
    "timezone": null,
    "translations": {}
  },
  {
    "id": 72787,
    "name": "Piscila",
    "state_id": 3472,
    "state_code": "COL",
    "country_id": 142,
    "country_code": "MX",
    "latitude": "19.15889000",
    "longitude": "-103.70105000",
    "native": null,
    "timezone": null,
    "translations": {}
  },
  {
    "id": 72933,
    "name": "Pueblo Juárez (La Magdalena)",
    "state_id": 3472,
    "state_code": "COL",
    "country_id": 142,
    "country_code": "MX",
    "latitude": "19.16722000",
    "longitude": "-103.93111000",
    "native": null,
    "timezone": null,
    "translations": {}
  },
  {
    "id": 73026,
    "name": "Quesería",
    "state_id": 3472,
    "state_code": "COL",
    "country_id": 142,
    "country_code": "MX",
    "latitude": "19.38708000",
    "longitude": "-103.57243000",
    "native": null,
    "timezone": null,
    "translations": {}
  },
  {
    "id": 73130,
    "name": "Rincón de López",
    "state_id": 3472,
    "state_code": "COL",
    "country_id": 142,
    "country_code": "MX",
    "latitude": "19.05308000",
    "longitude": "-103.93241000",
    "native": null,
    "timezone": null,
    "translations": {}
  },
  {
    "id": 75142,
    "name": "Suchitlán",
    "state_id": 3472,
    "state_code": "COL",
    "country_id": 142,
    "country_code": "MX",
    "latitude": "19.37541000",
    "longitude": "-103.71141000",
    "native": null,
    "timezone": null,
    "translations": {}
  },
  {
    "id": 75285,
    "name": "Tecomán",
    "state_id": 3472,
    "state_code": "COL",
    "country_id": 142,
    "country_code": "MX",
    "latitude": "18.89473000",
    "longitude": "-103.87345000",
    "native": null,
    "timezone": null,
    "translations": {}
  },
  {
    "id": 75959,
    "name": "Venustiano Carranza",
    "state_id": 3472,
    "state_code": "COL",
    "country_id": 142,
    "country_code": "MX",
    "latitude": "19.01112000",
    "longitude": "-104.11033000",
    "native": null,
    "timezone": null,
    "translations": {}
  },
  {
    "id": 76285,
    "name": "Zacualpan",
    "state_id": 3472,
    "state_code": "COL",
    "country_id": 142,
    "country_code": "MX",
    "latitude": "19.36318000",
    "longitude": "-103.82433000",
    "native": null,
    "timezone": null,
    "translations": {}
  }
]