[
  {
    "id": 66912,
    "name": "Kocēni",
    "state_id": 4473,
    "state_code": "113",
    "country_id": 120,
    "country_code": "LV",
    "latitude": "57.52057000",
    "longitude": "25.33821000",
    "native": null,
    "timezone": null,
    "translations": {}
  },
  {
    "id": 66927,
    "name": "Mazsalaca",
    "state_id": 4473,
    "state_code": "113",
    "country_id": 120,
    "country_code": "LV",
    "latitude": "57.86329000",
    "longitude": "25.05475000",
    "native": null,
    "timezone": null,
    "translations": {}
  },
  {
    "id": 66931,
    "name": "Mūrmuiža",
    "state_id": 4473,
    "state_code": "113",
    "country_id": 120,
    "country_code": "LV",
    "latitude": "57.47312000",
    "longitude": "25.49174000",
    "native": null,
    "timezone": null,
    "translations": {}
  },
  {
    "id": 66932,
    "name": "Naukšēni",
    "state_id": 4473,
    "state_code": "113",
    "country_id": 120,
    "country_code": "LV",
    "latitude": "57.88349000",
    "longitude": "25.45609000",
    "native": null,
    "timezone": null,
    "translations": {}
  },
  {
    "id": 66954,
    "name": "Rūjiena",
    "state_id": 4473,
    "state_code": "113",
    "country_id": 120,
    "country_code": "LV",
    "latitude": "57.89752000",
    "longitude": "25.33155000",
    "native": null,
    "timezone": null,
    "translations": {}
  },
  {
    "id": 66960,
    "name": "Seda",
    "state_id": 4473,
    "state_code": "113",
    "country_id": 120,
    "country_code": "LV",
    "latitude": "57.65042000",
    "longitude": "25.75089000",
    "native": null,
    "timezone": null,
    "translations": {}
  },
  {
    "id": 66969,
    "name": "Strenči",
    "state_id": 4473,
    "state_code": "113",
    "country_id": 120,
    "country_code": "LV",
    "latitude": "57.62574000",
    "longitude": "25.68535000",
    "native": null,
    "timezone": null,
    "translations": {}
  },
  {
    "id": 66978,
    "name": "Valmiera",
    "state_id": 4473,
    "state_code": "113",
    "country_id": 120,
    "country_code": "LV",
    "latitude": "57.54108000",
    "longitude": "25.42751000",
    "native": null,
    "timezone": null,
    "translations": {}
  }
]