[
  {
    "id": 81345,
    "name": "Baao",
    "state_id": 1287,
    "state_code": "CAS",
    "country_id": 174,
    "country_code": "PH",
    "latitude": "13.48844070",
    "longitude": "123.28093120",
    "native": null,
    "timezone": null,
    "translations": {}
  },
  {
    "id": 81453,
    "name": "Balatan",
    "state_id": 1287,
    "state_code": "CAS",
    "country_id": 174,
    "country_code": "PH",
    "latitude": "13.33921120",
    "longitude": "123.20690530",
    "native": null,
    "timezone": null,
    "translations": {}
  },
  {
    "id": 81625,
    "name": "Bato",
    "state_id": 1287,
    "state_code": "CAS",
    "country_id": 174,
    "country_code": "PH",
    "latitude": "13.31786510",
    "longitude": "123.24565490",
    "native": null,
    "timezone": null,
    "translations": {}
  },
  {
    "id": 81782,
    "name": "Bombon",
    "state_id": 1287,
    "state_code": "CAS",
    "country_id": 174,
    "country_code": "PH",
    "latitude": "13.68750570",
    "longitude": "123.12780930",
    "native": null,
    "timezone": null,
    "translations": {}
  },
  {
    "id": 81854,
    "name": "Buhi",
    "state_id": 1287,
    "state_code": "CAS",
    "country_id": 174,
    "country_code": "PH",
    "latitude": "13.44102260",
    "longitude": "123.44023310",
    "native": null,
    "timezone": null,
    "translations": {}
  },
  {
    "id": 81859,
    "name": "Bula",
    "state_id": 1287,
    "state_code": "CAS",
    "country_id": 174,
    "country_code": "PH",
    "latitude": "13.44577570",
    "longitude": "123.18737580",
    "native": null,
    "timezone": null,
    "translations": {}
  },
  {
    "id": 81985,
    "name": "Cabusao",
    "state_id": 1287,
    "state_code": "CAS",
    "country_id": 174,
    "country_code": "PH",
    "latitude": "13.73286460",
    "longitude": "122.97854970",
    "native": null,
    "timezone": null,
    "translations": {}
  },
  {
    "id": 82009,
    "name": "Calabanga",
    "state_id": 1287,
    "state_code": "CAS",
    "country_id": 174,
    "country_code": "PH",
    "latitude": "13.71380760",
    "longitude": "123.08299360",
    "native": null,
    "timezone": null,
    "translations": {}
  },
  {
    "id": 82080,
    "name": "Camaligan",
    "state_id": 1287,
    "state_code": "CAS",
    "country_id": 174,
    "country_code": "PH",
    "latitude": "13.62463220",
    "longitude": "123.14000110",
    "native": null,
    "timezone": null,
    "translations": {}
  },
  {
    "id": 82100,
    "name": "Canaman",
    "state_id": 1287,
    "state_code": "CAS",
    "country_id": 174,
    "country_code": "PH",
    "latitude": "13.63826980",
    "longitude": "123.13566680",
    "native": null,
    "timezone": null,
    "translations": {}
  },
  {
    "id": 82150,
    "name": "Caramoan",
    "state_id": 1287,
    "state_code": "CAS",
    "country_id": 174,
    "country_code": "PH",
    "latitude": "13.84665320",
    "longitude": "123.68380850",
    "native": null,
    "timezone": null,
    "translations": {}
  },
  {
    "id": 82406,
    "name": "Del Gallego",
    "state_id": 1287,
    "state_code": "CAS",
    "country_id": 174,
    "country_code": "PH",
    "latitude": "13.93817970",
    "longitude": "122.69720080",
    "native": null,
    "timezone": null,
    "translations": {}
  },
  {
    "id": 82553,
    "name": "Gainza",
    "state_id": 1287,
    "state_code": "CAS",
    "country_id": 174,
    "country_code": "PH",
    "latitude": "13.61702120",
    "longitude": "123.15167040",
    "native": null,
    "timezone": null,
    "translations": {}
  },
  {
    "id": 82569,
    "name": "Garchitorena",
    "state_id": 1287,
    "state_code": "CAS",
    "country_id": 174,
    "country_code": "PH",
    "latitude": "13.90033380",
    "longitude": "123.44511350",
    "native": null,
    "timezone": null,
    "translations": {}
  },
  {
    "id": 82604,
    "name": "Goa",
    "state_id": 1287,
    "state_code": "CAS",
    "country_id": 174,
    "country_code": "PH",
    "latitude": "13.76268730",
    "longitude": "123.35465990",
    "native": null,
    "timezone": null,
    "translations": {}
  },
  {
    "id": 82765,
    "name": "Iriga City",
    "state_id": 1287,
    "state_code": "CAS",
    "country_id": 174,
    "country_code": "PH",
    "latitude": "13.44410330",
    "longitude": "123.35144110",
    "native": null,
    "timezone": null,
    "translations": {}
  },
  {
    "id": 82979,
    "name": "Lagonoy",
    "state_id": 1287,
    "state_code": "CAS",
    "country_id": 174,
    "country_code": "PH",
    "latitude": "13.84558010",
    "longitude": "123.36612070",
    "native": null,
    "timezone": null,
    "translations": {}
  },
  {
    "id": 83092,
    "name": "Libmanan",
    "state_id": 1287,
    "state_code": "CAS",
    "country_id": 174,
    "country_code": "PH",
    "latitude": "13.67168970",
    "longitude": "122.78395950",
    "native": null,
    "timezone": null,
    "translations": {}
  },
  {
    "id": 83243,
    "name": "Lupi",
    "state_id": 1287,
    "state_code": "CAS",
    "country_id": 174,
    "country_code": "PH",
    "latitude": "13.84548490",
    "longitude": "122.71314930",
    "native": null,
    "timezone": null,
    "translations": {}
  },
  {
    "id": 83327,
    "name": "Magarao",
    "state_id": 1287,
    "state_code": "CAS",
    "country_id": 174,
    "country_code": "PH",
    "latitude": "13.67533000",
    "longitude": "123.09124550",
    "native": null,
    "timezone": null,
    "translations": {}
  },
  {
    "id": 83672,
    "name": "Milaor",
    "state_id": 1287,
    "state_code": "CAS",
    "country_id": 174,
    "country_code": "PH",
    "latitude": "13.59308600",
    "longitude": "123.08806970",
    "native": null,
    "timezone": null,
    "translations": {}
  },
  {
    "id": 83676,
    "name": "Minalabac",
    "state_id": 1287,
    "state_code": "CAS",
    "country_id": 174,
    "country_code": "PH",
    "latitude": "13.50328640",
    "longitude": "123.11965550",
    "native": null,
    "timezone": null,
    "translations": {}
  },
  {
    "id": 83737,
    "name": "Nabua",
    "state_id": 1287,
    "state_code": "CAS",
    "country_id": 174,
    "country_code": "PH",
    "latitude": "13.39185550",
    "longitude": "123.25767120",
    "native": null,
    "timezone": null,
    "translations": {}
  },
  {
    "id": 83740,
    "name": "Naga",
    "state_id": 1287,
    "state_code": "CAS",
    "country_id": 174,
    "country_code": "PH",
    "latitude": "13.64092560",
    "longitude": "123.10530960",
    "native": null,
    "timezone": null,
    "translations": {}
  },
  {
    "id": 83837,
    "name": "Ocampo",
    "state_id": 1287,
    "state_code": "CAS",
    "country_id": 174,
    "country_code": "PH",
    "latitude": "13.58940820",
    "longitude": "123.30024320",
    "native": null,
    "timezone": null,
    "translations": {}
  },
  {
    "id": 83939,
    "name": "Pamplona",
    "state_id": 1287,
    "state_code": "CAS",
    "country_id": 174,
    "country_code": "PH",
    "latitude": "13.60142380",
    "longitude": "122.98575960",
    "native": null,
    "timezone": null,
    "translations": {}
  },
  {
    "id": 84026,
    "name": "Pasacao",
    "state_id": 1287,
    "state_code": "CAS",
    "country_id": 174,
    "country_code": "PH",
    "latitude": "13.54798050",
    "longitude": "122.82052350",
    "native": null,
    "timezone": null,
    "translations": {}
  },
  {
    "id": 84097,
    "name": "Pili",
    "state_id": 1287,
    "state_code": "CAS",
    "country_id": 174,
    "country_code": "PH",
    "latitude": "13.58573680",
    "longitude": "123.21853240",
    "native": null,
    "timezone": null,
    "translations": {}
  },
  {
    "id": 154481,
    "name": "Presentacion",
    "state_id": 1287,
    "state_code": "CAS",
    "country_id": 174,
    "country_code": "PH",
    "latitude": "13.73653240",
    "longitude": "123.57836540",
    "native": null,
    "timezone": null,
    "translations": {}
  },
  {
    "id": 84320,
    "name": "Ragay",
    "state_id": 1287,
    "state_code": "CAS",
    "country_id": 174,
    "country_code": "PH",
    "latitude": "13.83317230",
    "longitude": "122.57599190",
    "native": null,
    "timezone": null,
    "translations": {}
  },
  {
    "id": 84389,
    "name": "Sagnay",
    "state_id": 1287,
    "state_code": "CAS",
    "country_id": 174,
    "country_code": "PH",
    "latitude": "13.56212750",
    "longitude": "123.43971800",
    "native": null,
    "timezone": null,
    "translations": {}
  },
  {
    "id": 84478,
    "name": "San Fernando",
    "state_id": 1287,
    "state_code": "CAS",
    "country_id": 174,
    "country_code": "PH",
    "latitude": "13.51891000",
    "longitude": "123.08983220",
    "native": null,
    "timezone": null,
    "translations": {}
  },
  {
    "id": 84517,
    "name": "San Jose",
    "state_id": 1287,
    "state_code": "CAS",
    "country_id": 174,
    "country_code": "PH",
    "latitude": "13.60013200",
    "longitude": "123.24013290",
    "native": null,
    "timezone": null,
    "translations": {}
  },
  {
    "id": 84826,
    "name": "Sipocot",
    "state_id": 1287,
    "state_code": "CAS",
    "country_id": 174,
    "country_code": "PH",
    "latitude": "13.80261240",
    "longitude": "122.78627700",
    "native": null,
    "timezone": null,
    "translations": {}
  },
  {
    "id": 84830,
    "name": "Siruma",
    "state_id": 1287,
    "state_code": "CAS",
    "country_id": 174,
    "country_code": "PH",
    "latitude": "14.03281110",
    "longitude": "123.20806090",
    "native": null,
    "timezone": null,
    "translations": {}
  },
  {
    "id": 85102,
    "name": "Tigaon",
    "state_id": 1287,
    "state_code": "CAS",
    "country_id": 174,
    "country_code": "PH",
    "latitude": "13.62027780",
    "longitude": "123.37474420",
    "native": null,
    "timezone": null,
    "translations": {}
  },
  {
    "id": 85128,
    "name": "Tinambac",
    "state_id": 1287,
    "state_code": "CAS",
    "country_id": 174,
    "country_code": "PH",
    "latitude": "13.86395910",
    "longitude": "123.18830790",
    "native": null,
    "timezone": null,
    "translations": {}
  }
]