[
  {
    "id": 23465,
    "name": "Abbesbüttel",
    "state_id": 3008,
    "state_code": "NI",
    "country_id": 82,
    "country_code": "DE",
    "latitude": "52.35233000",
    "longitude": "10.55649000",
    "native": null,
    "timezone": null,
    "translations": {}
  },
  {
    "id": 23473,
    "name": "Achim",
    "state_id": 3008,
    "state_code": "NI",
    "country_id": 82,
    "country_code": "DE",
    "latitude": "53.01416000",
    "longitude": "9.02630000",
    "native": null,
    "timezone": null,
    "translations": {}
  },
  {
    "id": 23478,
    "name": "Adelebsen",
    "state_id": 3008,
    "state_code": "NI",
    "country_id": 82,
    "country_code": "DE",
    "latitude": "51.58272000",
    "longitude": "9.75461000",
    "native": null,
    "timezone": null,
    "translations": {}
  },
  {
    "id": 23479,
    "name": "Adelheidsdorf",
    "state_id": 3008,
    "state_code": "NI",
    "country_id": 82,
    "country_code": "DE",
    "latitude": "52.56404000",
    "longitude": "10.06039000",
    "native": null,
    "timezone": null,
    "translations": {}
  },
  {
    "id": 23487,
    "name": "Adenbüttel",
    "state_id": 3008,
    "state_code": "NI",
    "country_id": 82,
    "country_code": "DE",
    "latitude": "52.37984000",
    "longitude": "10.45079000",
    "native": null,
    "timezone": null,
    "translations": {}
  },
  {
    "id": 23488,
    "name": "Adendorf",
    "state_id": 3008,
    "state_code": "NI",
    "country_id": 82,
    "country_code": "DE",
    "latitude": "53.28189000",
    "longitude": "10.43787000",
    "native": null,
    "timezone": null,
    "translations": {}
  },
  {
    "id": 23489,
    "name": "Adenstedt",
    "state_id": 3008,
    "state_code": "NI",
    "country_id": 82,
    "country_code": "DE",
    "latitude": "51.99852000",
    "longitude": "9.93516000",
    "native": null,
    "timezone": null,
    "translations": {}
  },
  {
    "id": 23494,
    "name": "Aerzen",
    "state_id": 3008,
    "state_code": "NI",
    "country_id": 82,
    "country_code": "DE",
    "latitude": "52.04953000",
    "longitude": "9.25856000",
    "native": null,
    "timezone": null,
    "translations": {}
  },
  {
    "id": 23497,
    "name": "Agathenburg",
    "state_id": 3008,
    "state_code": "NI",
    "country_id": 82,
    "country_code": "DE",
    "latitude": "53.56065000",
    "longitude": "9.53180000",
    "native": null,
    "timezone": null,
    "translations": {}
  },
  {
    "id": 23501,
    "name": "Ahausen",
    "state_id": 3008,
    "state_code": "NI",
    "country_id": 82,
    "country_code": "DE",
    "latitude": "53.06667000",
    "longitude": "9.31667000",
    "native": null,
    "timezone": null,
    "translations": {}
  },
  {
    "id": 23503,
    "name": "Ahlden",
    "state_id": 3008,
    "state_code": "NI",
    "country_id": 82,
    "country_code": "DE",
    "latitude": "52.75968000",
    "longitude": "9.55115000",
    "native": null,
    "timezone": null,
    "translations": {}
  },
  {
    "id": 23505,
    "name": "Ahlerstedt",
    "state_id": 3008,
    "state_code": "NI",
    "country_id": 82,
    "country_code": "DE",
    "latitude": "53.40000000",
    "longitude": "9.45000000",
    "native": null,
    "timezone": null,
    "translations": {}
  },
  {
    "id": 23507,
    "name": "Ahnsbeck",
    "state_id": 3008,
    "state_code": "NI",
    "country_id": 82,
    "country_code": "DE",
    "latitude": "52.61071000",
    "longitude": "10.28534000",
    "native": null,
    "timezone": null,
    "translations": {}
  },
  {
    "id": 23508,
    "name": "Ahnsen",
    "state_id": 3008,
    "state_code": "NI",
    "country_id": 82,
    "country_code": "DE",
    "latitude": "52.25466000",
    "longitude": "9.10089000",
    "native": null,
    "timezone": null,
    "translations": {}
  },
  {
    "id": 23515,
    "name": "Ahsen-Oetzen",
    "state_id": 3008,
    "state_code": "NI",
    "country_id": 82,
    "country_code": "DE",
    "latitude": "52.95868000",
    "longitude": "9.07933000",
    "native": null,
    "timezone": null,
    "translations": {}
  },
  {
    "id": 23549,
    "name": "Alfeld",
    "state_id": 3008,
    "state_code": "NI",
    "country_id": 82,
    "country_code": "DE",
    "latitude": "51.98382000",
    "longitude": "9.81989000",
    "native": null,
    "timezone": null,
    "translations": {}
  },
  {
    "id": 23551,
    "name": "Alfhausen",
    "state_id": 3008,
    "state_code": "NI",
    "country_id": 82,
    "country_code": "DE",
    "latitude": "52.50000000",
    "longitude": "7.95000000",
    "native": null,
    "timezone": null,
    "translations": {}
  },
  {
    "id": 23553,
    "name": "Algermissen",
    "state_id": 3008,
    "state_code": "NI",
    "country_id": 82,
    "country_code": "DE",
    "latitude": "52.25332000",
    "longitude": "9.96915000",
    "native": null,
    "timezone": null,
    "translations": {}
  },
  {
    "id": 23578,
    "name": "Alt Wallmoden",
    "state_id": 3008,
    "state_code": "NI",
    "country_id": 82,
    "country_code": "DE",
    "latitude": "52.01933000",
    "longitude": "10.30294000",
    "native": null,
    "timezone": null,
    "translations": {}
  },
  {
    "id": 23591,
    "name": "Altenau",
    "state_id": 3008,
    "state_code": "NI",
    "country_id": 82,
    "country_code": "DE",
    "latitude": "51.80113000",
    "longitude": "10.44148000",
    "native": null,
    "timezone": null,
    "translations": {}
  },
  {
    "id": 23609,
    "name": "Altenmedingen",
    "state_id": 3008,
    "state_code": "NI",
    "country_id": 82,
    "country_code": "DE",
    "latitude": "53.13050000",
    "longitude": "10.60163000",
    "native": null,
    "timezone": null,
    "translations": {}
  },
  {
    "id": 23644,
    "name": "Amelinghausen",
    "state_id": 3008,
    "state_code": "NI",
    "country_id": 82,
    "country_code": "DE",
    "latitude": "53.12397000",
    "longitude": "10.21274000",
    "native": null,
    "timezone": null,
    "translations": {}
  },
  {
    "id": 23660,
    "name": "Ankum",
    "state_id": 3008,
    "state_code": "NI",
    "country_id": 82,
    "country_code": "DE",
    "latitude": "52.55000000",
    "longitude": "7.88333000",
    "native": null,
    "timezone": null,
    "translations": {}
  },
  {
    "id": 23669,
    "name": "Apelern",
    "state_id": 3008,
    "state_code": "NI",
    "country_id": 82,
    "country_code": "DE",
    "latitude": "52.28979000",
    "longitude": "9.33580000",
    "native": null,
    "timezone": null,
    "translations": {}
  },
  {
    "id": 23670,
    "name": "Apen",
    "state_id": 3008,
    "state_code": "NI",
    "country_id": 82,
    "country_code": "DE",
    "latitude": "53.21667000",
    "longitude": "7.80000000",
    "native": null,
    "timezone": null,
    "translations": {}
  },
  {
    "id": 23671,
    "name": "Apensen",
    "state_id": 3008,
    "state_code": "NI",
    "country_id": 82,
    "country_code": "DE",
    "latitude": "53.43333000",
    "longitude": "9.61667000",
    "native": null,
    "timezone": null,
    "translations": {}
  },
  {
    "id": 23676,
    "name": "Appel",
    "state_id": 3008,
    "state_code": "NI",
    "country_id": 82,
    "country_code": "DE",
    "latitude": "53.39060000",
    "longitude": "9.74565000",
    "native": null,
    "timezone": null,
    "translations": {}
  },
  {
    "id": 23691,
    "name": "Arpke",
    "state_id": 3008,
    "state_code": "NI",
    "country_id": 82,
    "country_code": "DE",
    "latitude": "52.38597000",
    "longitude": "10.10047000",
    "native": null,
    "timezone": null,
    "translations": {}
  },
  {
    "id": 23694,
    "name": "Artlenburg",
    "state_id": 3008,
    "state_code": "NI",
    "country_id": 82,
    "country_code": "DE",
    "latitude": "53.37182000",
    "longitude": "10.48793000",
    "native": null,
    "timezone": null,
    "translations": {}
  },
  {
    "id": 23709,
    "name": "Asendorf",
    "state_id": 3008,
    "state_code": "NI",
    "country_id": 82,
    "country_code": "DE",
    "latitude": "52.77219000",
    "longitude": "9.00489000",
    "native": null,
    "timezone": null,
    "translations": {}
  },
  {
    "id": 23727,
    "name": "Auf der Horst",
    "state_id": 3008,
    "state_code": "NI",
    "country_id": 82,
    "country_code": "DE",
    "latitude": "52.41943000",
    "longitude": "9.60248000",
    "native": null,
    "timezone": null,
    "translations": {}
  },
  {
    "id": 23734,
    "name": "Auhagen",
    "state_id": 3008,
    "state_code": "NI",
    "country_id": 82,
    "country_code": "DE",
    "latitude": "52.39828000",
    "longitude": "9.29194000",
    "native": null,
    "timezone": null,
    "translations": {}
  },
  {
    "id": 23741,
    "name": "Aurich",
    "state_id": 3008,
    "state_code": "NI",
    "country_id": 82,
    "country_code": "DE",
    "latitude": "53.46919000",
    "longitude": "7.48232000",
    "native": null,
    "timezone": null,
    "translations": {}
  },
  {
    "id": 23744,
    "name": "Axstedt",
    "state_id": 3008,
    "state_code": "NI",
    "country_id": 82,
    "country_code": "DE",
    "latitude": "53.35466000",
    "longitude": "8.77485000",
    "native": null,
    "timezone": null,
    "translations": {}
  },
  {
    "id": 23765,
    "name": "Bad Bentheim",
    "state_id": 3008,
    "state_code": "NI",
    "country_id": 82,
    "country_code": "DE",
    "latitude": "52.30066000",
    "longitude": "7.15763000",
    "native": null,
    "timezone": null,
    "translations": {}
  },
  {
    "id": 23770,
    "name": "Bad Bevensen",
    "state_id": 3008,
    "state_code": "NI",
    "country_id": 82,
    "country_code": "DE",
    "latitude": "53.07923000",
    "longitude": "10.58129000",
    "native": null,
    "timezone": null,
    "translations": {}
  },
  {
    "id": 23788,
    "name": "Bad Eilsen",
    "state_id": 3008,
    "state_code": "NI",
    "country_id": 82,
    "country_code": "DE",
    "latitude": "52.24215000",
    "longitude": "9.09822000",
    "native": null,
    "timezone": null,
    "translations": {}
  },
  {
    "id": 23793,
    "name": "Bad Essen",
    "state_id": 3008,
    "state_code": "NI",
    "country_id": 82,
    "country_code": "DE",
    "latitude": "52.31667000",
    "longitude": "8.33333000",
    "native": null,
    "timezone": null,
    "translations": {}
  },
  {
    "id": 23794,
    "name": "Bad Fallingbostel",
    "state_id": 3008,
    "state_code": "NI",
    "country_id": 82,
    "country_code": "DE",
    "latitude": "52.86641000",
    "longitude": "9.69558000",
    "native": null,
    "timezone": null,
    "translations": {}
  },
  {
    "id": 23800,
    "name": "Bad Gandersheim",
    "state_id": 3008,
    "state_code": "NI",
    "country_id": 82,
    "country_code": "DE",
    "latitude": "51.87167000",
    "longitude": "10.02537000",
    "native": null,
    "timezone": null,
    "translations": {}
  },
  {
    "id": 23802,
    "name": "Bad Grund",
    "state_id": 3008,
    "state_code": "NI",
    "country_id": 82,
    "country_code": "DE",
    "latitude": "51.81021000",
    "longitude": "10.23694000",
    "native": null,
    "timezone": null,
    "translations": {}
  },
  {
    "id": 23803,
    "name": "Bad Harzburg",
    "state_id": 3008,
    "state_code": "NI",
    "country_id": 82,
    "country_code": "DE",
    "latitude": "51.88268000",
    "longitude": "10.56157000",
    "native": null,
    "timezone": null,
    "translations": {}
  },
  {
    "id": 23811,
    "name": "Bad Iburg",
    "state_id": 3008,
    "state_code": "NI",
    "country_id": 82,
    "country_code": "DE",
    "latitude": "52.15490000",
    "longitude": "8.04216000",
    "native": null,
    "timezone": null,
    "translations": {}
  },
  {
    "id": 23823,
    "name": "Bad Laer",
    "state_id": 3008,
    "state_code": "NI",
    "country_id": 82,
    "country_code": "DE",
    "latitude": "52.10000000",
    "longitude": "8.08333000",
    "native": null,
    "timezone": null,
    "translations": {}
  },
  {
    "id": 23827,
    "name": "Bad Lauterberg im Harz",
    "state_id": 3008,
    "state_code": "NI",
    "country_id": 82,
    "country_code": "DE",
    "latitude": "51.63272000",
    "longitude": "10.47031000",
    "native": null,
    "timezone": null,
    "translations": {}
  },
  {
    "id": 23837,
    "name": "Bad Münder am Deister",
    "state_id": 3008,
    "state_code": "NI",
    "country_id": 82,
    "country_code": "DE",
    "latitude": "52.19551000",
    "longitude": "9.46421000",
    "native": null,
    "timezone": null,
    "translations": {}
  },
  {
    "id": 23841,
    "name": "Bad Nenndorf",
    "state_id": 3008,
    "state_code": "NI",
    "country_id": 82,
    "country_code": "DE",
    "latitude": "52.33703000",
    "longitude": "9.37904000",
    "native": null,
    "timezone": null,
    "translations": {}
  },
  {
    "id": 23848,
    "name": "Bad Pyrmont",
    "state_id": 3008,
    "state_code": "NI",
    "country_id": 82,
    "country_code": "DE",
    "latitude": "51.98589000",
    "longitude": "9.25246000",
    "native": null,
    "timezone": null,
    "translations": {}
  },
  {
    "id": 23852,
    "name": "Bad Rothenfelde",
    "state_id": 3008,
    "state_code": "NI",
    "country_id": 82,
    "country_code": "DE",
    "latitude": "52.11667000",
    "longitude": "8.16667000",
    "native": null,
    "timezone": null,
    "translations": {}
  },
  {
    "id": 23854,
    "name": "Bad Sachsa",
    "state_id": 3008,
    "state_code": "NI",
    "country_id": 82,
    "country_code": "DE",
    "latitude": "51.59499000",
    "longitude": "10.55546000",
    "native": null,
    "timezone": null,
    "translations": {}
  },
  {
    "id": 23855,
    "name": "Bad Salzdetfurth",
    "state_id": 3008,
    "state_code": "NI",
    "country_id": 82,
    "country_code": "DE",
    "latitude": "52.05777000",
    "longitude": "10.00580000",
    "native": null,
    "timezone": null,
    "translations": {}
  },
  {
    "id": 23890,
    "name": "Bad Zwischenahn",
    "state_id": 3008,
    "state_code": "NI",
    "country_id": 82,
    "country_code": "DE",
    "latitude": "53.18333000",
    "longitude": "8.00000000",
    "native": null,
    "timezone": null,
    "translations": {}
  },
  {
    "id": 23892,
    "name": "Badbergen",
    "state_id": 3008,
    "state_code": "NI",
    "country_id": 82,
    "country_code": "DE",
    "latitude": "52.63333000",
    "longitude": "7.98333000",
    "native": null,
    "timezone": null,
    "translations": {}
  },
  {
    "id": 23893,
    "name": "Baddeckenstedt",
    "state_id": 3008,
    "state_code": "NI",
    "country_id": 82,
    "country_code": "DE",
    "latitude": "52.08333000",
    "longitude": "10.23333000",
    "native": null,
    "timezone": null,
    "translations": {}
  },
  {
    "id": 23896,
    "name": "Badenhausen",
    "state_id": 3008,
    "state_code": "NI",
    "country_id": 82,
    "country_code": "DE",
    "latitude": "51.76996000",
    "longitude": "10.20493000",
    "native": null,
    "timezone": null,
    "translations": {}
  },
  {
    "id": 23900,
    "name": "Bahrdorf",
    "state_id": 3008,
    "state_code": "NI",
    "country_id": 82,
    "country_code": "DE",
    "latitude": "52.38587000",
    "longitude": "11.00040000",
    "native": null,
    "timezone": null,
    "translations": {}
  },
  {
    "id": 23901,
    "name": "Bahrenborstel",
    "state_id": 3008,
    "state_code": "NI",
    "country_id": 82,
    "country_code": "DE",
    "latitude": "52.57009000",
    "longitude": "8.80863000",
    "native": null,
    "timezone": null,
    "translations": {}
  },
  {
    "id": 23908,
    "name": "Bakum",
    "state_id": 3008,
    "state_code": "NI",
    "country_id": 82,
    "country_code": "DE",
    "latitude": "52.74118000",
    "longitude": "8.19546000",
    "native": null,
    "timezone": null,
    "translations": {}
  },
  {
    "id": 23909,
    "name": "Balge",
    "state_id": 3008,
    "state_code": "NI",
    "country_id": 82,
    "country_code": "DE",
    "latitude": "52.71667000",
    "longitude": "9.16667000",
    "native": null,
    "timezone": null,
    "translations": {}
  },
  {
    "id": 23911,
    "name": "Balje",
    "state_id": 3008,
    "state_code": "NI",
    "country_id": 82,
    "country_code": "DE",
    "latitude": "53.83333000",
    "longitude": "9.13333000",
    "native": null,
    "timezone": null,
    "translations": {}
  },
  {
    "id": 23922,
    "name": "Banteln",
    "state_id": 3008,
    "state_code": "NI",
    "country_id": 82,
    "country_code": "DE",
    "latitude": "52.06667000",
    "longitude": "9.75000000",
    "native": null,
    "timezone": null,
    "translations": {}
  },
  {
    "id": 23927,
    "name": "Bardowick",
    "state_id": 3008,
    "state_code": "NI",
    "country_id": 82,
    "country_code": "DE",
    "latitude": "53.29354000",
    "longitude": "10.38811000",
    "native": null,
    "timezone": null,
    "translations": {}
  },
  {
    "id": 23928,
    "name": "Barenburg",
    "state_id": 3008,
    "state_code": "NI",
    "country_id": 82,
    "country_code": "DE",
    "latitude": "52.61953000",
    "longitude": "8.79999000",
    "native": null,
    "timezone": null,
    "translations": {}
  },
  {
    "id": 23929,
    "name": "Barendorf",
    "state_id": 3008,
    "state_code": "NI",
    "country_id": 82,
    "country_code": "DE",
    "latitude": "53.22896000",
    "longitude": "10.52158000",
    "native": null,
    "timezone": null,
    "translations": {}
  },
  {
    "id": 23931,
    "name": "Bargstedt",
    "state_id": 3008,
    "state_code": "NI",
    "country_id": 82,
    "country_code": "DE",
    "latitude": "53.46667000",
    "longitude": "9.45000000",
    "native": null,
    "timezone": null,
    "translations": {}
  },
  {
    "id": 23938,
    "name": "Barnstorf",
    "state_id": 3008,
    "state_code": "NI",
    "country_id": 82,
    "country_code": "DE",
    "latitude": "52.71009000",
    "longitude": "8.50256000",
    "native": null,
    "timezone": null,
    "translations": {}
  },
  {
    "id": 23942,
    "name": "Barsinghausen",
    "state_id": 3008,
    "state_code": "NI",
    "country_id": 82,
    "country_code": "DE",
    "latitude": "52.30000000",
    "longitude": "9.45000000",
    "native": null,
    "timezone": null,
    "translations": {}
  },
  {
    "id": 23950,
    "name": "Barßel",
    "state_id": 3008,
    "state_code": "NI",
    "country_id": 82,
    "country_code": "DE",
    "latitude": "53.16981000",
    "longitude": "7.75012000",
    "native": null,
    "timezone": null,
    "translations": {}
  },
  {
    "id": 23946,
    "name": "Barum",
    "state_id": 3008,
    "state_code": "NI",
    "country_id": 82,
    "country_code": "DE",
    "latitude": "53.35000000",
    "longitude": "10.40000000",
    "native": null,
    "timezone": null,
    "translations": {}
  },
  {
    "id": 23948,
    "name": "Barver",
    "state_id": 3008,
    "state_code": "NI",
    "country_id": 82,
    "country_code": "DE",
    "latitude": "52.62066000",
    "longitude": "8.59251000",
    "native": null,
    "timezone": null,
    "translations": {}
  },
  {
    "id": 23949,
    "name": "Barwedel",
    "state_id": 3008,
    "state_code": "NI",
    "country_id": 82,
    "country_code": "DE",
    "latitude": "52.52192000",
    "longitude": "10.77488000",
    "native": null,
    "timezone": null,
    "translations": {}
  },
  {
    "id": 23951,
    "name": "Basdahl",
    "state_id": 3008,
    "state_code": "NI",
    "country_id": 82,
    "country_code": "DE",
    "latitude": "53.44502000",
    "longitude": "9.00025000",
    "native": null,
    "timezone": null,
    "translations": {}
  },
  {
    "id": 23953,
    "name": "Bassum",
    "state_id": 3008,
    "state_code": "NI",
    "country_id": 82,
    "country_code": "DE",
    "latitude": "52.85059000",
    "longitude": "8.72791000",
    "native": null,
    "timezone": null,
    "translations": {}
  },
  {
    "id": 23964,
    "name": "Bawinkel",
    "state_id": 3008,
    "state_code": "NI",
    "country_id": 82,
    "country_code": "DE",
    "latitude": "52.60000000",
    "longitude": "7.40000000",
    "native": null,
    "timezone": null,
    "translations": {}
  },
  {
    "id": 23976,
    "name": "Beckdorf",
    "state_id": 3008,
    "state_code": "NI",
    "country_id": 82,
    "country_code": "DE",
    "latitude": "53.41667000",
    "longitude": "9.61667000",
    "native": null,
    "timezone": null,
    "translations": {}
  },
  {
    "id": 23977,
    "name": "Beckedorf",
    "state_id": 3008,
    "state_code": "NI",
    "country_id": 82,
    "country_code": "DE",
    "latitude": "52.35000000",
    "longitude": "9.31667000",
    "native": null,
    "timezone": null,
    "translations": {}
  },
  {
    "id": 23981,
    "name": "Beedenbostel",
    "state_id": 3008,
    "state_code": "NI",
    "country_id": 82,
    "country_code": "DE",
    "latitude": "52.64288000",
    "longitude": "10.25907000",
    "native": null,
    "timezone": null,
    "translations": {}
  },
  {
    "id": 23988,
    "name": "Beesten",
    "state_id": 3008,
    "state_code": "NI",
    "country_id": 82,
    "country_code": "DE",
    "latitude": "52.43333000",
    "longitude": "7.50000000",
    "native": null,
    "timezone": null,
    "translations": {}
  },
  {
    "id": 23991,
    "name": "Bei der Höhne",
    "state_id": 3008,
    "state_code": "NI",
    "country_id": 82,
    "country_code": "DE",
    "latitude": "53.51351000",
    "longitude": "9.11191000",
    "native": null,
    "timezone": null,
    "translations": {}
  },
  {
    "id": 24004,
    "name": "Belm",
    "state_id": 3008,
    "state_code": "NI",
    "country_id": 82,
    "country_code": "DE",
    "latitude": "52.30000000",
    "longitude": "8.13333000",
    "native": null,
    "timezone": null,
    "translations": {}
  },
  {
    "id": 24007,
    "name": "Bendestorf",
    "state_id": 3008,
    "state_code": "NI",
    "country_id": 82,
    "country_code": "DE",
    "latitude": "53.33583000",
    "longitude": "9.96154000",
    "native": null,
    "timezone": null,
    "translations": {}
  },
  {
    "id": 24031,
    "name": "Berge",
    "state_id": 3008,
    "state_code": "NI",
    "country_id": 82,
    "country_code": "DE",
    "latitude": "52.62326000",
    "longitude": "7.74550000",
    "native": null,
    "timezone": null,
    "translations": {}
  },
  {
    "id": 24033,
    "name": "Bergen",
    "state_id": 3008,
    "state_code": "NI",
    "country_id": 82,
    "country_code": "DE",
    "latitude": "52.80837000",
    "longitude": "9.96374000",
    "native": null,
    "timezone": null,
    "translations": {}
  },
  {
    "id": 24036,
    "name": "Bergen an der Dumme",
    "state_id": 3008,
    "state_code": "NI",
    "country_id": 82,
    "country_code": "DE",
    "latitude": "52.89109000",
    "longitude": "10.95629000",
    "native": null,
    "timezone": null,
    "translations": {}
  },
  {
    "id": 24073,
    "name": "Bersenbrück",
    "state_id": 3008,
    "state_code": "NI",
    "country_id": 82,
    "country_code": "DE",
    "latitude": "52.55160000",
    "longitude": "7.94836000",
    "native": null,
    "timezone": null,
    "translations": {}
  },
  {
    "id": 24077,
    "name": "Berumbur",
    "state_id": 3008,
    "state_code": "NI",
    "country_id": 82,
    "country_code": "DE",
    "latitude": "53.60000000",
    "longitude": "7.31667000",
    "native": null,
    "timezone": null,
    "translations": {}
  },
  {
    "id": 24081,
    "name": "Betheln",
    "state_id": 3008,
    "state_code": "NI",
    "country_id": 82,
    "country_code": "DE",
    "latitude": "52.11431000",
    "longitude": "9.79397000",
    "native": null,
    "timezone": null,
    "translations": {}
  },
  {
    "id": 24084,
    "name": "Betzendorf",
    "state_id": 3008,
    "state_code": "NI",
    "country_id": 82,
    "country_code": "DE",
    "latitude": "53.13750000",
    "longitude": "10.31273000",
    "native": null,
    "timezone": null,
    "translations": {}
  },
  {
    "id": 24090,
    "name": "Bevenrode",
    "state_id": 3008,
    "state_code": "NI",
    "country_id": 82,
    "country_code": "DE",
    "latitude": "52.34026000",
    "longitude": "10.57743000",
    "native": null,
    "timezone": null,
    "translations": {}
  },
  {
    "id": 24091,
    "name": "Bevern",
    "state_id": 3008,
    "state_code": "NI",
    "country_id": 82,
    "country_code": "DE",
    "latitude": "51.85826000",
    "longitude": "9.49408000",
    "native": null,
    "timezone": null,
    "translations": {}
  },
  {
    "id": 24092,
    "name": "Beverstedt",
    "state_id": 3008,
    "state_code": "NI",
    "country_id": 82,
    "country_code": "DE",
    "latitude": "53.43413000",
    "longitude": "8.81915000",
    "native": null,
    "timezone": null,
    "translations": {}
  },
  {
    "id": 24109,
    "name": "Bienenbüttel",
    "state_id": 3008,
    "state_code": "NI",
    "country_id": 82,
    "country_code": "DE",
    "latitude": "53.14157000",
    "longitude": "10.48679000",
    "native": null,
    "timezone": null,
    "translations": {}
  },
  {
    "id": 24120,
    "name": "Bilshausen",
    "state_id": 3008,
    "state_code": "NI",
    "country_id": 82,
    "country_code": "DE",
    "latitude": "51.62974000",
    "longitude": "10.15859000",
    "native": null,
    "timezone": null,
    "translations": {}
  },
  {
    "id": 24125,
    "name": "Binnen",
    "state_id": 3008,
    "state_code": "NI",
    "country_id": 82,
    "country_code": "DE",
    "latitude": "52.61667000",
    "longitude": "9.13333000",
    "native": null,
    "timezone": null,
    "translations": {}
  },
  {
    "id": 24129,
    "name": "Bippen",
    "state_id": 3008,
    "state_code": "NI",
    "country_id": 82,
    "country_code": "DE",
    "latitude": "52.58333000",
    "longitude": "7.73333000",
    "native": null,
    "timezone": null,
    "translations": {}
  },
  {
    "id": 24155,
    "name": "Bispingen",
    "state_id": 3008,
    "state_code": "NI",
    "country_id": 82,
    "country_code": "DE",
    "latitude": "53.08312000",
    "longitude": "9.99772000",
    "native": null,
    "timezone": null,
    "translations": {}
  },
  {
    "id": 24156,
    "name": "Bissendorf",
    "state_id": 3008,
    "state_code": "NI",
    "country_id": 82,
    "country_code": "DE",
    "latitude": "52.23333000",
    "longitude": "8.16667000",
    "native": null,
    "timezone": null,
    "translations": {}
  },
  {
    "id": 24175,
    "name": "Bleckede",
    "state_id": 3008,
    "state_code": "NI",
    "country_id": 82,
    "country_code": "DE",
    "latitude": "53.28972000",
    "longitude": "10.73372000",
    "native": null,
    "timezone": null,
    "translations": {}
  },
  {
    "id": 24179,
    "name": "Blender",
    "state_id": 3008,
    "state_code": "NI",
    "country_id": 82,
    "country_code": "DE",
    "latitude": "52.91667000",
    "longitude": "9.13333000",
    "native": null,
    "timezone": null,
    "translations": {}
  },
  {
    "id": 24180,
    "name": "Bliedersdorf",
    "state_id": 3008,
    "state_code": "NI",
    "country_id": 82,
    "country_code": "DE",
    "latitude": "53.48333000",
    "longitude": "9.56667000",
    "native": null,
    "timezone": null,
    "translations": {}
  },
  {
    "id": 24185,
    "name": "Blomberg",
    "state_id": 3008,
    "state_code": "NI",
    "country_id": 82,
    "country_code": "DE",
    "latitude": "53.57678000",
    "longitude": "7.55824000",
    "native": null,
    "timezone": null,
    "translations": {}
  },
  {
    "id": 24198,
    "name": "Bockenem",
    "state_id": 3008,
    "state_code": "NI",
    "country_id": 82,
    "country_code": "DE",
    "latitude": "52.00993000",
    "longitude": "10.13197000",
    "native": null,
    "timezone": null,
    "translations": {}
  },
  {
    "id": 24200,
    "name": "Bockhorn",
    "state_id": 3008,
    "state_code": "NI",
    "country_id": 82,
    "country_code": "DE",
    "latitude": "53.40000000",
    "longitude": "8.01667000",
    "native": null,
    "timezone": null,
    "translations": {}
  },
  {
    "id": 24202,
    "name": "Bockhorst",
    "state_id": 3008,
    "state_code": "NI",
    "country_id": 82,
    "country_code": "DE",
    "latitude": "53.03296000",
    "longitude": "7.57576000",
    "native": null,
    "timezone": null,
    "translations": {}
  },
  {
    "id": 24204,
    "name": "Bodenfelde",
    "state_id": 3008,
    "state_code": "NI",
    "country_id": 82,
    "country_code": "DE",
    "latitude": "51.64044000",
    "longitude": "9.55569000",
    "native": null,
    "timezone": null,
    "translations": {}
  },
  {
    "id": 24208,
    "name": "Bodenwerder",
    "state_id": 3008,
    "state_code": "NI",
    "country_id": 82,
    "country_code": "DE",
    "latitude": "51.97156000",
    "longitude": "9.51931000",
    "native": null,
    "timezone": null,
    "translations": {}
  },
  {
    "id": 24213,
    "name": "Boffzen",
    "state_id": 3008,
    "state_code": "NI",
    "country_id": 82,
    "country_code": "DE",
    "latitude": "51.75000000",
    "longitude": "9.38333000",
    "native": null,
    "timezone": null,
    "translations": {}
  },
  {
    "id": 24216,
    "name": "Bohmte",
    "state_id": 3008,
    "state_code": "NI",
    "country_id": 82,
    "country_code": "DE",
    "latitude": "52.36667000",
    "longitude": "8.31667000",
    "native": null,
    "timezone": null,
    "translations": {}
  },
  {
    "id": 24219,
    "name": "Bokel",
    "state_id": 3008,
    "state_code": "NI",
    "country_id": 82,
    "country_code": "DE",
    "latitude": "53.39326000",
    "longitude": "8.76803000",
    "native": null,
    "timezone": null,
    "translations": {}
  },
  {
    "id": 24228,
    "name": "Bomlitz",
    "state_id": 3008,
    "state_code": "NI",
    "country_id": 82,
    "country_code": "DE",
    "latitude": "52.90000000",
    "longitude": "9.65000000",
    "native": null,
    "timezone": null,
    "translations": {}
  },
  {
    "id": 24472,
    "name": "Börger",
    "state_id": 3008,
    "state_code": "NI",
    "country_id": 82,
    "country_code": "DE",
    "latitude": "52.91211000",
    "longitude": "7.53576000",
    "native": null,
    "timezone": null,
    "translations": {}
  },
  {
    "id": 24247,
    "name": "Borkum",
    "state_id": 3008,
    "state_code": "NI",
    "country_id": 82,
    "country_code": "DE",
    "latitude": "53.58094000",
    "longitude": "6.69153000",
    "native": null,
    "timezone": null,
    "translations": {}
  },
  {
    "id": 24477,
    "name": "Börßum",
    "state_id": 3008,
    "state_code": "NI",
    "country_id": 82,
    "country_code": "DE",
    "latitude": "52.06921000",
    "longitude": "10.58431000",
    "native": null,
    "timezone": null,
    "translations": {}
  },
  {
    "id": 24258,
    "name": "Borstel",
    "state_id": 3008,
    "state_code": "NI",
    "country_id": 82,
    "country_code": "DE",
    "latitude": "52.67034000",
    "longitude": "8.96896000",
    "native": null,
    "timezone": null,
    "translations": {}
  },
  {
    "id": 24479,
    "name": "Bösel",
    "state_id": 3008,
    "state_code": "NI",
    "country_id": 82,
    "country_code": "DE",
    "latitude": "53.00000000",
    "longitude": "7.95000000",
    "native": null,
    "timezone": null,
    "translations": {}
  },
  {
    "id": 24482,
    "name": "Bötersen",
    "state_id": 3008,
    "state_code": "NI",
    "country_id": 82,
    "country_code": "DE",
    "latitude": "53.13333000",
    "longitude": "9.31667000",
    "native": null,
    "timezone": null,
    "translations": {}
  },
  {
    "id": 24262,
    "name": "Bothel",
    "state_id": 3008,
    "state_code": "NI",
    "country_id": 82,
    "country_code": "DE",
    "latitude": "53.06667000",
    "longitude": "9.50000000",
    "native": null,
    "timezone": null,
    "translations": {}
  },
  {
    "id": 24266,
    "name": "Bovenden",
    "state_id": 3008,
    "state_code": "NI",
    "country_id": 82,
    "country_code": "DE",
    "latitude": "51.58836000",
    "longitude": "9.92220000",
    "native": null,
    "timezone": null,
    "translations": {}
  },
  {
    "id": 24270,
    "name": "Brackel",
    "state_id": 3008,
    "state_code": "NI",
    "country_id": 82,
    "country_code": "DE",
    "latitude": "53.29974000",
    "longitude": "10.04860000",
    "native": null,
    "timezone": null,
    "translations": {}
  },
  {
    "id": 24273,
    "name": "Brake (Unterweser)",
    "state_id": 3008,
    "state_code": "NI",
    "country_id": 82,
    "country_code": "DE",
    "latitude": "53.33333000",
    "longitude": "8.48333000",
    "native": null,
    "timezone": null,
    "translations": {}
  },
  {
    "id": 24275,
    "name": "Bramsche",
    "state_id": 3008,
    "state_code": "NI",
    "country_id": 82,
    "country_code": "DE",
    "latitude": "52.40881000",
    "longitude": "7.97288000",
    "native": null,
    "timezone": null,
    "translations": {}
  },
  {
    "id": 24276,
    "name": "Bramstedt",
    "state_id": 3008,
    "state_code": "NI",
    "country_id": 82,
    "country_code": "DE",
    "latitude": "53.36603000",
    "longitude": "8.69005000",
    "native": null,
    "timezone": null,
    "translations": {}
  },
  {
    "id": 24288,
    "name": "Braunlage",
    "state_id": 3008,
    "state_code": "NI",
    "country_id": 82,
    "country_code": "DE",
    "latitude": "51.72651000",
    "longitude": "10.61090000",
    "native": null,
    "timezone": null,
    "translations": {}
  },
  {
    "id": 24291,
    "name": "Braunschweig",
    "state_id": 3008,
    "state_code": "NI",
    "country_id": 82,
    "country_code": "DE",
    "latitude": "52.26594000",
    "longitude": "10.52673000",
    "native": null,
    "timezone": null,
    "translations": {}
  },
  {
    "id": 24294,
    "name": "Breddorf",
    "state_id": 3008,
    "state_code": "NI",
    "country_id": 82,
    "country_code": "DE",
    "latitude": "53.29262000",
    "longitude": "9.08089000",
    "native": null,
    "timezone": null,
    "translations": {}
  },
  {
    "id": 24322,
    "name": "Bremervörde",
    "state_id": 3008,
    "state_code": "NI",
    "country_id": 82,
    "country_code": "DE",
    "latitude": "53.48458000",
    "longitude": "9.14306000",
    "native": null,
    "timezone": null,
    "translations": {}
  },
  {
    "id": 24334,
    "name": "Brietlingen",
    "state_id": 3008,
    "state_code": "NI",
    "country_id": 82,
    "country_code": "DE",
    "latitude": "53.33333000",
    "longitude": "10.45000000",
    "native": null,
    "timezone": null,
    "translations": {}
  },
  {
    "id": 24339,
    "name": "Brockel",
    "state_id": 3008,
    "state_code": "NI",
    "country_id": 82,
    "country_code": "DE",
    "latitude": "53.10000000",
    "longitude": "9.51667000",
    "native": null,
    "timezone": null,
    "translations": {}
  },
  {
    "id": 24340,
    "name": "Brockum",
    "state_id": 3008,
    "state_code": "NI",
    "country_id": 82,
    "country_code": "DE",
    "latitude": "52.46667000",
    "longitude": "8.41667000",
    "native": null,
    "timezone": null,
    "translations": {}
  },
  {
    "id": 24345,
    "name": "Brome",
    "state_id": 3008,
    "state_code": "NI",
    "country_id": 82,
    "country_code": "DE",
    "latitude": "52.60019000",
    "longitude": "10.93754000",
    "native": null,
    "timezone": null,
    "translations": {}
  },
  {
    "id": 24348,
    "name": "Bruchhausen-Vilsen",
    "state_id": 3008,
    "state_code": "NI",
    "country_id": 82,
    "country_code": "DE",
    "latitude": "52.82931000",
    "longitude": "8.99066000",
    "native": null,
    "timezone": null,
    "translations": {}
  },
  {
    "id": 24370,
    "name": "Brüggen",
    "state_id": 3008,
    "state_code": "NI",
    "country_id": 82,
    "country_code": "DE",
    "latitude": "52.04250000",
    "longitude": "9.77450000",
    "native": null,
    "timezone": null,
    "translations": {}
  },
  {
    "id": 24392,
    "name": "Buchholz",
    "state_id": 3008,
    "state_code": "NI",
    "country_id": 82,
    "country_code": "DE",
    "latitude": "53.00884000",
    "longitude": "9.56287000",
    "native": null,
    "timezone": null,
    "translations": {}
  },
  {
    "id": 24393,
    "name": "Buchholz in der Nordheide",
    "state_id": 3008,
    "state_code": "NI",
    "country_id": 82,
    "country_code": "DE",
    "latitude": "53.32641000",
    "longitude": "9.86812000",
    "native": null,
    "timezone": null,
    "translations": {}
  },
  {
    "id": 24490,
    "name": "Bückeburg",
    "state_id": 3008,
    "state_code": "NI",
    "country_id": 82,
    "country_code": "DE",
    "latitude": "52.26065000",
    "longitude": "9.04939000",
    "native": null,
    "timezone": null,
    "translations": {}
  },
  {
    "id": 24491,
    "name": "Bücken",
    "state_id": 3008,
    "state_code": "NI",
    "country_id": 82,
    "country_code": "DE",
    "latitude": "52.77876000",
    "longitude": "9.13371000",
    "native": null,
    "timezone": null,
    "translations": {}
  },
  {
    "id": 24492,
    "name": "Büddenstedt",
    "state_id": 3008,
    "state_code": "NI",
    "country_id": 82,
    "country_code": "DE",
    "latitude": "52.17035000",
    "longitude": "11.01877000",
    "native": null,
    "timezone": null,
    "translations": {}
  },
  {
    "id": 24499,
    "name": "Bühren",
    "state_id": 3008,
    "state_code": "NI",
    "country_id": 82,
    "country_code": "DE",
    "latitude": "52.80629000",
    "longitude": "8.21880000",
    "native": null,
    "timezone": null,
    "translations": {}
  },
  {
    "id": 24402,
    "name": "Bunde",
    "state_id": 3008,
    "state_code": "NI",
    "country_id": 82,
    "country_code": "DE",
    "latitude": "53.18333000",
    "longitude": "7.26667000",
    "native": null,
    "timezone": null,
    "translations": {}
  },
  {
    "id": 24415,
    "name": "Burgdorf",
    "state_id": 3008,
    "state_code": "NI",
    "country_id": 82,
    "country_code": "DE",
    "latitude": "52.44628000",
    "longitude": "10.00640000",
    "native": null,
    "timezone": null,
    "translations": {}
  },
  {
    "id": 24449,
    "name": "Butjadingen",
    "state_id": 3008,
    "state_code": "NI",
    "country_id": 82,
    "country_code": "DE",
    "latitude": "53.54722000",
    "longitude": "8.33500000",
    "native": null,
    "timezone": null,
    "translations": {}
  },
  {
    "id": 24457,
    "name": "Buxtehude",
    "state_id": 3008,
    "state_code": "NI",
    "country_id": 82,
    "country_code": "DE",
    "latitude": "53.46716000",
    "longitude": "9.68636000",
    "native": null,
    "timezone": null,
    "translations": {}
  },
  {
    "id": 24511,
    "name": "Cadenberge",
    "state_id": 3008,
    "state_code": "NI",
    "country_id": 82,
    "country_code": "DE",
    "latitude": "53.76926000",
    "longitude": "9.06269000",
    "native": null,
    "timezone": null,
    "translations": {}
  },
  {
    "id": 24515,
    "name": "Calberlah",
    "state_id": 3008,
    "state_code": "NI",
    "country_id": 82,
    "country_code": "DE",
    "latitude": "52.42074000",
    "longitude": "10.62326000",
    "native": null,
    "timezone": null,
    "translations": {}
  },
  {
    "id": 24521,
    "name": "Cappeln",
    "state_id": 3008,
    "state_code": "NI",
    "country_id": 82,
    "country_code": "DE",
    "latitude": "52.81085000",
    "longitude": "8.11474000",
    "native": null,
    "timezone": null,
    "translations": {}
  },
  {
    "id": 24528,
    "name": "Celle",
    "state_id": 3008,
    "state_code": "NI",
    "country_id": 82,
    "country_code": "DE",
    "latitude": "52.62264000",
    "longitude": "10.08047000",
    "native": null,
    "timezone": null,
    "translations": {}
  },
  {
    "id": 24538,
    "name": "Clausthal-Zellerfeld",
    "state_id": 3008,
    "state_code": "NI",
    "country_id": 82,
    "country_code": "DE",
    "latitude": "51.80949000",
    "longitude": "10.33821000",
    "native": null,
    "timezone": null,
    "translations": {}
  },
  {
    "id": 24541,
    "name": "Clenze",
    "state_id": 3008,
    "state_code": "NI",
    "country_id": 82,
    "country_code": "DE",
    "latitude": "52.93729000",
    "longitude": "10.95750000",
    "native": null,
    "timezone": null,
    "translations": {}
  },
  {
    "id": 24543,
    "name": "Cloppenburg",
    "state_id": 3008,
    "state_code": "NI",
    "country_id": 82,
    "country_code": "DE",
    "latitude": "52.84754000",
    "longitude": "8.04500000",
    "native": null,
    "timezone": null,
    "translations": {}
  },
  {
    "id": 24552,
    "name": "Coppenbrügge",
    "state_id": 3008,
    "state_code": "NI",
    "country_id": 82,
    "country_code": "DE",
    "latitude": "52.11852000",
    "longitude": "9.54870000",
    "native": null,
    "timezone": null,
    "translations": {}
  },
  {
    "id": 24560,
    "name": "Cremlingen",
    "state_id": 3008,
    "state_code": "NI",
    "country_id": 82,
    "country_code": "DE",
    "latitude": "52.25000000",
    "longitude": "10.65000000",
    "native": null,
    "timezone": null,
    "translations": {}
  },
  {
    "id": 24570,
    "name": "Cuxhaven",
    "state_id": 3008,
    "state_code": "NI",
    "country_id": 82,
    "country_code": "DE",
    "latitude": "53.87176000",
    "longitude": "8.69087000",
    "native": null,
    "timezone": null,
    "translations": {}
  },
  {
    "id": 24580,
    "name": "Dahlenburg",
    "state_id": 3008,
    "state_code": "NI",
    "country_id": 82,
    "country_code": "DE",
    "latitude": "53.18767000",
    "longitude": "10.73650000",
    "native": null,
    "timezone": null,
    "translations": {}
  },
  {
    "id": 24588,
    "name": "Damme",
    "state_id": 3008,
    "state_code": "NI",
    "country_id": 82,
    "country_code": "DE",
    "latitude": "52.52157000",
    "longitude": "8.19793000",
    "native": null,
    "timezone": null,
    "translations": {}
  },
  {
    "id": 24591,
    "name": "Danndorf",
    "state_id": 3008,
    "state_code": "NI",
    "country_id": 82,
    "country_code": "DE",
    "latitude": "52.42472000",
    "longitude": "10.91286000",
    "native": null,
    "timezone": null,
    "translations": {}
  },
  {
    "id": 24592,
    "name": "Dannenberg",
    "state_id": 3008,
    "state_code": "NI",
    "country_id": 82,
    "country_code": "DE",
    "latitude": "53.09670000",
    "longitude": "11.09001000",
    "native": null,
    "timezone": null,
    "translations": {}
  },
  {
    "id": 24599,
    "name": "Dassel",
    "state_id": 3008,
    "state_code": "NI",
    "country_id": 82,
    "country_code": "DE",
    "latitude": "51.80179000",
    "longitude": "9.68904000",
    "native": null,
    "timezone": null,
    "translations": {}
  },
  {
    "id": 24608,
    "name": "Dedelstorf",
    "state_id": 3008,
    "state_code": "NI",
    "country_id": 82,
    "country_code": "DE",
    "latitude": "52.70000000",
    "longitude": "10.50000000",
    "native": null,
    "timezone": null,
    "translations": {}
  },
  {
    "id": 24609,
    "name": "Deensen",
    "state_id": 3008,
    "state_code": "NI",
    "country_id": 82,
    "country_code": "DE",
    "latitude": "51.86053000",
    "longitude": "9.59322000",
    "native": null,
    "timezone": null,
    "translations": {}
  },
  {
    "id": 24617,
    "name": "Deinste",
    "state_id": 3008,
    "state_code": "NI",
    "country_id": 82,
    "country_code": "DE",
    "latitude": "53.52903000",
    "longitude": "9.44376000",
    "native": null,
    "timezone": null,
    "translations": {}
  },
  {
    "id": 24625,
    "name": "Delligsen",
    "state_id": 3008,
    "state_code": "NI",
    "country_id": 82,
    "country_code": "DE",
    "latitude": "51.94120000",
    "longitude": "9.80272000",
    "native": null,
    "timezone": null,
    "translations": {}
  },
  {
    "id": 24626,
    "name": "Delmenhorst",
    "state_id": 3008,
    "state_code": "NI",
    "country_id": 82,
    "country_code": "DE",
    "latitude": "53.05110000",
    "longitude": "8.63091000",
    "native": null,
    "timezone": null,
    "translations": {}
  },
  {
    "id": 24642,
    "name": "Dersum",
    "state_id": 3008,
    "state_code": "NI",
    "country_id": 82,
    "country_code": "DE",
    "latitude": "52.96112000",
    "longitude": "7.27394000",
    "native": null,
    "timezone": null,
    "translations": {}
  },
  {
    "id": 24644,
    "name": "Destedt",
    "state_id": 3008,
    "state_code": "NI",
    "country_id": 82,
    "country_code": "DE",
    "latitude": "52.23801000",
    "longitude": "10.71063000",
    "native": null,
    "timezone": null,
    "translations": {}
  },
  {
    "id": 24645,
    "name": "Detern",
    "state_id": 3008,
    "state_code": "NI",
    "country_id": 82,
    "country_code": "DE",
    "latitude": "53.20927000",
    "longitude": "7.67395000",
    "native": null,
    "timezone": null,
    "translations": {}
  },
  {
    "id": 24646,
    "name": "Detmerode",
    "state_id": 3008,
    "state_code": "NI",
    "country_id": 82,
    "country_code": "DE",
    "latitude": "52.39016000",
    "longitude": "10.74480000",
    "native": null,
    "timezone": null,
    "translations": {}
  },
  {
    "id": 24654,
    "name": "Dettum",
    "state_id": 3008,
    "state_code": "NI",
    "country_id": 82,
    "country_code": "DE",
    "latitude": "52.17246000",
    "longitude": "10.66807000",
    "native": null,
    "timezone": null,
    "translations": {}
  },
  {
    "id": 24658,
    "name": "Deutsch Evern",
    "state_id": 3008,
    "state_code": "NI",
    "country_id": 82,
    "country_code": "DE",
    "latitude": "53.20000000",
    "longitude": "10.43333000",
    "native": null,
    "timezone": null,
    "translations": {}
  },
  {
    "id": 24662,
    "name": "Didderse",
    "state_id": 3008,
    "state_code": "NI",
    "country_id": 82,
    "country_code": "DE",
    "latitude": "52.38042000",
    "longitude": "10.40294000",
    "native": null,
    "timezone": null,
    "translations": {}
  },
  {
    "id": 24667,
    "name": "Diekholzen",
    "state_id": 3008,
    "state_code": "NI",
    "country_id": 82,
    "country_code": "DE",
    "latitude": "52.09617000",
    "longitude": "9.91945000",
    "native": null,
    "timezone": null,
    "translations": {}
  },
  {
    "id": 24670,
    "name": "Diepholz",
    "state_id": 3008,
    "state_code": "NI",
    "country_id": 82,
    "country_code": "DE",
    "latitude": "52.60783000",
    "longitude": "8.37005000",
    "native": null,
    "timezone": null,
    "translations": {}
  },
  {
    "id": 24697,
    "name": "Dinklage",
    "state_id": 3008,
    "state_code": "NI",
    "country_id": 82,
    "country_code": "DE",
    "latitude": "52.66223000",
    "longitude": "8.12440000",
    "native": null,
    "timezone": null,
    "translations": {}
  },
  {
    "id": 24705,
    "name": "Dissen",
    "state_id": 3008,
    "state_code": "NI",
    "country_id": 82,
    "country_code": "DE",
    "latitude": "52.11591000",
    "longitude": "8.19956000",
    "native": null,
    "timezone": null,
    "translations": {}
  },
  {
    "id": 24720,
    "name": "Dohren",
    "state_id": 3008,
    "state_code": "NI",
    "country_id": 82,
    "country_code": "DE",
    "latitude": "52.65000000",
    "longitude": "7.58333000",
    "native": null,
    "timezone": null,
    "translations": {}
  },
  {
    "id": 24721,
    "name": "Dollbergen",
    "state_id": 3008,
    "state_code": "NI",
    "country_id": 82,
    "country_code": "DE",
    "latitude": "52.40671000",
    "longitude": "10.18098000",
    "native": null,
    "timezone": null,
    "translations": {}
  },
  {
    "id": 24722,
    "name": "Dollern",
    "state_id": 3008,
    "state_code": "NI",
    "country_id": 82,
    "country_code": "DE",
    "latitude": "53.53333000",
    "longitude": "9.55000000",
    "native": null,
    "timezone": null,
    "translations": {}
  },
  {
    "id": 24745,
    "name": "Dornum",
    "state_id": 3008,
    "state_code": "NI",
    "country_id": 82,
    "country_code": "DE",
    "latitude": "53.64648000",
    "longitude": "7.42957000",
    "native": null,
    "timezone": null,
    "translations": {}
  },
  {
    "id": 24800,
    "name": "Dörpen",
    "state_id": 3008,
    "state_code": "NI",
    "country_id": 82,
    "country_code": "DE",
    "latitude": "52.96469000",
    "longitude": "7.32273000",
    "native": null,
    "timezone": null,
    "translations": {}
  },
  {
    "id": 24748,
    "name": "Dorum",
    "state_id": 3008,
    "state_code": "NI",
    "country_id": 82,
    "country_code": "DE",
    "latitude": "53.68790000",
    "longitude": "8.56734000",
    "native": null,
    "timezone": null,
    "translations": {}
  },
  {
    "id": 24802,
    "name": "Dörverden",
    "state_id": 3008,
    "state_code": "NI",
    "country_id": 82,
    "country_code": "DE",
    "latitude": "52.85000000",
    "longitude": "9.23333000",
    "native": null,
    "timezone": null,
    "translations": {}
  },
  {
    "id": 24804,
    "name": "Dötlingen",
    "state_id": 3008,
    "state_code": "NI",
    "country_id": 82,
    "country_code": "DE",
    "latitude": "52.93333000",
    "longitude": "8.38333000",
    "native": null,
    "timezone": null,
    "translations": {}
  },
  {
    "id": 24752,
    "name": "Drage",
    "state_id": 3008,
    "state_code": "NI",
    "country_id": 82,
    "country_code": "DE",
    "latitude": "53.41667000",
    "longitude": "10.26667000",
    "native": null,
    "timezone": null,
    "translations": {}
  },
  {
    "id": 24753,
    "name": "Drakenburg",
    "state_id": 3008,
    "state_code": "NI",
    "country_id": 82,
    "country_code": "DE",
    "latitude": "52.68689000",
    "longitude": "9.21083000",
    "native": null,
    "timezone": null,
    "translations": {}
  },
  {
    "id": 24754,
    "name": "Drangstedt",
    "state_id": 3008,
    "state_code": "NI",
    "country_id": 82,
    "country_code": "DE",
    "latitude": "53.61359000",
    "longitude": "8.75576000",
    "native": null,
    "timezone": null,
    "translations": {}
  },
  {
    "id": 24755,
    "name": "Dransfeld",
    "state_id": 3008,
    "state_code": "NI",
    "country_id": 82,
    "country_code": "DE",
    "latitude": "51.49910000",
    "longitude": "9.76179000",
    "native": null,
    "timezone": null,
    "translations": {}
  },
  {
    "id": 24767,
    "name": "Drentwede",
    "state_id": 3008,
    "state_code": "NI",
    "country_id": 82,
    "country_code": "DE",
    "latitude": "52.74388000",
    "longitude": "8.56504000",
    "native": null,
    "timezone": null,
    "translations": {}
  },
  {
    "id": 24770,
    "name": "Drochtersen",
    "state_id": 3008,
    "state_code": "NI",
    "country_id": 82,
    "country_code": "DE",
    "latitude": "53.71015000",
    "longitude": "9.38463000",
    "native": null,
    "timezone": null,
    "translations": {}
  },
  {
    "id": 24777,
    "name": "Duderstadt",
    "state_id": 3008,
    "state_code": "NI",
    "country_id": 82,
    "country_code": "DE",
    "latitude": "51.51312000",
    "longitude": "10.25951000",
    "native": null,
    "timezone": null,
    "translations": {}
  },
  {
    "id": 24779,
    "name": "Duingen",
    "state_id": 3008,
    "state_code": "NI",
    "country_id": 82,
    "country_code": "DE",
    "latitude": "52.00449000",
    "longitude": "9.69578000",
    "native": null,
    "timezone": null,
    "translations": {}
  },
  {
    "id": 24808,
    "name": "Dünsen",
    "state_id": 3008,
    "state_code": "NI",
    "country_id": 82,
    "country_code": "DE",
    "latitude": "52.92749000",
    "longitude": "8.64191000",
    "native": null,
    "timezone": null,
    "translations": {}
  },
  {
    "id": 24783,
    "name": "Dunum",
    "state_id": 3008,
    "state_code": "NI",
    "country_id": 82,
    "country_code": "DE",
    "latitude": "53.60000000",
    "longitude": "7.65000000",
    "native": null,
    "timezone": null,
    "translations": {}
  },
  {
    "id": 24827,
    "name": "Ebergötzen",
    "state_id": 3008,
    "state_code": "NI",
    "country_id": 82,
    "country_code": "DE",
    "latitude": "51.57096000",
    "longitude": "10.10632000",
    "native": null,
    "timezone": null,
    "translations": {}
  },
  {
    "id": 24836,
    "name": "Ebersdorf",
    "state_id": 3008,
    "state_code": "NI",
    "country_id": 82,
    "country_code": "DE",
    "latitude": "53.52514000",
    "longitude": "9.04897000",
    "native": null,
    "timezone": null,
    "translations": {}
  },
  {
    "id": 24844,
    "name": "Ebstorf",
    "state_id": 3008,
    "state_code": "NI",
    "country_id": 82,
    "country_code": "DE",
    "latitude": "53.02785000",
    "longitude": "10.41839000",
    "native": null,
    "timezone": null,
    "translations": {}
  },
  {
    "id": 24845,
    "name": "Echem",
    "state_id": 3008,
    "state_code": "NI",
    "country_id": 82,
    "country_code": "DE",
    "latitude": "53.33333000",
    "longitude": "10.53333000",
    "native": null,
    "timezone": null,
    "translations": {}
  },
  {
    "id": 24854,
    "name": "Edemissen",
    "state_id": 3008,
    "state_code": "NI",
    "country_id": 82,
    "country_code": "DE",
    "latitude": "52.38702000",
    "longitude": "10.26140000",
    "native": null,
    "timezone": null,
    "translations": {}
  },
  {
    "id": 24859,
    "name": "Edewecht",
    "state_id": 3008,
    "state_code": "NI",
    "country_id": 82,
    "country_code": "DE",
    "latitude": "53.12699000",
    "longitude": "7.98406000",
    "native": null,
    "timezone": null,
    "translations": {}
  },
  {
    "id": 24869,
    "name": "Egestorf",
    "state_id": 3008,
    "state_code": "NI",
    "country_id": 82,
    "country_code": "DE",
    "latitude": "52.28568000",
    "longitude": "9.51676000",
    "native": null,
    "timezone": null,
    "translations": {}
  },
  {
    "id": 24875,
    "name": "Eggermühlen",
    "state_id": 3008,
    "state_code": "NI",
    "country_id": 82,
    "country_code": "DE",
    "latitude": "52.56667000",
    "longitude": "7.81667000",
    "native": null,
    "timezone": null,
    "translations": {}
  },
  {
    "id": 24892,
    "name": "Ehrenburg",
    "state_id": 3008,
    "state_code": "NI",
    "country_id": 82,
    "country_code": "DE",
    "latitude": "52.75000000",
    "longitude": "8.70000000",
    "native": null,
    "timezone": null,
    "translations": {}
  },
  {
    "id": 24909,
    "name": "Eicklingen",
    "state_id": 3008,
    "state_code": "NI",
    "country_id": 82,
    "country_code": "DE",
    "latitude": "52.55037000",
    "longitude": "10.18439000",
    "native": null,
    "timezone": null,
    "translations": {}
  },
  {
    "id": 24915,
    "name": "Eime",
    "state_id": 3008,
    "state_code": "NI",
    "country_id": 82,
    "country_code": "DE",
    "latitude": "52.07449000",
    "longitude": "9.72118000",
    "native": null,
    "timezone": null,
    "translations": {}
  },
  {
    "id": 24917,
    "name": "Eimen",
    "state_id": 3008,
    "state_code": "NI",
    "country_id": 82,
    "country_code": "DE",
    "latitude": "51.88333000",
    "longitude": "9.78333000",
    "native": null,
    "timezone": null,
    "translations": {}
  },
  {
    "id": 24918,
    "name": "Eimke",
    "state_id": 3008,
    "state_code": "NI",
    "country_id": 82,
    "country_code": "DE",
    "latitude": "52.96601000",
    "longitude": "10.31324000",
    "native": null,
    "timezone": null,
    "translations": {}
  },
  {
    "id": 24920,
    "name": "Einbeck",
    "state_id": 3008,
    "state_code": "NI",
    "country_id": 82,
    "country_code": "DE",
    "latitude": "51.82018000",
    "longitude": "9.86961000",
    "native": null,
    "timezone": null,
    "translations": {}
  },
  {
    "id": 24922,
    "name": "Eisdorf am Harz",
    "state_id": 3008,
    "state_code": "NI",
    "country_id": 82,
    "country_code": "DE",
    "latitude": "51.76152000",
    "longitude": "10.17591000",
    "native": null,
    "timezone": null,
    "translations": {}
  },
  {
    "id": 24939,
    "name": "Elbe",
    "state_id": 3008,
    "state_code": "NI",
    "country_id": 82,
    "country_code": "DE",
    "latitude": "52.08333000",
    "longitude": "10.28333000",
    "native": null,
    "timezone": null,
    "translations": {}
  },
  {
    "id": 24942,
    "name": "Eldingen",
    "state_id": 3008,
    "state_code": "NI",
    "country_id": 82,
    "country_code": "DE",
    "latitude": "52.68333000",
    "longitude": "10.33333000",
    "native": null,
    "timezone": null,
    "translations": {}
  },
  {
    "id": 24962,
    "name": "Elsdorf",
    "state_id": 3008,
    "state_code": "NI",
    "country_id": 82,
    "country_code": "DE",
    "latitude": "53.24120000",
    "longitude": "9.35056000",
    "native": null,
    "timezone": null,
    "translations": {}
  },
  {
    "id": 24967,
    "name": "Elsfleth",
    "state_id": 3008,
    "state_code": "NI",
    "country_id": 82,
    "country_code": "DE",
    "latitude": "53.23748000",
    "longitude": "8.45664000",
    "native": null,
    "timezone": null,
    "translations": {}
  },
  {
    "id": 24980,
    "name": "Elze",
    "state_id": 3008,
    "state_code": "NI",
    "country_id": 82,
    "country_code": "DE",
    "latitude": "52.12263000",
    "longitude": "9.73595000",
    "native": null,
    "timezone": null,
    "translations": {}
  },
  {
    "id": 24981,
    "name": "Embsen",
    "state_id": 3008,
    "state_code": "NI",
    "country_id": 82,
    "country_code": "DE",
    "latitude": "53.17606000",
    "longitude": "10.34625000",
    "native": null,
    "timezone": null,
    "translations": {}
  },
  {
    "id": 24982,
    "name": "Emden",
    "state_id": 3008,
    "state_code": "NI",
    "country_id": 82,
    "country_code": "DE",
    "latitude": "53.36745000",
    "longitude": "7.20778000",
    "native": null,
    "timezone": null,
    "translations": {}
  },
  {
    "id": 24985,
    "name": "Emlichheim",
    "state_id": 3008,
    "state_code": "NI",
    "country_id": 82,
    "country_code": "DE",
    "latitude": "52.61667000",
    "longitude": "6.85000000",
    "native": null,
    "timezone": null,
    "translations": {}
  },
  {
    "id": 24993,
    "name": "Emsbüren",
    "state_id": 3008,
    "state_code": "NI",
    "country_id": 82,
    "country_code": "DE",
    "latitude": "52.40000000",
    "longitude": "7.30000000",
    "native": null,
    "timezone": null,
    "translations": {}
  },
  {
    "id": 24996,
    "name": "Emstek",
    "state_id": 3008,
    "state_code": "NI",
    "country_id": 82,
    "country_code": "DE",
    "latitude": "52.83333000",
    "longitude": "8.15000000",
    "native": null,
    "timezone": null,
    "translations": {}
  },
  {
    "id": 24997,
    "name": "Emtinghausen",
    "state_id": 3008,
    "state_code": "NI",
    "country_id": 82,
    "country_code": "DE",
    "latitude": "52.93333000",
    "longitude": "8.96667000",
    "native": null,
    "timezone": null,
    "translations": {}
  },
  {
    "id": 25000,
    "name": "Engeln",
    "state_id": 3008,
    "state_code": "NI",
    "country_id": 82,
    "country_code": "DE",
    "latitude": "52.79363000",
    "longitude": "8.91815000",
    "native": null,
    "timezone": null,
    "translations": {}
  },
  {
    "id": 25047,
    "name": "Erkerode",
    "state_id": 3008,
    "state_code": "NI",
    "country_id": 82,
    "country_code": "DE",
    "latitude": "52.20485000",
    "longitude": "10.70982000",
    "native": null,
    "timezone": null,
    "translations": {}
  },
  {
    "id": 25078,
    "name": "Eschede",
    "state_id": 3008,
    "state_code": "NI",
    "country_id": 82,
    "country_code": "DE",
    "latitude": "52.73494000",
    "longitude": "10.23540000",
    "native": null,
    "timezone": null,
    "translations": {}
  },
  {
    "id": 25082,
    "name": "Eschershausen",
    "state_id": 3008,
    "state_code": "NI",
    "country_id": 82,
    "country_code": "DE",
    "latitude": "51.92664000",
    "longitude": "9.64282000",
    "native": null,
    "timezone": null,
    "translations": {}
  },
  {
    "id": 25086,
    "name": "Esens",
    "state_id": 3008,
    "state_code": "NI",
    "country_id": 82,
    "country_code": "DE",
    "latitude": "53.64866000",
    "longitude": "7.61267000",
    "native": null,
    "timezone": null,
    "translations": {}
  },
  {
    "id": 25092,
    "name": "Essel",
    "state_id": 3008,
    "state_code": "NI",
    "country_id": 82,
    "country_code": "DE",
    "latitude": "52.69131000",
    "longitude": "9.64141000",
    "native": null,
    "timezone": null,
    "translations": {}
  },
  {
    "id": 25094,
    "name": "Essen",
    "state_id": 3008,
    "state_code": "NI",
    "country_id": 82,
    "country_code": "DE",
    "latitude": "52.72258000",
    "longitude": "7.93710000",
    "native": null,
    "timezone": null,
    "translations": {}
  },
  {
    "id": 25103,
    "name": "Esterwegen",
    "state_id": 3008,
    "state_code": "NI",
    "country_id": 82,
    "country_code": "DE",
    "latitude": "52.99288000",
    "longitude": "7.63327000",
    "native": null,
    "timezone": null,
    "translations": {}
  },
  {
    "id": 25105,
    "name": "Estorf",
    "state_id": 3008,
    "state_code": "NI",
    "country_id": 82,
    "country_code": "DE",
    "latitude": "52.58850000",
    "longitude": "9.14147000",
    "native": null,
    "timezone": null,
    "translations": {}
  },
  {
    "id": 25121,
    "name": "Evessen",
    "state_id": 3008,
    "state_code": "NI",
    "country_id": 82,
    "country_code": "DE",
    "latitude": "52.18888000",
    "longitude": "10.71081000",
    "native": null,
    "timezone": null,
    "translations": {}
  },
  {
    "id": 25122,
    "name": "Eydelstedt",
    "state_id": 3008,
    "state_code": "NI",
    "country_id": 82,
    "country_code": "DE",
    "latitude": "52.69241000",
    "longitude": "8.54668000",
    "native": null,
    "timezone": null,
    "translations": {}
  },
  {
    "id": 25123,
    "name": "Eyendorf",
    "state_id": 3008,
    "state_code": "NI",
    "country_id": 82,
    "country_code": "DE",
    "latitude": "53.20000000",
    "longitude": "10.15000000",
    "native": null,
    "timezone": null,
    "translations": {}
  },
  {
    "id": 25124,
    "name": "Eystrup",
    "state_id": 3008,
    "state_code": "NI",
    "country_id": 82,
    "country_code": "DE",
    "latitude": "52.77935000",
    "longitude": "9.21315000",
    "native": null,
    "timezone": null,
    "translations": {}
  },
  {
    "id": 25146,
    "name": "Faßberg",
    "state_id": 3008,
    "state_code": "NI",
    "country_id": 82,
    "country_code": "DE",
    "latitude": "52.90000000",
    "longitude": "10.16667000",
    "native": null,
    "timezone": null,
    "translations": {}
  },
  {
    "id": 25147,
    "name": "Fedderwarden",
    "state_id": 3008,
    "state_code": "NI",
    "country_id": 82,
    "country_code": "DE",
    "latitude": "53.56142000",
    "longitude": "8.04371000",
    "native": null,
    "timezone": null,
    "translations": {}
  },
  {
    "id": 25171,
    "name": "Filsum",
    "state_id": 3008,
    "state_code": "NI",
    "country_id": 82,
    "country_code": "DE",
    "latitude": "53.24213000",
    "longitude": "7.62785000",
    "native": null,
    "timezone": null,
    "translations": {}
  },
  {
    "id": 25177,
    "name": "Fintel",
    "state_id": 3008,
    "state_code": "NI",
    "country_id": 82,
    "country_code": "DE",
    "latitude": "53.17188000",
    "longitude": "9.66969000",
    "native": null,
    "timezone": null,
    "translations": {}
  },
  {
    "id": 25201,
    "name": "Flöthe",
    "state_id": 3008,
    "state_code": "NI",
    "country_id": 82,
    "country_code": "DE",
    "latitude": "52.08333000",
    "longitude": "10.48333000",
    "native": null,
    "timezone": null,
    "translations": {}
  },
  {
    "id": 25236,
    "name": "Freden",
    "state_id": 3008,
    "state_code": "NI",
    "country_id": 82,
    "country_code": "DE",
    "latitude": "51.92771000",
    "longitude": "9.89350000",
    "native": null,
    "timezone": null,
    "translations": {}
  },
  {
    "id": 25241,
    "name": "Freiburg",
    "state_id": 3008,
    "state_code": "NI",
    "country_id": 82,
    "country_code": "DE",
    "latitude": "53.82529000",
    "longitude": "9.28803000",
    "native": null,
    "timezone": null,
    "translations": {}
  },
  {
    "id": 25255,
    "name": "Freren",
    "state_id": 3008,
    "state_code": "NI",
    "country_id": 82,
    "country_code": "DE",
    "latitude": "52.48700000",
    "longitude": "7.54313000",
    "native": null,
    "timezone": null,
    "translations": {}
  },
  {
    "id": 25272,
    "name": "Friedeburg",
    "state_id": 3008,
    "state_code": "NI",
    "country_id": 82,
    "country_code": "DE",
    "latitude": "53.45000000",
    "longitude": "7.83333000",
    "native": null,
    "timezone": null,
    "translations": {}
  },
  {
    "id": 25283,
    "name": "Friedland",
    "state_id": 3008,
    "state_code": "NI",
    "country_id": 82,
    "country_code": "DE",
    "latitude": "51.41917000",
    "longitude": "9.91762000",
    "native": null,
    "timezone": null,
    "translations": {}
  },
  {
    "id": 25300,
    "name": "Friesoythe",
    "state_id": 3008,
    "state_code": "NI",
    "country_id": 82,
    "country_code": "DE",
    "latitude": "53.02260000",
    "longitude": "7.85764000",
    "native": null,
    "timezone": null,
    "translations": {}
  },
  {
    "id": 25326,
    "name": "Fürstenau",
    "state_id": 3008,
    "state_code": "NI",
    "country_id": 82,
    "country_code": "DE",
    "latitude": "52.51667000",
    "longitude": "7.67670000",
    "native": null,
    "timezone": null,
    "translations": {}
  },
  {
    "id": 25327,
    "name": "Fürstenberg",
    "state_id": 3008,
    "state_code": "NI",
    "country_id": 82,
    "country_code": "DE",
    "latitude": "51.73333000",
    "longitude": "9.40000000",
    "native": null,
    "timezone": null,
    "translations": {}
  },
  {
    "id": 25356,
    "name": "Ganderkesee",
    "state_id": 3008,
    "state_code": "NI",
    "country_id": 82,
    "country_code": "DE",
    "latitude": "53.03333000",
    "longitude": "8.53333000",
    "native": null,
    "timezone": null,
    "translations": {}
  },
  {
    "id": 25360,
    "name": "Garbsen",
    "state_id": 3008,
    "state_code": "NI",
    "country_id": 82,
    "country_code": "DE",
    "latitude": "52.41371000",
    "longitude": "9.58990000",
    "native": null,
    "timezone": null,
    "translations": {}
  },
  {
    "id": 25361,
    "name": "Garbsen-Mitte",
    "state_id": 3008,
    "state_code": "NI",
    "country_id": 82,
    "country_code": "DE",
    "latitude": "52.42659000",
    "longitude": "9.60383000",
    "native": null,
    "timezone": null,
    "translations": {}
  },
  {
    "id": 25366,
    "name": "Garlstorf",
    "state_id": 3008,
    "state_code": "NI",
    "country_id": 82,
    "country_code": "DE",
    "latitude": "53.23728000",
    "longitude": "10.10137000",
    "native": null,
    "timezone": null,
    "translations": {}
  },
  {
    "id": 25368,
    "name": "Garrel",
    "state_id": 3008,
    "state_code": "NI",
    "country_id": 82,
    "country_code": "DE",
    "latitude": "52.95000000",
    "longitude": "8.01667000",
    "native": null,
    "timezone": null,
    "translations": {}
  },
  {
    "id": 25370,
    "name": "Garstedt",
    "state_id": 3008,
    "state_code": "NI",
    "country_id": 82,
    "country_code": "DE",
    "latitude": "53.28467000",
    "longitude": "10.16137000",
    "native": null,
    "timezone": null,
    "translations": {}
  },
  {
    "id": 25372,
    "name": "Gartow",
    "state_id": 3008,
    "state_code": "NI",
    "country_id": 82,
    "country_code": "DE",
    "latitude": "53.02470000",
    "longitude": "11.46200000",
    "native": null,
    "timezone": null,
    "translations": {}
  },
  {
    "id": 25389,
    "name": "Geeste",
    "state_id": 3008,
    "state_code": "NI",
    "country_id": 82,
    "country_code": "DE",
    "latitude": "52.60000000",
    "longitude": "7.26667000",
    "native": null,
    "timezone": null,
    "translations": {}
  },
  {
    "id": 25392,
    "name": "Gehrde",
    "state_id": 3008,
    "state_code": "NI",
    "country_id": 82,
    "country_code": "DE",
    "latitude": "52.57684000",
    "longitude": "8.00342000",
    "native": null,
    "timezone": null,
    "translations": {}
  },
  {
    "id": 25393,
    "name": "Gehrden",
    "state_id": 3008,
    "state_code": "NI",
    "country_id": 82,
    "country_code": "DE",
    "latitude": "52.31362000",
    "longitude": "9.60033000",
    "native": null,
    "timezone": null,
    "translations": {}
  },
  {
    "id": 25419,
    "name": "Gemeinde Friedland",
    "state_id": 3008,
    "state_code": "NI",
    "country_id": 82,
    "country_code": "DE",
    "latitude": "51.41667000",
    "longitude": "9.93333000",
    "native": null,
    "timezone": null,
    "translations": {}
  },
  {
    "id": 25432,
    "name": "Georgsdorf",
    "state_id": 3008,
    "state_code": "NI",
    "country_id": 82,
    "country_code": "DE",
    "latitude": "52.56667000",
    "longitude": "7.08333000",
    "native": null,
    "timezone": null,
    "translations": {}
  },
  {
    "id": 25433,
    "name": "Georgsmarienhütte",
    "state_id": 3008,
    "state_code": "NI",
    "country_id": 82,
    "country_code": "DE",
    "latitude": "52.20296000",
    "longitude": "8.04480000",
    "native": null,
    "timezone": null,
    "translations": {}
  },
  {
    "id": 25440,
    "name": "Gerdau",
    "state_id": 3008,
    "state_code": "NI",
    "country_id": 82,
    "country_code": "DE",
    "latitude": "52.96667000",
    "longitude": "10.41667000",
    "native": null,
    "timezone": null,
    "translations": {}
  },
  {
    "id": 25461,
    "name": "Gersten",
    "state_id": 3008,
    "state_code": "NI",
    "country_id": 82,
    "country_code": "DE",
    "latitude": "52.58333000",
    "longitude": "7.51667000",
    "native": null,
    "timezone": null,
    "translations": {}
  },
  {
    "id": 25481,
    "name": "Gieboldehausen",
    "state_id": 3008,
    "state_code": "NI",
    "country_id": 82,
    "country_code": "DE",
    "latitude": "51.60962000",
    "longitude": "10.21619000",
    "native": null,
    "timezone": null,
    "translations": {}
  },
  {
    "id": 25486,
    "name": "Giesen",
    "state_id": 3008,
    "state_code": "NI",
    "country_id": 82,
    "country_code": "DE",
    "latitude": "52.19716000",
    "longitude": "9.89890000",
    "native": null,
    "timezone": null,
    "translations": {}
  },
  {
    "id": 25488,
    "name": "Gifhorn",
    "state_id": 3008,
    "state_code": "NI",
    "country_id": 82,
    "country_code": "DE",
    "latitude": "52.47774000",
    "longitude": "10.55110000",
    "native": null,
    "timezone": null,
    "translations": {}
  },
  {
    "id": 25492,
    "name": "Gilten",
    "state_id": 3008,
    "state_code": "NI",
    "country_id": 82,
    "country_code": "DE",
    "latitude": "52.70000000",
    "longitude": "9.58333000",
    "native": null,
    "timezone": null,
    "translations": {}
  },
  {
    "id": 25498,
    "name": "Gittelde",
    "state_id": 3008,
    "state_code": "NI",
    "country_id": 82,
    "country_code": "DE",
    "latitude": "51.79840000",
    "longitude": "10.18780000",
    "native": null,
    "timezone": null,
    "translations": {}
  },
  {
    "id": 25502,
    "name": "Glandorf",
    "state_id": 3008,
    "state_code": "NI",
    "country_id": 82,
    "country_code": "DE",
    "latitude": "52.08474000",
    "longitude": "7.99944000",
    "native": null,
    "timezone": null,
    "translations": {}
  },
  {
    "id": 25522,
    "name": "Gnarrenburg",
    "state_id": 3008,
    "state_code": "NI",
    "country_id": 82,
    "country_code": "DE",
    "latitude": "53.38333000",
    "longitude": "9.00000000",
    "native": null,
    "timezone": null,
    "translations": {}
  },
  {
    "id": 25532,
    "name": "Goldenstedt",
    "state_id": 3008,
    "state_code": "NI",
    "country_id": 82,
    "country_code": "DE",
    "latitude": "52.78833000",
    "longitude": "8.43201000",
    "native": null,
    "timezone": null,
    "translations": {}
  },
  {
    "id": 25534,
    "name": "Golmbach",
    "state_id": 3008,
    "state_code": "NI",
    "country_id": 82,
    "country_code": "DE",
    "latitude": "51.90000000",
    "longitude": "9.55000000",
    "native": null,
    "timezone": null,
    "translations": {}
  },
  {
    "id": 25547,
    "name": "Goslar",
    "state_id": 3008,
    "state_code": "NI",
    "country_id": 82,
    "country_code": "DE",
    "latitude": "51.90425000",
    "longitude": "10.42766000",
    "native": null,
    "timezone": null,
    "translations": {}
  },
  {
    "id": 25788,
    "name": "Göttingen",
    "state_id": 3008,
    "state_code": "NI",
    "country_id": 82,
    "country_code": "DE",
    "latitude": "51.53443000",
    "longitude": "9.93228000",
    "native": null,
    "timezone": null,
    "translations": {}
  },
  {
    "id": 25569,
    "name": "Grafhorst",
    "state_id": 3008,
    "state_code": "NI",
    "country_id": 82,
    "country_code": "DE",
    "latitude": "52.44482000",
    "longitude": "10.94513000",
    "native": null,
    "timezone": null,
    "translations": {}
  },
  {
    "id": 25578,
    "name": "Grasberg",
    "state_id": 3008,
    "state_code": "NI",
    "country_id": 82,
    "country_code": "DE",
    "latitude": "53.18333000",
    "longitude": "8.98333000",
    "native": null,
    "timezone": null,
    "translations": {}
  },
  {
    "id": 25580,
    "name": "Grasleben",
    "state_id": 3008,
    "state_code": "NI",
    "country_id": 82,
    "country_code": "DE",
    "latitude": "52.30638000",
    "longitude": "11.01465000",
    "native": null,
    "timezone": null,
    "translations": {}
  },
  {
    "id": 25615,
    "name": "Gronau",
    "state_id": 3008,
    "state_code": "NI",
    "country_id": 82,
    "country_code": "DE",
    "latitude": "52.08460000",
    "longitude": "9.77678000",
    "native": null,
    "timezone": null,
    "translations": {}
  },
  {
    "id": 25623,
    "name": "Groß Ippener",
    "state_id": 3008,
    "state_code": "NI",
    "country_id": 82,
    "country_code": "DE",
    "latitude": "52.96667000",
    "longitude": "8.61667000",
    "native": null,
    "timezone": null,
    "translations": {}
  },
  {
    "id": 25631,
    "name": "Groß Munzel",
    "state_id": 3008,
    "state_code": "NI",
    "country_id": 82,
    "country_code": "DE",
    "latitude": "52.36554000",
    "longitude": "9.47828000",
    "native": null,
    "timezone": null,
    "translations": {}
  },
  {
    "id": 25633,
    "name": "Groß Oesingen",
    "state_id": 3008,
    "state_code": "NI",
    "country_id": 82,
    "country_code": "DE",
    "latitude": "52.64761000",
    "longitude": "10.46366000",
    "native": null,
    "timezone": null,
    "translations": {}
  },
  {
    "id": 25640,
    "name": "Groß Twülpstedt",
    "state_id": 3008,
    "state_code": "NI",
    "country_id": 82,
    "country_code": "DE",
    "latitude": "52.37361000",
    "longitude": "10.91929000",
    "native": null,
    "timezone": null,
    "translations": {}
  },
  {
    "id": 25665,
    "name": "Großenkneten",
    "state_id": 3008,
    "state_code": "NI",
    "country_id": 82,
    "country_code": "DE",
    "latitude": "52.94377000",
    "longitude": "8.25323000",
    "native": null,
    "timezone": null,
    "translations": {}
  },
  {
    "id": 25672,
    "name": "Großgoltern",
    "state_id": 3008,
    "state_code": "NI",
    "country_id": 82,
    "country_code": "DE",
    "latitude": "52.33261000",
    "longitude": "9.50111000",
    "native": null,
    "timezone": null,
    "translations": {}
  },
  {
    "id": 25738,
    "name": "Grünendeich",
    "state_id": 3008,
    "state_code": "NI",
    "country_id": 82,
    "country_code": "DE",
    "latitude": "53.56952000",
    "longitude": "9.61218000",
    "native": null,
    "timezone": null,
    "translations": {}
  },
  {
    "id": 25750,
    "name": "Guderhandviertel",
    "state_id": 3008,
    "state_code": "NI",
    "country_id": 82,
    "country_code": "DE",
    "latitude": "53.54919000",
    "longitude": "9.60960000",
    "native": null,
    "timezone": null,
    "translations": {}
  },
  {
    "id": 25772,
    "name": "Gyhum",
    "state_id": 3008,
    "state_code": "NI",
    "country_id": 82,
    "country_code": "DE",
    "latitude": "53.21667000",
    "longitude": "9.31667000",
    "native": null,
    "timezone": null,
    "translations": {}
  },
  {
    "id": 25815,
    "name": "Hage",
    "state_id": 3008,
    "state_code": "NI",
    "country_id": 82,
    "country_code": "DE",
    "latitude": "53.60274000",
    "longitude": "7.28527000",
    "native": null,
    "timezone": null,
    "translations": {}
  },
  {
    "id": 25817,
    "name": "Hagen",
    "state_id": 3008,
    "state_code": "NI",
    "country_id": 82,
    "country_code": "DE",
    "latitude": "52.19629000",
    "longitude": "7.98041000",
    "native": null,
    "timezone": null,
    "translations": {}
  },
  {
    "id": 25819,
    "name": "Hagen im Bremischen",
    "state_id": 3008,
    "state_code": "NI",
    "country_id": 82,
    "country_code": "DE",
    "latitude": "53.35707000",
    "longitude": "8.64341000",
    "native": null,
    "timezone": null,
    "translations": {}
  },
  {
    "id": 25821,
    "name": "Hagenburg",
    "state_id": 3008,
    "state_code": "NI",
    "country_id": 82,
    "country_code": "DE",
    "latitude": "52.43367000",
    "longitude": "9.32473000",
    "native": null,
    "timezone": null,
    "translations": {}
  },
  {
    "id": 25843,
    "name": "Halbemond",
    "state_id": 3008,
    "state_code": "NI",
    "country_id": 82,
    "country_code": "DE",
    "latitude": "53.56710000",
    "longitude": "7.29038000",
    "native": null,
    "timezone": null,
    "translations": {}
  },
  {
    "id": 25852,
    "name": "Halle",
    "state_id": 3008,
    "state_code": "NI",
    "country_id": 82,
    "country_code": "DE",
    "latitude": "51.99122000",
    "longitude": "9.56532000",
    "native": null,
    "timezone": null,
    "translations": {}
  },
  {
    "id": 25864,
    "name": "Hambergen",
    "state_id": 3008,
    "state_code": "NI",
    "country_id": 82,
    "country_code": "DE",
    "latitude": "53.30826000",
    "longitude": "8.82520000",
    "native": null,
    "timezone": null,
    "translations": {}
  },
  {
    "id": 25870,
    "name": "Hambühren",
    "state_id": 3008,
    "state_code": "NI",
    "country_id": 82,
    "country_code": "DE",
    "latitude": "52.63333000",
    "longitude": "9.98333000",
    "native": null,
    "timezone": null,
    "translations": {}
  },
  {
    "id": 25872,
    "name": "Hameln",
    "state_id": 3008,
    "state_code": "NI",
    "country_id": 82,
    "country_code": "DE",
    "latitude": "52.10397000",
    "longitude": "9.35623000",
    "native": null,
    "timezone": null,
    "translations": {}
  },
  {
    "id": 25875,
    "name": "Hammah",
    "state_id": 3008,
    "state_code": "NI",
    "country_id": 82,
    "country_code": "DE",
    "latitude": "53.61667000",
    "longitude": "9.36667000",
    "native": null,
    "timezone": null,
    "translations": {}
  },
  {
    "id": 25883,
    "name": "Handeloh",
    "state_id": 3008,
    "state_code": "NI",
    "country_id": 82,
    "country_code": "DE",
    "latitude": "53.24563000",
    "longitude": "9.83923000",
    "native": null,
    "timezone": null,
    "translations": {}
  },
  {
    "id": 25885,
    "name": "Handorf",
    "state_id": 3008,
    "state_code": "NI",
    "country_id": 82,
    "country_code": "DE",
    "latitude": "53.34084000",
    "longitude": "10.34652000",
    "native": null,
    "timezone": null,
    "translations": {}
  },
  {
    "id": 26296,
    "name": "Hänigsen",
    "state_id": 3008,
    "state_code": "NI",
    "country_id": 82,
    "country_code": "DE",
    "latitude": "52.48425000",
    "longitude": "10.09129000",
    "native": null,
    "timezone": null,
    "translations": {}
  },
  {
    "id": 25889,
    "name": "Hankensbüttel",
    "state_id": 3008,
    "state_code": "NI",
    "country_id": 82,
    "country_code": "DE",
    "latitude": "52.73333000",
    "longitude": "10.60000000",
    "native": null,
    "timezone": null,
    "translations": {}
  },
  {
    "id": 25890,
    "name": "Hannover",
    "state_id": 3008,
    "state_code": "NI",
    "country_id": 82,
    "country_code": "DE",
    "latitude": "52.37052000",
    "longitude": "9.73322000",
    "native": null,
    "timezone": null,
    "translations": {}
  },
  {
    "id": 25891,
    "name": "Hannoversch Münden",
    "state_id": 3008,
    "state_code": "NI",
    "country_id": 82,
    "country_code": "DE",
    "latitude": "51.41505000",
    "longitude": "9.65046000",
    "native": null,
    "timezone": null,
    "translations": {}
  },
  {
    "id": 25893,
    "name": "Hanstedt",
    "state_id": 3008,
    "state_code": "NI",
    "country_id": 82,
    "country_code": "DE",
    "latitude": "53.26667000",
    "longitude": "10.01667000",
    "native": null,
    "timezone": null,
    "translations": {}
  },
  {
    "id": 25894,
    "name": "Hanstedt Eins",
    "state_id": 3008,
    "state_code": "NI",
    "country_id": 82,
    "country_code": "DE",
    "latitude": "53.04642000",
    "longitude": "10.37444000",
    "native": null,
    "timezone": null,
    "translations": {}
  },
  {
    "id": 25899,
    "name": "Hardegsen",
    "state_id": 3008,
    "state_code": "NI",
    "country_id": 82,
    "country_code": "DE",
    "latitude": "51.65227000",
    "longitude": "9.83050000",
    "native": null,
    "timezone": null,
    "translations": {}
  },
  {
    "id": 25902,
    "name": "Haren",
    "state_id": 3008,
    "state_code": "NI",
    "country_id": 82,
    "country_code": "DE",
    "latitude": "52.79262000",
    "longitude": "7.24142000",
    "native": null,
    "timezone": null,
    "translations": {}
  },
  {
    "id": 25904,
    "name": "Harpstedt",
    "state_id": 3008,
    "state_code": "NI",
    "country_id": 82,
    "country_code": "DE",
    "latitude": "52.90942000",
    "longitude": "8.58962000",
    "native": null,
    "timezone": null,
    "translations": {}
  },
  {
    "id": 25907,
    "name": "Harsefeld",
    "state_id": 3008,
    "state_code": "NI",
    "country_id": 82,
    "country_code": "DE",
    "latitude": "53.45399000",
    "longitude": "9.50297000",
    "native": null,
    "timezone": null,
    "translations": {}
  },
  {
    "id": 25910,
    "name": "Harsum",
    "state_id": 3008,
    "state_code": "NI",
    "country_id": 82,
    "country_code": "DE",
    "latitude": "52.21045000",
    "longitude": "9.96486000",
    "native": null,
    "timezone": null,
    "translations": {}
  },
  {
    "id": 25920,
    "name": "Hasbergen",
    "state_id": 3008,
    "state_code": "NI",
    "country_id": 82,
    "country_code": "DE",
    "latitude": "52.23754000",
    "longitude": "7.96114000",
    "native": null,
    "timezone": null,
    "translations": {}
  },
  {
    "id": 25927,
    "name": "Haselünne",
    "state_id": 3008,
    "state_code": "NI",
    "country_id": 82,
    "country_code": "DE",
    "latitude": "52.67412000",
    "longitude": "7.48460000",
    "native": null,
    "timezone": null,
    "translations": {}
  },
  {
    "id": 25961,
    "name": "Haßbergen",
    "state_id": 3008,
    "state_code": "NI",
    "country_id": 82,
    "country_code": "DE",
    "latitude": "52.73333000",
    "longitude": "9.23333000",
    "native": null,
    "timezone": null,
    "translations": {}
  },
  {
    "id": 25931,
    "name": "Hassel",
    "state_id": 3008,
    "state_code": "NI",
    "country_id": 82,
    "country_code": "DE",
    "latitude": "52.69688000",
    "longitude": "8.83198000",
    "native": null,
    "timezone": null,
    "translations": {}
  },
  {
    "id": 25933,
    "name": "Hassendorf",
    "state_id": 3008,
    "state_code": "NI",
    "country_id": 82,
    "country_code": "DE",
    "latitude": "53.10859000",
    "longitude": "9.26482000",
    "native": null,
    "timezone": null,
    "translations": {}
  },
  {
    "id": 25934,
    "name": "Haste",
    "state_id": 3008,
    "state_code": "NI",
    "country_id": 82,
    "country_code": "DE",
    "latitude": "52.38105000",
    "longitude": "9.39280000",
    "native": null,
    "timezone": null,
    "translations": {}
  },
  {
    "id": 25935,
    "name": "Hatten",
    "state_id": 3008,
    "state_code": "NI",
    "country_id": 82,
    "country_code": "DE",
    "latitude": "53.05000000",
    "longitude": "8.38333000",
    "native": null,
    "timezone": null,
    "translations": {}
  },
  {
    "id": 25941,
    "name": "Hattorf",
    "state_id": 3008,
    "state_code": "NI",
    "country_id": 82,
    "country_code": "DE",
    "latitude": "51.65035000",
    "longitude": "10.23681000",
    "native": null,
    "timezone": null,
    "translations": {}
  },
  {
    "id": 25957,
    "name": "Haverlah",
    "state_id": 3008,
    "state_code": "NI",
    "country_id": 82,
    "country_code": "DE",
    "latitude": "52.06667000",
    "longitude": "10.16667000",
    "native": null,
    "timezone": null,
    "translations": {}
  },
  {
    "id": 25969,
    "name": "Hechthausen",
    "state_id": 3008,
    "state_code": "NI",
    "country_id": 82,
    "country_code": "DE",
    "latitude": "53.64041000",
    "longitude": "9.23942000",
    "native": null,
    "timezone": null,
    "translations": {}
  },
  {
    "id": 25973,
    "name": "Heede",
    "state_id": 3008,
    "state_code": "NI",
    "country_id": 82,
    "country_code": "DE",
    "latitude": "52.99205000",
    "longitude": "7.29830000",
    "native": null,
    "timezone": null,
    "translations": {}
  },
  {
    "id": 25975,
    "name": "Heemsen",
    "state_id": 3008,
    "state_code": "NI",
    "country_id": 82,
    "country_code": "DE",
    "latitude": "52.70000000",
    "longitude": "9.26667000",
    "native": null,
    "timezone": null,
    "translations": {}
  },
  {
    "id": 25976,
    "name": "Heere",
    "state_id": 3008,
    "state_code": "NI",
    "country_id": 82,
    "country_code": "DE",
    "latitude": "52.06667000",
    "longitude": "10.25000000",
    "native": null,
    "timezone": null,
    "translations": {}
  },
  {
    "id": 25977,
    "name": "Heeslingen",
    "state_id": 3008,
    "state_code": "NI",
    "country_id": 82,
    "country_code": "DE",
    "latitude": "53.31667000",
    "longitude": "9.33333000",
    "native": null,
    "timezone": null,
    "translations": {}
  },
  {
    "id": 25978,
    "name": "Heeßen",
    "state_id": 3008,
    "state_code": "NI",
    "country_id": 82,
    "country_code": "DE",
    "latitude": "52.23211000",
    "longitude": "9.09642000",
    "native": null,
    "timezone": null,
    "translations": {}
  },
  {
    "id": 25979,
    "name": "Hehlen",
    "state_id": 3008,
    "state_code": "NI",
    "country_id": 82,
    "country_code": "DE",
    "latitude": "51.98858000",
    "longitude": "9.47004000",
    "native": null,
    "timezone": null,
    "translations": {}
  },
  {
    "id": 25984,
    "name": "Heidenau",
    "state_id": 3008,
    "state_code": "NI",
    "country_id": 82,
    "country_code": "DE",
    "latitude": "53.31667000",
    "longitude": "9.66667000",
    "native": null,
    "timezone": null,
    "translations": {}
  },
  {
    "id": 26011,
    "name": "Heinade",
    "state_id": 3008,
    "state_code": "NI",
    "country_id": 82,
    "country_code": "DE",
    "latitude": "51.83333000",
    "longitude": "9.63333000",
    "native": null,
    "timezone": null,
    "translations": {}
  },
  {
    "id": 26012,
    "name": "Heinböckel",
    "state_id": 3008,
    "state_code": "NI",
    "country_id": 82,
    "country_code": "DE",
    "latitude": "53.57457000",
    "longitude": "9.32644000",
    "native": null,
    "timezone": null,
    "translations": {}
  },
  {
    "id": 26016,
    "name": "Heinsen",
    "state_id": 3008,
    "state_code": "NI",
    "country_id": 82,
    "country_code": "DE",
    "latitude": "52.06257000",
    "longitude": "9.66316000",
    "native": null,
    "timezone": null,
    "translations": {}
  },
  {
    "id": 26028,
    "name": "Hellwege",
    "state_id": 3008,
    "state_code": "NI",
    "country_id": 82,
    "country_code": "DE",
    "latitude": "53.07346000",
    "longitude": "9.23566000",
    "native": null,
    "timezone": null,
    "translations": {}
  },
  {
    "id": 26032,
    "name": "Helmstedt",
    "state_id": 3008,
    "state_code": "NI",
    "country_id": 82,
    "country_code": "DE",
    "latitude": "52.22790000",
    "longitude": "11.00985000",
    "native": null,
    "timezone": null,
    "translations": {}
  },
  {
    "id": 26033,
    "name": "Helpsen",
    "state_id": 3008,
    "state_code": "NI",
    "country_id": 82,
    "country_code": "DE",
    "latitude": "52.31131000",
    "longitude": "9.11676000",
    "native": null,
    "timezone": null,
    "translations": {}
  },
  {
    "id": 26040,
    "name": "Hemmingen",
    "state_id": 3008,
    "state_code": "NI",
    "country_id": 82,
    "country_code": "DE",
    "latitude": "52.31425000",
    "longitude": "9.72359000",
    "native": null,
    "timezone": null,
    "translations": {}
  },
  {
    "id": 26043,
    "name": "Hemmoor",
    "state_id": 3008,
    "state_code": "NI",
    "country_id": 82,
    "country_code": "DE",
    "latitude": "53.68702000",
    "longitude": "9.15492000",
    "native": null,
    "timezone": null,
    "translations": {}
  },
  {
    "id": 26045,
    "name": "Hemsbünde",
    "state_id": 3008,
    "state_code": "NI",
    "country_id": 82,
    "country_code": "DE",
    "latitude": "53.08998000",
    "longitude": "9.47261000",
    "native": null,
    "timezone": null,
    "translations": {}
  },
  {
    "id": 26046,
    "name": "Hemslingen",
    "state_id": 3008,
    "state_code": "NI",
    "country_id": 82,
    "country_code": "DE",
    "latitude": "53.08333000",
    "longitude": "9.60000000",
    "native": null,
    "timezone": null,
    "translations": {}
  },
  {
    "id": 26056,
    "name": "Hepstedt",
    "state_id": 3008,
    "state_code": "NI",
    "country_id": 82,
    "country_code": "DE",
    "latitude": "53.25874000",
    "longitude": "9.08209000",
    "native": null,
    "timezone": null,
    "translations": {}
  },
  {
    "id": 26075,
    "name": "Hermannsburg",
    "state_id": 3008,
    "state_code": "NI",
    "country_id": 82,
    "country_code": "DE",
    "latitude": "52.83254000",
    "longitude": "10.08957000",
    "native": null,
    "timezone": null,
    "translations": {}
  },
  {
    "id": 26099,
    "name": "Herzberg am Harz",
    "state_id": 3008,
    "state_code": "NI",
    "country_id": 82,
    "country_code": "DE",
    "latitude": "51.65546000",
    "longitude": "10.33938000",
    "native": null,
    "timezone": null,
    "translations": {}
  },
  {
    "id": 26101,
    "name": "Herzlake",
    "state_id": 3008,
    "state_code": "NI",
    "country_id": 82,
    "country_code": "DE",
    "latitude": "52.68530000",
    "longitude": "7.59946000",
    "native": null,
    "timezone": null,
    "translations": {}
  },
  {
    "id": 26104,
    "name": "Hesel",
    "state_id": 3008,
    "state_code": "NI",
    "country_id": 82,
    "country_code": "DE",
    "latitude": "53.30000000",
    "longitude": "7.60000000",
    "native": null,
    "timezone": null,
    "translations": {}
  },
  {
    "id": 26105,
    "name": "Hespe",
    "state_id": 3008,
    "state_code": "NI",
    "country_id": 82,
    "country_code": "DE",
    "latitude": "52.32999000",
    "longitude": "9.10818000",
    "native": null,
    "timezone": null,
    "translations": {}
  },
  {
    "id": 26108,
    "name": "Hessisch Oldendorf",
    "state_id": 3008,
    "state_code": "NI",
    "country_id": 82,
    "country_code": "DE",
    "latitude": "52.17269000",
    "longitude": "9.24913000",
    "native": null,
    "timezone": null,
    "translations": {}
  },
  {
    "id": 26122,
    "name": "Heuerßen",
    "state_id": 3008,
    "state_code": "NI",
    "country_id": 82,
    "country_code": "DE",
    "latitude": "52.32946000",
    "longitude": "9.27718000",
    "native": null,
    "timezone": null,
    "translations": {}
  },
  {
    "id": 26127,
    "name": "Heyersum",
    "state_id": 3008,
    "state_code": "NI",
    "country_id": 82,
    "country_code": "DE",
    "latitude": "52.15678000",
    "longitude": "9.81265000",
    "native": null,
    "timezone": null,
    "translations": {}
  },
  {
    "id": 26137,
    "name": "Hildesheim",
    "state_id": 3008,
    "state_code": "NI",
    "country_id": 82,
    "country_code": "DE",
    "latitude": "52.15077000",
    "longitude": "9.95112000",
    "native": null,
    "timezone": null,
    "translations": {}
  },
  {
    "id": 26139,
    "name": "Hilgermissen",
    "state_id": 3008,
    "state_code": "NI",
    "country_id": 82,
    "country_code": "DE",
    "latitude": "52.85000000",
    "longitude": "9.16667000",
    "native": null,
    "timezone": null,
    "translations": {}
  },
  {
    "id": 26143,
    "name": "Hillerse",
    "state_id": 3008,
    "state_code": "NI",
    "country_id": 82,
    "country_code": "DE",
    "latitude": "51.68558000",
    "longitude": "9.94973000",
    "native": null,
    "timezone": null,
    "translations": {}
  },
  {
    "id": 26148,
    "name": "Hilter",
    "state_id": 3008,
    "state_code": "NI",
    "country_id": 82,
    "country_code": "DE",
    "latitude": "52.13573000",
    "longitude": "8.14715000",
    "native": null,
    "timezone": null,
    "translations": {}
  },
  {
    "id": 26151,
    "name": "Himbergen",
    "state_id": 3008,
    "state_code": "NI",
    "country_id": 82,
    "country_code": "DE",
    "latitude": "53.09418000",
    "longitude": "10.72909000",
    "native": null,
    "timezone": null,
    "translations": {}
  },
  {
    "id": 26153,
    "name": "Himmelpforten",
    "state_id": 3008,
    "state_code": "NI",
    "country_id": 82,
    "country_code": "DE",
    "latitude": "53.61413000",
    "longitude": "9.30516000",
    "native": null,
    "timezone": null,
    "translations": {}
  },
  {
    "id": 26155,
    "name": "Hinte",
    "state_id": 3008,
    "state_code": "NI",
    "country_id": 82,
    "country_code": "DE",
    "latitude": "53.41667000",
    "longitude": "7.18333000",
    "native": null,
    "timezone": null,
    "translations": {}
  },
  {
    "id": 26159,
    "name": "Hipstedt",
    "state_id": 3008,
    "state_code": "NI",
    "country_id": 82,
    "country_code": "DE",
    "latitude": "53.48333000",
    "longitude": "8.96667000",
    "native": null,
    "timezone": null,
    "translations": {}
  },
  {
    "id": 26170,
    "name": "Hitzacker",
    "state_id": 3008,
    "state_code": "NI",
    "country_id": 82,
    "country_code": "DE",
    "latitude": "53.15254000",
    "longitude": "11.04418000",
    "native": null,
    "timezone": null,
    "translations": {}
  },
  {
    "id": 26183,
    "name": "Hodenhagen",
    "state_id": 3008,
    "state_code": "NI",
    "country_id": 82,
    "country_code": "DE",
    "latitude": "52.76506000",
    "longitude": "9.59495000",
    "native": null,
    "timezone": null,
    "translations": {}
  },
  {
    "id": 26206,
    "name": "Hohenhameln",
    "state_id": 3008,
    "state_code": "NI",
    "country_id": 82,
    "country_code": "DE",
    "latitude": "52.25755000",
    "longitude": "10.06416000",
    "native": null,
    "timezone": null,
    "translations": {}
  },
  {
    "id": 26225,
    "name": "Hohnhorst",
    "state_id": 3008,
    "state_code": "NI",
    "country_id": 82,
    "country_code": "DE",
    "latitude": "52.36942000",
    "longitude": "9.37168000",
    "native": null,
    "timezone": null,
    "translations": {}
  },
  {
    "id": 26228,
    "name": "Holdorf",
    "state_id": 3008,
    "state_code": "NI",
    "country_id": 82,
    "country_code": "DE",
    "latitude": "52.58333000",
    "longitude": "8.11667000",
    "native": null,
    "timezone": null,
    "translations": {}
  },
  {
    "id": 26229,
    "name": "Holle",
    "state_id": 3008,
    "state_code": "NI",
    "country_id": 82,
    "country_code": "DE",
    "latitude": "52.08721000",
    "longitude": "10.16012000",
    "native": null,
    "timezone": null,
    "translations": {}
  },
  {
    "id": 26232,
    "name": "Hollenstedt",
    "state_id": 3008,
    "state_code": "NI",
    "country_id": 82,
    "country_code": "DE",
    "latitude": "53.36667000",
    "longitude": "9.71667000",
    "native": null,
    "timezone": null,
    "translations": {}
  },
  {
    "id": 26238,
    "name": "Holtland",
    "state_id": 3008,
    "state_code": "NI",
    "country_id": 82,
    "country_code": "DE",
    "latitude": "53.28333000",
    "longitude": "7.58333000",
    "native": null,
    "timezone": null,
    "translations": {}
  },
  {
    "id": 26248,
    "name": "Holzminden",
    "state_id": 3008,
    "state_code": "NI",
    "country_id": 82,
    "country_code": "DE",
    "latitude": "51.82798000",
    "longitude": "9.44550000",
    "native": null,
    "timezone": null,
    "translations": {}
  },
  {
    "id": 26253,
    "name": "Hoogstede",
    "state_id": 3008,
    "state_code": "NI",
    "country_id": 82,
    "country_code": "DE",
    "latitude": "52.58333000",
    "longitude": "6.95000000",
    "native": null,
    "timezone": null,
    "translations": {}
  },
  {
    "id": 26316,
    "name": "Hörden",
    "state_id": 3008,
    "state_code": "NI",
    "country_id": 82,
    "country_code": "DE",
    "latitude": "51.66835000",
    "longitude": "10.28372000",
    "native": null,
    "timezone": null,
    "translations": {}
  },
  {
    "id": 26267,
    "name": "Hornburg",
    "state_id": 3008,
    "state_code": "NI",
    "country_id": 82,
    "country_code": "DE",
    "latitude": "52.03095000",
    "longitude": "10.60490000",
    "native": null,
    "timezone": null,
    "translations": {}
  },
  {
    "id": 26268,
    "name": "Horneburg",
    "state_id": 3008,
    "state_code": "NI",
    "country_id": 82,
    "country_code": "DE",
    "latitude": "53.50672000",
    "longitude": "9.57546000",
    "native": null,
    "timezone": null,
    "translations": {}
  },
  {
    "id": 26273,
    "name": "Horstedt",
    "state_id": 3008,
    "state_code": "NI",
    "country_id": 82,
    "country_code": "DE",
    "latitude": "53.18333000",
    "longitude": "9.23333000",
    "native": null,
    "timezone": null,
    "translations": {}
  },
  {
    "id": 26276,
    "name": "Hoya",
    "state_id": 3008,
    "state_code": "NI",
    "country_id": 82,
    "country_code": "DE",
    "latitude": "52.80781000",
    "longitude": "9.14028000",
    "native": null,
    "timezone": null,
    "translations": {}
  },
  {
    "id": 26279,
    "name": "Hude",
    "state_id": 3008,
    "state_code": "NI",
    "country_id": 82,
    "country_code": "DE",
    "latitude": "53.10766000",
    "longitude": "8.46322000",
    "native": null,
    "timezone": null,
    "translations": {}
  },
  {
    "id": 26280,
    "name": "Huede",
    "state_id": 3008,
    "state_code": "NI",
    "country_id": 82,
    "country_code": "DE",
    "latitude": "52.49588000",
    "longitude": "8.35804000",
    "native": null,
    "timezone": null,
    "translations": {}
  },
  {
    "id": 26336,
    "name": "Hülsede",
    "state_id": 3008,
    "state_code": "NI",
    "country_id": 82,
    "country_code": "DE",
    "latitude": "52.24951000",
    "longitude": "9.36147000",
    "native": null,
    "timezone": null,
    "translations": {}
  },