[
  {
    "id": 39241,
    "name": "Ablon",
    "state_id": 4804,
    "state_code": "NOR",
    "country_id": 75,
    "country_code": "FR",
    "latitude": "49.39214000",
    "longitude": "0.29584000",
    "native": null,
    "timezone": null,
    "translations": {}
  },
  {
    "id": 39255,
    "name": "Acquigny",
    "state_id": 4804,
    "state_code": "NOR",
    "country_id": 75,
    "country_code": "FR",
    "latitude": "49.17350000",
    "longitude": "1.17650000",
    "native": null,
    "timezone": null,
    "translations": {}
  },
  {
    "id": 39259,
    "name": "Agneaux",
    "state_id": 4804,
    "state_code": "NOR",
    "country_id": 75,
    "country_code": "FR",
    "latitude": "49.11905000",
    "longitude": "-1.10610000",
    "native": null,
    "timezone": null,
    "translations": {}
  },
  {
    "id": 39262,
    "name": "Agon-Coutainville",
    "state_id": 4804,
    "state_code": "NOR",
    "country_id": 75,
    "country_code": "FR",
    "latitude": "49.04167000",
    "longitude": "-1.57500000",
    "native": null,
    "timezone": null,
    "translations": {}
  },
  {
    "id": 39310,
    "name": "Alençon",
    "state_id": 4804,
    "state_code": "NOR",
    "country_id": 75,
    "country_code": "FR",
    "latitude": "48.43476000",
    "longitude": "0.09311000",
    "native": null,
    "timezone": null,
    "translations": {}
  },
  {
    "id": 39317,
    "name": "Alizay",
    "state_id": 4804,
    "state_code": "NOR",
    "country_id": 75,
    "country_code": "FR",
    "latitude": "49.32158000",
    "longitude": "1.17854000",
    "native": null,
    "timezone": null,
    "translations": {}
  },
  {
    "id": 39362,
    "name": "Amfreville",
    "state_id": 4804,
    "state_code": "NOR",
    "country_id": 75,
    "country_code": "FR",
    "latitude": "49.25000000",
    "longitude": "-0.23333000",
    "native": null,
    "timezone": null,
    "translations": {}
  },
  {
    "id": 39363,
    "name": "Amfreville-la-Mi-Voie",
    "state_id": 4804,
    "state_code": "NOR",
    "country_id": 75,
    "country_code": "FR",
    "latitude": "49.40755000",
    "longitude": "1.13871000",
    "native": null,
    "timezone": null,
    "translations": {}
  },
  {
    "id": 39393,
    "name": "Andé",
    "state_id": 4804,
    "state_code": "NOR",
    "country_id": 75,
    "country_code": "FR",
    "latitude": "49.23163000",
    "longitude": "1.24088000",
    "native": null,
    "timezone": null,
    "translations": {}
  },
  {
    "id": 39398,
    "name": "Angerville-l’Orcher",
    "state_id": 4804,
    "state_code": "NOR",
    "country_id": 75,
    "country_code": "FR",
    "latitude": "49.58833000",
    "longitude": "0.28191000",
    "native": null,
    "timezone": null,
    "translations": {}
  },
  {
    "id": 39477,
    "name": "Argences",
    "state_id": 4804,
    "state_code": "NOR",
    "country_id": 75,
    "country_code": "FR",
    "latitude": "49.12635000",
    "longitude": "-0.16644000",
    "native": null,
    "timezone": null,
    "translations": {}
  },
  {
    "id": 39479,
    "name": "Argentan",
    "state_id": 4804,
    "state_code": "NOR",
    "country_id": 75,
    "country_code": "FR",
    "latitude": "48.74441000",
    "longitude": "-0.02023000",
    "native": null,
    "timezone": null,
    "translations": {}
  },
  {
    "id": 39502,
    "name": "Arnières-sur-Iton",
    "state_id": 4804,
    "state_code": "NOR",
    "country_id": 75,
    "country_code": "FR",
    "latitude": "48.99678000",
    "longitude": "1.10384000",
    "native": null,
    "timezone": null,
    "translations": {}
  },
  {
    "id": 39509,
    "name": "Arques-la-Bataille",
    "state_id": 4804,
    "state_code": "NOR",
    "country_id": 75,
    "country_code": "FR",
    "latitude": "49.88122000",
    "longitude": "1.12875000",
    "native": null,
    "timezone": null,
    "translations": {}
  },
  {
    "id": 39558,
    "name": "Athis-de-l'Orne",
    "state_id": 4804,
    "state_code": "NOR",
    "country_id": 75,
    "country_code": "FR",
    "latitude": "48.81667000",
    "longitude": "-0.50000000",
    "native": null,
    "timezone": null,
    "translations": {}
  },
  {
    "id": 39568,
    "name": "Aube-sur-Rîle",
    "state_id": 4804,
    "state_code": "NOR",
    "country_id": 75,
    "country_code": "FR",
    "latitude": "48.73920000",
    "longitude": "0.55161000",
    "native": null,
    "timezone": null,
    "translations": {}
  },
  {
    "id": 39575,
    "name": "Aubevoye",
    "state_id": 4804,
    "state_code": "NOR",
    "country_id": 75,
    "country_code": "FR",
    "latitude": "49.17097000",
    "longitude": "1.33537000",
    "native": null,
    "timezone": null,
    "translations": {}
  },
  {
    "id": 39603,
    "name": "Auffay",
    "state_id": 4804,
    "state_code": "NOR",
    "country_id": 75,
    "country_code": "FR",
    "latitude": "49.71881000",
    "longitude": "1.09911000",
    "native": null,
    "timezone": null,
    "translations": {}
  },
  {
    "id": 39615,
    "name": "Aumale",
    "state_id": 4804,
    "state_code": "NOR",
    "country_id": 75,
    "country_code": "FR",
    "latitude": "49.76985000",
    "longitude": "1.75587000",
    "native": null,
    "timezone": null,
    "translations": {}
  },
  {
    "id": 39619,
    "name": "Aunay-sur-Odon",
    "state_id": 4804,
    "state_code": "NOR",
    "country_id": 75,
    "country_code": "FR",
    "latitude": "49.02012000",
    "longitude": "-0.63238000",
    "native": null,
    "timezone": null,
    "translations": {}
  },
  {
    "id": 39635,
    "name": "Authie",
    "state_id": 4804,
    "state_code": "NOR",
    "country_id": 75,
    "country_code": "FR",
    "latitude": "49.20615000",
    "longitude": "-0.43191000",
    "native": null,
    "timezone": null,
    "translations": {}
  },
  {
    "id": 39651,
    "name": "Auzebosc",
    "state_id": 4804,
    "state_code": "NOR",
    "country_id": 75,
    "country_code": "FR",
    "latitude": "49.59565000",
    "longitude": "0.72850000",
    "native": null,
    "timezone": null,
    "translations": {}
  },
  {
    "id": 39673,
    "name": "Aviron",
    "state_id": 4804,
    "state_code": "NOR",
    "country_id": 75,
    "country_code": "FR",
    "latitude": "49.05000000",
    "longitude": "1.11667000",
    "native": null,
    "timezone": null,
    "translations": {}
  },
  {
    "id": 39678,
    "name": "Avranches",
    "state_id": 4804,
    "state_code": "NOR",
    "country_id": 75,
    "country_code": "FR",
    "latitude": "48.68436000",
    "longitude": "-1.35686000",
    "native": null,
    "timezone": null,
    "translations": {}
  },
  {
    "id": 39702,
    "name": "Bacqueville-en-Caux",
    "state_id": 4804,
    "state_code": "NOR",
    "country_id": 75,
    "country_code": "FR",
    "latitude": "49.78761000",
    "longitude": "0.99927000",
    "native": null,
    "timezone": null,
    "translations": {}
  },
  {
    "id": 39710,
    "name": "Bagnoles-de-l'Orne",
    "state_id": 4804,
    "state_code": "NOR",
    "country_id": 75,
    "country_code": "FR",
    "latitude": "48.55720000",
    "longitude": "-0.41383000",
    "native": null,
    "timezone": null,
    "translations": {}
  },
  {
    "id": 39781,
    "name": "Barentin",
    "state_id": 4804,
    "state_code": "NOR",
    "country_id": 75,
    "country_code": "FR",
    "latitude": "49.54533000",
    "longitude": "0.95515000",
    "native": null,
    "timezone": null,
    "translations": {}
  },
  {
    "id": 39782,
    "name": "Barenton",
    "state_id": 4804,
    "state_code": "NOR",
    "country_id": 75,
    "country_code": "FR",
    "latitude": "48.60027000",
    "longitude": "-0.83258000",
    "native": null,
    "timezone": null,
    "translations": {}
  },
  {
    "id": 39788,
    "name": "Barneville-Carteret",
    "state_id": 4804,
    "state_code": "NOR",
    "country_id": 75,
    "country_code": "FR",
    "latitude": "49.38333000",
    "longitude": "-1.75000000",
    "native": null,
    "timezone": null,
    "translations": {}
  },
  {
    "id": 39789,
    "name": "Barneville-Plage",
    "state_id": 4804,
    "state_code": "NOR",
    "country_id": 75,
    "country_code": "FR",
    "latitude": "49.36786000",
    "longitude": "-1.76512000",
    "native": null,
    "timezone": null,
    "translations": {}
  },
  {
    "id": 39819,
    "name": "Bavent",
    "state_id": 4804,
    "state_code": "NOR",
    "country_id": 75,
    "country_code": "FR",
    "latitude": "49.22996000",
    "longitude": "-0.18675000",
    "native": null,
    "timezone": null,
    "translations": {}
  },
  {
    "id": 39822,
    "name": "Bayeux",
    "state_id": 4804,
    "state_code": "NOR",
    "country_id": 75,
    "country_code": "FR",
    "latitude": "49.27732000",
    "longitude": "-0.70390000",
    "native": null,
    "timezone": null,
    "translations": {}
  },
  {
    "id": 39861,
    "name": "Beaumont-Hague",
    "state_id": 4804,
    "state_code": "NOR",
    "country_id": 75,
    "country_code": "FR",
    "latitude": "49.66387000",
    "longitude": "-1.83822000",
    "native": null,
    "timezone": null,
    "translations": {}
  },
  {
    "id": 39869,
    "name": "Beaumont-le-Roger",
    "state_id": 4804,
    "state_code": "NOR",
    "country_id": 75,
    "country_code": "FR",
    "latitude": "49.07839000",
    "longitude": "0.78081000",
    "native": null,
    "timezone": null,
    "translations": {}
  },
  {
    "id": 39902,
    "name": "Belbeuf",
    "state_id": 4804,
    "state_code": "NOR",
    "country_id": 75,
    "country_code": "FR",
    "latitude": "49.38766000",
    "longitude": "1.14245000",
    "native": null,
    "timezone": null,
    "translations": {}
  },
  {
    "id": 39931,
    "name": "Bellême",
    "state_id": 4804,
    "state_code": "NOR",
    "country_id": 75,
    "country_code": "FR",
    "latitude": "48.37329000",
    "longitude": "0.57005000",
    "native": null,
    "timezone": null,
    "translations": {}
  },
  {
    "id": 39918,
    "name": "Bellengreville",
    "state_id": 4804,
    "state_code": "NOR",
    "country_id": 75,
    "country_code": "FR",
    "latitude": "49.12425000",
    "longitude": "-0.20961000",
    "native": null,
    "timezone": null,
    "translations": {}
  },
  {
    "id": 40426,
    "name": "Bénouville",
    "state_id": 4804,
    "state_code": "NOR",
    "country_id": 75,
    "country_code": "FR",
    "latitude": "49.24151000",
    "longitude": "-0.28246000",
    "native": null,
    "timezone": null,
    "translations": {}
  },
  {
    "id": 39952,
    "name": "Bernay",
    "state_id": 4804,
    "state_code": "NOR",
    "country_id": 75,
    "country_code": "FR",
    "latitude": "49.08888000",
    "longitude": "0.59858000",
    "native": null,
    "timezone": null,
    "translations": {}
  },
  {
    "id": 39954,
    "name": "Berneval-le-Grand",
    "state_id": 4804,
    "state_code": "NOR",
    "country_id": 75,
    "country_code": "FR",
    "latitude": "49.95328000",
    "longitude": "1.18755000",
    "native": null,
    "timezone": null,
    "translations": {}
  },
  {
    "id": 39957,
    "name": "Bernières-sur-Mer",
    "state_id": 4804,
    "state_code": "NOR",
    "country_id": 75,
    "country_code": "FR",
    "latitude": "49.33057000",
    "longitude": "-0.42299000",
    "native": null,
    "timezone": null,
    "translations": {}
  },
  {
    "id": 39990,
    "name": "Beuville",
    "state_id": 4804,
    "state_code": "NOR",
    "country_id": 75,
    "country_code": "FR",
    "latitude": "49.24364000",
    "longitude": "-0.32585000",
    "native": null,
    "timezone": null,
    "translations": {}
  },
  {
    "id": 39991,
    "name": "Beuvillers",
    "state_id": 4804,
    "state_code": "NOR",
    "country_id": 75,
    "country_code": "FR",
    "latitude": "49.12961000",
    "longitude": "0.25492000",
    "native": null,
    "timezone": null,
    "translations": {}
  },
  {
    "id": 39995,
    "name": "Beuzeville",
    "state_id": 4804,
    "state_code": "NOR",
    "country_id": 75,
    "country_code": "FR",
    "latitude": "49.34483000",
    "longitude": "0.34254000",
    "native": null,
    "timezone": null,
    "translations": {}
  },
  {
    "id": 39996,
    "name": "Beuzeville-la-Grenier",
    "state_id": 4804,
    "state_code": "NOR",
    "country_id": 75,
    "country_code": "FR",
    "latitude": "49.59157000",
    "longitude": "0.42684000",
    "native": null,
    "timezone": null,
    "translations": {}
  },
  {
    "id": 40437,
    "name": "Bézu-Saint-Éloi",
    "state_id": 4804,
    "state_code": "NOR",
    "country_id": 75,
    "country_code": "FR",
    "latitude": "49.29524000",
    "longitude": "1.70404000",
    "native": null,
    "timezone": null,
    "translations": {}
  },
  {
    "id": 40041,
    "name": "Biéville-Beuville",
    "state_id": 4804,
    "state_code": "NOR",
    "country_id": 75,
    "country_code": "FR",
    "latitude": "49.24293000",
    "longitude": "-0.32762000",
    "native": null,
    "timezone": null,
    "translations": {}
  },
  {
    "id": 40019,
    "name": "Bihorel",
    "state_id": 4804,
    "state_code": "NOR",
    "country_id": 75,
    "country_code": "FR",
    "latitude": "49.45468000",
    "longitude": "1.12230000",
    "native": null,
    "timezone": null,
    "translations": {}
  },
  {
    "id": 40048,
    "name": "Blainville-Crevon",
    "state_id": 4804,
    "state_code": "NOR",
    "country_id": 75,
    "country_code": "FR",
    "latitude": "49.50395000",
    "longitude": "1.29952000",
    "native": null,
    "timezone": null,
    "translations": {}
  },
  {
    "id": 40049,
    "name": "Blainville-sur-Mer",
    "state_id": 4804,
    "state_code": "NOR",
    "country_id": 75,
    "country_code": "FR",
    "latitude": "49.06599000",
    "longitude": "-1.58340000",
    "native": null,
    "timezone": null,
    "translations": {}
  },
  {
    "id": 40050,
    "name": "Blainville-sur-Orne",
    "state_id": 4804,
    "state_code": "NOR",
    "country_id": 75,
    "country_code": "FR",
    "latitude": "49.22913000",
    "longitude": "-0.30061000",
    "native": null,
    "timezone": null,
    "translations": {}
  },
  {
    "id": 40054,
    "name": "Blangy-sur-Bresle",
    "state_id": 4804,
    "state_code": "NOR",
    "country_id": 75,
    "country_code": "FR",
    "latitude": "49.93211000",
    "longitude": "1.62514000",
    "native": null,
    "timezone": null,
    "translations": {}
  },
  {
    "id": 40070,
    "name": "Blonville-sur-Mer",
    "state_id": 4804,
    "state_code": "NOR",
    "country_id": 75,
    "country_code": "FR",
    "latitude": "49.33709000",
    "longitude": "0.02709000",
    "native": null,
    "timezone": null,
    "translations": {}
  },
  {
    "id": 40086,
    "name": "Bois-Guillaume",
    "state_id": 4804,
    "state_code": "NOR",
    "country_id": 75,
    "country_code": "FR",
    "latitude": "49.46020000",
    "longitude": "1.12219000",
    "native": null,
    "timezone": null,
    "translations": {}
  },
  {
    "id": 40102,
    "name": "Bolbec",
    "state_id": 4804,
    "state_code": "NOR",
    "country_id": 75,
    "country_code": "FR",
    "latitude": "49.57321000",
    "longitude": "0.47339000",
    "native": null,
    "timezone": null,
    "translations": {}
  },
  {
    "id": 40134,
    "name": "Boos",
    "state_id": 4804,
    "state_code": "NOR",
    "country_id": 75,
    "country_code": "FR",
    "latitude": "49.38849000",
    "longitude": "1.20348000",
    "native": null,
    "timezone": null,
    "translations": {}
  },
  {
    "id": 40144,
    "name": "Bosc-le-Hard",
    "state_id": 4804,
    "state_code": "NOR",
    "country_id": 75,
    "country_code": "FR",
    "latitude": "49.62734000",
    "longitude": "1.17483000",
    "native": null,
    "timezone": null,
    "translations": {}
  },
  {
    "id": 40186,
    "name": "Bourg-Achard",
    "state_id": 4804,
    "state_code": "NOR",
    "country_id": 75,
    "country_code": "FR",
    "latitude": "49.35322000",
    "longitude": "0.81623000",
    "native": null,
    "timezone": null,
    "translations": {}
  },
  {
    "id": 40205,
    "name": "Bourgtheroulde-Infreville",
    "state_id": 4804,
    "state_code": "NOR",
    "country_id": 75,
    "country_code": "FR",
    "latitude": "49.30000000",
    "longitude": "0.88333000",
    "native": null,
    "timezone": null,
    "translations": {}
  },
  {
    "id": 40207,
    "name": "Bourguébus",
    "state_id": 4804,
    "state_code": "NOR",
    "country_id": 75,
    "country_code": "FR",
    "latitude": "49.12187000",
    "longitude": "-0.29786000",
    "native": null,
    "timezone": null,
    "translations": {}
  },
  {
    "id": 40213,
    "name": "Bourth",
    "state_id": 4804,
    "state_code": "NOR",
    "country_id": 75,
    "country_code": "FR",
    "latitude": "48.76846000",
    "longitude": "0.80911000",
    "native": null,
    "timezone": null,
    "translations": {}
  },
  {
    "id": 40229,
    "name": "Bouville",
    "state_id": 4804,
    "state_code": "NOR",
    "country_id": 75,
    "country_code": "FR",
    "latitude": "49.56193000",
    "longitude": "0.89514000",
    "native": null,
    "timezone": null,
    "translations": {}
  },
  {
    "id": 40355,
    "name": "Bréauté",
    "state_id": 4804,
    "state_code": "NOR",
    "country_id": 75,
    "country_code": "FR",
    "latitude": "49.62805000",
    "longitude": "0.40005000",
    "native": null,
    "timezone": null,
    "translations": {}
  },
  {
    "id": 40356,
    "name": "Brécey",
    "state_id": 4804,
    "state_code": "NOR",
    "country_id": 75,
    "country_code": "FR",
    "latitude": "48.72413000",
    "longitude": "-1.16647000",
    "native": null,
    "timezone": null,
    "translations": {}
  },
  {
    "id": 40358,
    "name": "Bréhal",
    "state_id": 4804,
    "state_code": "NOR",
    "country_id": 75,
    "country_code": "FR",
    "latitude": "48.89915000",
    "longitude": "-1.51225000",
    "native": null,
    "timezone": null,
    "translations": {}
  },
  {
    "id": 40282,
    "name": "Breteuil",
    "state_id": 4804,
    "state_code": "NOR",
    "country_id": 75,
    "country_code": "FR",
    "latitude": "48.83333000",
    "longitude": "0.91667000",
    "native": null,
    "timezone": null,
    "translations": {}
  },
  {
    "id": 40285,
    "name": "Bretoncelles",
    "state_id": 4804,
    "state_code": "NOR",
    "country_id": 75,
    "country_code": "FR",
    "latitude": "48.43122000",
    "longitude": "0.88775000",
    "native": null,
    "timezone": null,
    "translations": {}
  },
  {
    "id": 40287,
    "name": "Bretteville",
    "state_id": 4804,
    "state_code": "NOR",
    "country_id": 75,
    "country_code": "FR",
    "latitude": "49.65440000",
    "longitude": "-1.52884000",
    "native": null,
    "timezone": null,
    "translations": {}
  },
  {
    "id": 40288,
    "name": "Bretteville-du-Grand-Caux",
    "state_id": 4804,
    "state_code": "NOR",
    "country_id": 75,
    "country_code": "FR",
    "latitude": "49.66667000",
    "longitude": "0.40000000",
    "native": null,
    "timezone": null,
    "translations": {}
  },
  {
    "id": 40289,
    "name": "Bretteville-l’Orgueilleuse",
    "state_id": 4804,
    "state_code": "NOR",
    "country_id": 75,
    "country_code": "FR",
    "latitude": "49.21189000",
    "longitude": "-0.51428000",
    "native": null,
    "timezone": null,
    "translations": {}
  },
  {
    "id": 40290,
    "name": "Bretteville-sur-Laize",
    "state_id": 4804,
    "state_code": "NOR",
    "country_id": 75,
    "country_code": "FR",
    "latitude": "49.04466000",
    "longitude": "-0.32639000",
    "native": null,
    "timezone": null,
    "translations": {}
  },
  {
    "id": 40291,
    "name": "Bretteville-sur-Odon",
    "state_id": 4804,
    "state_code": "NOR",
    "country_id": 75,
    "country_code": "FR",
    "latitude": "49.16627000",
    "longitude": "-0.41662000",
    "native": null,
    "timezone": null,
    "translations": {}
  },
  {
    "id": 40297,
    "name": "Breuilpont",
    "state_id": 4804,
    "state_code": "NOR",
    "country_id": 75,
    "country_code": "FR",
    "latitude": "48.96398000",
    "longitude": "1.42919000",
    "native": null,
    "timezone": null,
    "translations": {}
  },
  {
    "id": 40303,
    "name": "Bricquebec",
    "state_id": 4804,
    "state_code": "NOR",
    "country_id": 75,
    "country_code": "FR",
    "latitude": "49.47008000",
    "longitude": "-1.63254000",
    "native": null,
    "timezone": null,
    "translations": {}
  },
  {
    "id": 40320,
    "name": "Brionne",
    "state_id": 4804,
    "state_code": "NOR",
    "country_id": 75,
    "country_code": "FR",
    "latitude": "49.19553000",
    "longitude": "0.71510000",
    "native": null,
    "timezone": null,
    "translations": {}
  },
  {
    "id": 40323,
    "name": "Briouze",
    "state_id": 4804,
    "state_code": "NOR",
    "country_id": 75,
    "country_code": "FR",
    "latitude": "48.69848000",
    "longitude": "-0.36806000",
    "native": null,
    "timezone": null,
    "translations": {}
  },
  {
    "id": 40329,
    "name": "Brix",
    "state_id": 4804,
    "state_code": "NOR",
    "country_id": 75,
    "country_code": "FR",
    "latitude": "49.54512000",
    "longitude": "-1.58012000",
    "native": null,
    "timezone": null,
    "translations": {}
  },
  {
    "id": 40331,
    "name": "Broglie",
    "state_id": 4804,
    "state_code": "NOR",
    "country_id": 75,
    "country_code": "FR",
    "latitude": "49.00911000",
    "longitude": "0.52915000",
    "native": null,
    "timezone": null,
    "translations": {}
  },
  {
    "id": 40370,
    "name": "Buchy",
    "state_id": 4804,
    "state_code": "NOR",
    "country_id": 75,
    "country_code": "FR",
    "latitude": "49.58513000",
    "longitude": "1.35852000",
    "native": null,
    "timezone": null,
    "translations": {}
  },
  {
    "id": 40374,
    "name": "Bueil",
    "state_id": 4804,
    "state_code": "NOR",
    "country_id": 75,
    "country_code": "FR",
    "latitude": "48.93189000",
    "longitude": "1.44257000",
    "native": null,
    "timezone": null,
    "translations": {}
  },
  {
    "id": 40382,
    "name": "Bully",
    "state_id": 4804,
    "state_code": "NOR",
    "country_id": 75,
    "country_code": "FR",
    "latitude": "49.10155000",
    "longitude": "-0.40825000",
    "native": null,
    "timezone": null,
    "translations": {}
  },
  {
    "id": 40445,
    "name": "Cabourg",
    "state_id": 4804,
    "state_code": "NOR",
    "country_id": 75,
    "country_code": "FR",
    "latitude": "49.29110000",
    "longitude": "-0.11330000",
    "native": null,
    "timezone": null,
    "translations": {}
  },
  {
    "id": 40457,
    "name": "Caen",
    "state_id": 4804,
    "state_code": "NOR",
    "country_id": 75,
    "country_code": "FR",
    "latitude": "49.18585000",
    "longitude": "-0.35912000",
    "native": null,
    "timezone": null,
    "translations": {}
  },
  {
    "id": 40461,
    "name": "Cagny",
    "state_id": 4804,
    "state_code": "NOR",
    "country_id": 75,
    "country_code": "FR",
    "latitude": "49.14580000",
    "longitude": "-0.25630000",
    "native": null,
    "timezone": null,
    "translations": {}
  },
  {
    "id": 40462,
    "name": "Cahagnes",
    "state_id": 4804,
    "state_code": "NOR",
    "country_id": 75,
    "country_code": "FR",
    "latitude": "49.06631000",
    "longitude": "-0.76869000",
    "native": null,
    "timezone": null,
    "translations": {}
  },
  {
    "id": 40466,
    "name": "Cairon",
    "state_id": 4804,
    "state_code": "NOR",
    "country_id": 75,
    "country_code": "FR",
    "latitude": "49.24017000",
    "longitude": "-0.45046000",
    "native": null,
    "timezone": null,
    "translations": {}
  },
  {
    "id": 40478,
    "name": "Calvados",
    "state_id": 4804,
    "state_code": "NOR",
    "country_id": 75,
    "country_code": "FR",
    "latitude": "49.09011000",
    "longitude": "-0.30608000",
    "native": null,
    "timezone": null,
    "translations": {}
  },
  {
    "id": 40485,
    "name": "Cambes-en-Plaine",
    "state_id": 4804,
    "state_code": "NOR",
    "country_id": 75,
    "country_code": "FR",
    "latitude": "49.23161000",
    "longitude": "-0.38540000",
    "native": null,
    "timezone": null,
    "translations": {}
  },
  {
    "id": 40490,
    "name": "Cambremer",
    "state_id": 4804,
    "state_code": "NOR",
    "country_id": 75,
    "country_code": "FR",
    "latitude": "49.15192000",
    "longitude": "0.04760000",
    "native": null,
    "timezone": null,
    "translations": {}
  },
  {
    "id": 40515,
    "name": "Canon",
    "state_id": 4804,
    "state_code": "NOR",
    "country_id": 75,
    "country_code": "FR",
    "latitude": "49.07380000",
    "longitude": "-0.09219000",
    "native": null,
    "timezone": null,
    "translations": {}
  },
  {
    "id": 40518,
    "name": "Canteleu",
    "state_id": 4804,
    "state_code": "NOR",
    "country_id": 75,
    "country_code": "FR",
    "latitude": "49.44065000",
    "longitude": "1.02459000",
    "native": null,
    "timezone": null,
    "translations": {}
  },
  {
    "id": 40522,
    "name": "Cany-Barville",
    "state_id": 4804,
    "state_code": "NOR",
    "country_id": 75,
    "country_code": "FR",
    "latitude": "49.78885000",
    "longitude": "0.63704000",
    "native": null,
    "timezone": null,
    "translations": {}
  },
  {
    "id": 40541,
    "name": "Carentan",
    "state_id": 4804,
    "state_code": "NOR",
    "country_id": 75,
    "country_code": "FR",
    "latitude": "49.30312000",
    "longitude": "-1.24806000",
    "native": null,
    "timezone": null,
    "translations": {}
  },
  {
    "id": 40556,
    "name": "Carpiquet",
    "state_id": 4804,
    "state_code": "NOR",
    "country_id": 75,
    "country_code": "FR",
    "latitude": "49.18522000",
    "longitude": "-0.44623000",
    "native": null,
    "timezone": null,
    "translations": {}
  },
  {
    "id": 40602,
    "name": "Caudebec-en-Caux",
    "state_id": 4804,
    "state_code": "NOR",
    "country_id": 75,
    "country_code": "FR",
    "latitude": "49.52577000",
    "longitude": "0.72561000",
    "native": null,
    "timezone": null,
    "translations": {}
  },
  {
    "id": 40603,
    "name": "Caudebec-lès-Elbeuf",
    "state_id": 4804,
    "state_code": "NOR",
    "country_id": 75,
    "country_code": "FR",
    "latitude": "49.28082000",
    "longitude": "1.02195000",
    "native": null,
    "timezone": null,
    "translations": {}
  },
  {
    "id": 40607,
    "name": "Caumont",
    "state_id": 4804,
    "state_code": "NOR",
    "country_id": 75,
    "country_code": "FR",
    "latitude": "49.36642000",
    "longitude": "0.89591000",
    "native": null,
    "timezone": null,
    "translations": {}
  },
  {
    "id": 40608,
    "name": "Caumont-l'Éventé",
    "state_id": 4804,
    "state_code": "NOR",
    "country_id": 75,
    "country_code": "FR",
    "latitude": "49.09017000",
    "longitude": "-0.80501000",
    "native": null,
    "timezone": null,
    "translations": {}
  },
  {
    "id": 40615,
    "name": "Cauville-sur-Mer",
    "state_id": 4804,
    "state_code": "NOR",
    "country_id": 75,
    "country_code": "FR",
    "latitude": "49.60000000",
    "longitude": "0.13333000",
    "native": null,
    "timezone": null,
    "translations": {}
  },
  {
    "id": 40631,
    "name": "Ceaucé",
    "state_id": 4804,
    "state_code": "NOR",
    "country_id": 75,
    "country_code": "FR",
    "latitude": "48.49436000",
    "longitude": "-0.62526000",
    "native": null,
    "timezone": null,
    "translations": {}
  },
  {
    "id": 41395,
    "name": "Cérences",
    "state_id": 4804,
    "state_code": "NOR",
    "country_id": 75,
    "country_code": "FR",
    "latitude": "48.91667000",
    "longitude": "-1.43470000",
    "native": null,
    "timezone": null,
    "translations": {}
  },
  {
    "id": 40648,
    "name": "Cerisy-la-Salle",
    "state_id": 4804,
    "state_code": "NOR",
    "country_id": 75,
    "country_code": "FR",
    "latitude": "49.02622000",
    "longitude": "-1.28283000",
    "native": null,
    "timezone": null,
    "translations": {}
  },
  {
    "id": 40664,
    "name": "Ceton",
    "state_id": 4804,
    "state_code": "NOR",
    "country_id": 75,
    "country_code": "FR",
    "latitude": "48.22631000",
    "longitude": "0.74968000",
    "native": null,
    "timezone": null,
    "translations": {}
  },
  {
    "id": 40751,
    "name": "Champsecret",
    "state_id": 4804,
    "state_code": "NOR",
    "country_id": 75,
    "country_code": "FR",
    "latitude": "48.60925000",
    "longitude": "-0.55058000",
    "native": null,
    "timezone": null,
    "translations": {}
  },
  {
    "id": 40779,
    "name": "Chanu",
    "state_id": 4804,
    "state_code": "NOR",
    "country_id": 75,
    "country_code": "FR",
    "latitude": "48.72914000",
    "longitude": "-0.67603000",
    "native": null,
    "timezone": null,
    "translations": {}
  },
  {
    "id": 40801,
    "name": "Charleval",
    "state_id": 4804,
    "state_code": "NOR",
    "country_id": 75,
    "country_code": "FR",
    "latitude": "49.37290000",
    "longitude": "1.38369000",
    "native": null,
    "timezone": null,
    "translations": {}
  },
  {
    "id": 40881,
    "name": "Cherbourg-Octeville",
    "state_id": 4804,
    "state_code": "NOR",
    "country_id": 75,
    "country_code": "FR",
    "latitude": "49.63984000",
    "longitude": "-1.61636000",
    "native": null,
    "timezone": null,
    "translations": {}
  },
  {
    "id": 40890,
    "name": "Cheux",
    "state_id": 4804,
    "state_code": "NOR",
    "country_id": 75,
    "country_code": "FR",
    "latitude": "49.16611000",
    "longitude": "-0.52544000",
    "native": null,
    "timezone": null,
    "translations": {}
  },
  {
    "id": 41045,
    "name": "Claville",
    "state_id": 4804,
    "state_code": "NOR",
    "country_id": 75,
    "country_code": "FR",
    "latitude": "49.04844000",
    "longitude": "1.01954000",
    "native": null,
    "timezone": null,
    "translations": {}
  },
  {
    "id": 41066,
    "name": "Clécy",
    "state_id": 4804,
    "state_code": "NOR",
    "country_id": 75,
    "country_code": "FR",
    "latitude": "48.91718000",
    "longitude": "-0.48041000",
    "native": null,
    "timezone": null,
    "translations": {}
  },
  {
    "id": 41071,
    "name": "Cléon",
    "state_id": 4804,
    "state_code": "NOR",
    "country_id": 75,
    "country_code": "FR",
    "latitude": "49.31235000",
    "longitude": "1.02950000",
    "native": null,
    "timezone": null,
    "translations": {}
  },
  {
    "id": 41065,
    "name": "Clères",
    "state_id": 4804,
    "state_code": "NOR",
    "country_id": 75,
    "country_code": "FR",
    "latitude": "49.60000000",
    "longitude": "1.11667000",
    "native": null,
    "timezone": null,
    "translations": {}
  },
  {
    "id": 41054,
    "name": "Clinchamps-sur-Orne",
    "state_id": 4804,
    "state_code": "NOR",
    "country_id": 75,
    "country_code": "FR",
    "latitude": "49.07857000",
    "longitude": "-0.40156000",
    "native": null,
    "timezone": null,
    "translations": {}
  },
  {
    "id": 41090,
    "name": "Colleville-Montgomery",
    "state_id": 4804,
    "state_code": "NOR",
    "country_id": 75,
    "country_code": "FR",
    "latitude": "49.27528000",
    "longitude": "-0.30052000",
    "native": null,
    "timezone": null,
    "translations": {}
  },
  {
    "id": 41099,
    "name": "Colombelles",
    "state_id": 4804,
    "state_code": "NOR",
    "country_id": 75,
    "country_code": "FR",
    "latitude": "49.20490000",
    "longitude": "-0.29571000",
    "native": null,
    "timezone": null,
    "translations": {}
  },
  {
    "id": 41128,
    "name": "Conches-en-Ouche",
    "state_id": 4804,
    "state_code": "NOR",
    "country_id": 75,
    "country_code": "FR",
    "latitude": "48.95768000",
    "longitude": "0.94052000",
    "native": null,
    "timezone": null,
    "translations": {}
  },
  {
    "id": 41136,
    "name": "Condé-sur-Huisne",
    "state_id": 4804,
    "state_code": "NOR",
    "country_id": 75,
    "country_code": "FR",
    "latitude": "48.38103000",
    "longitude": "0.85093000",
    "native": null,
    "timezone": null,
    "translations": {}
  },
  {
    "id": 41137,
    "name": "Condé-sur-Noireau",
    "state_id": 4804,
    "state_code": "NOR",
    "country_id": 75,
    "country_code": "FR",
    "latitude": "48.84881000",
    "longitude": "-0.55214000",
    "native": null,
    "timezone": null,
    "translations": {}
  },
  {
    "id": 41138,
    "name": "Condé-sur-Sarthe",
    "state_id": 4804,
    "state_code": "NOR",
    "country_id": 75,
    "country_code": "FR",
    "latitude": "48.43197000",
    "longitude": "0.03398000",
    "native": null,
    "timezone": null,
    "translations": {}
  },
  {
    "id": 41140,
    "name": "Condé-sur-Vire",
    "state_id": 4804,
    "state_code": "NOR",
    "country_id": 75,
    "country_code": "FR",
    "latitude": "49.05000000",
    "longitude": "-1.03333000",
    "native": null,
    "timezone": null,
    "translations": {}
  },
  {
    "id": 41179,
    "name": "Cormeilles",
    "state_id": 4804,
    "state_code": "NOR",
    "country_id": 75,
    "country_code": "FR",
    "latitude": "49.24803000",
    "longitude": "0.37654000",
    "native": null,
    "timezone": null,
    "translations": {}
  },
  {
    "id": 41181,
    "name": "Cormelles-le-Royal",
    "state_id": 4804,
    "state_code": "NOR",
    "country_id": 75,
    "country_code": "FR",
    "latitude": "49.15398000",
    "longitude": "-0.33062000",
    "native": null,
    "timezone": null,
    "translations": {}
  },
  {
    "id": 41191,
    "name": "Corneville-sur-Risle",
    "state_id": 4804,
    "state_code": "NOR",
    "country_id": 75,
    "country_code": "FR",
    "latitude": "49.34128000",
    "longitude": "0.58628000",
    "native": null,
    "timezone": null,
    "translations": {}
  },
  {
    "id": 41245,
    "name": "Courcelles-sur-Seine",
    "state_id": 4804,
    "state_code": "NOR",
    "country_id": 75,
    "country_code": "FR",
    "latitude": "49.18285000",
    "longitude": "1.36008000",
    "native": null,
    "timezone": null,
    "translations": {}
  },
  {
    "id": 41266,
    "name": "Courseulles-sur-Mer",
    "state_id": 4804,
    "state_code": "NOR",
    "country_id": 75,
    "country_code": "FR",
    "latitude": "49.33027000",
    "longitude": "-0.45612000",
    "native": null,
    "timezone": null,
    "translations": {}
  },
  {
    "id": 41267,
    "name": "Courteilles",
    "state_id": 4804,
    "state_code": "NOR",
    "country_id": 75,
    "country_code": "FR",
    "latitude": "48.77495000",
    "longitude": "-0.19942000",
    "native": null,
    "timezone": null,
    "translations": {}
  },
  {
    "id": 41278,
    "name": "Coutances",
    "state_id": 4804,
    "state_code": "NOR",
    "country_id": 75,
    "country_code": "FR",
    "latitude": "49.04541000",
    "longitude": "-1.44518000",
    "native": null,
    "timezone": null,
    "translations": {}
  },
  {
    "id": 41279,
    "name": "Couterne",
    "state_id": 4804,
    "state_code": "NOR",
    "country_id": 75,
    "country_code": "FR",
    "latitude": "48.51318000",
    "longitude": "-0.41538000",
    "native": null,
    "timezone": null,
    "translations": {}
  },
  {
    "id": 41340,
    "name": "Créances",
    "state_id": 4804,
    "state_code": "NOR",
    "country_id": 75,
    "country_code": "FR",
    "latitude": "49.19873000",
    "longitude": "-1.56938000",
    "native": null,
    "timezone": null,
    "translations": {}
  },
  {
    "id": 41308,
    "name": "Cresserons",
    "state_id": 4804,
    "state_code": "NOR",
    "country_id": 75,
    "country_code": "FR",
    "latitude": "49.28701000",
    "longitude": "-0.35569000",
    "native": null,
    "timezone": null,
    "translations": {}
  },
  {
    "id": 41310,
    "name": "Creully",
    "state_id": 4804,
    "state_code": "NOR",
    "country_id": 75,
    "country_code": "FR",
    "latitude": "49.28478000",
    "longitude": "-0.53976000",
    "native": null,
    "timezone": null,
    "translations": {}
  },
  {
    "id": 41317,
    "name": "Criel-sur-Mer",
    "state_id": 4804,
    "state_code": "NOR",
    "country_id": 75,
    "country_code": "FR",
    "latitude": "50.01508000",
    "longitude": "1.31459000",
    "native": null,
    "timezone": null,
    "translations": {}
  },
  {
    "id": 41318,
    "name": "Criquebeuf-sur-Seine",
    "state_id": 4804,
    "state_code": "NOR",
    "country_id": 75,
    "country_code": "FR",
    "latitude": "49.30563000",
    "longitude": "1.09964000",
    "native": null,
    "timezone": null,
    "translations": {}
  },
  {
    "id": 41319,
    "name": "Criquetot-l’Esneval",
    "state_id": 4804,
    "state_code": "NOR",
    "country_id": 75,
    "country_code": "FR",
    "latitude": "49.64555000",
    "longitude": "0.26571000",
    "native": null,
    "timezone": null,
    "translations": {}
  },
  {
    "id": 41329,
    "name": "Croth",
    "state_id": 4804,
    "state_code": "NOR",
    "country_id": 75,
    "country_code": "FR",
    "latitude": "48.84557000",
    "longitude": "1.37861000",
    "native": null,
    "timezone": null,
    "translations": {}
  },
  {
    "id": 41385,
    "name": "Cuverville",
    "state_id": 4804,
    "state_code": "NOR",
    "country_id": 75,
    "country_code": "FR",
    "latitude": "49.18998000",
    "longitude": "-0.26474000",
    "native": null,
    "timezone": null,
    "translations": {}
  },
  {
    "id": 41413,
    "name": "Damigny",
    "state_id": 4804,
    "state_code": "NOR",
    "country_id": 75,
    "country_code": "FR",
    "latitude": "48.45000000",
    "longitude": "0.06667000",
    "native": null,
    "timezone": null,
    "translations": {}
  },
  {
    "id": 41425,
    "name": "Damville",
    "state_id": 4804,
    "state_code": "NOR",
    "country_id": 75,
    "country_code": "FR",
    "latitude": "48.86930000",
    "longitude": "1.07458000",
    "native": null,
    "timezone": null,
    "translations": {}
  },
  {
    "id": 41436,
    "name": "Darnétal",
    "state_id": 4804,
    "state_code": "NOR",
    "country_id": 75,
    "country_code": "FR",
    "latitude": "49.44533000",
    "longitude": "1.15144000",
    "native": null,
    "timezone": null,
    "translations": {}
  },
  {
    "id": 41444,
    "name": "Deauville",
    "state_id": 4804,
    "state_code": "NOR",
    "country_id": 75,
    "country_code": "FR",
    "latitude": "49.35700000",
    "longitude": "0.06995000",
    "native": null,
    "timezone": null,
    "translations": {}
  },
  {
    "id": 41601,
    "name": "Démouville",
    "state_id": 4804,
    "state_code": "NOR",
    "country_id": 75,
    "country_code": "FR",
    "latitude": "49.18001000",
    "longitude": "-0.26947000",
    "native": null,
    "timezone": null,
    "translations": {}
  },
  {
    "id": 41617,
    "name": "Département de l'Eure",
    "state_id": 4804,
    "state_code": "NOR",
    "country_id": 75,
    "country_code": "FR",
    "latitude": "49.16667000",
    "longitude": "1.00000000",
    "native": null,
    "timezone": null,
    "translations": {}
  },
  {
    "id": 41622,
    "name": "Département de l'Orne",
    "state_id": 4804,
    "state_code": "NOR",
    "country_id": 75,
    "country_code": "FR",
    "latitude": "48.66667000",
    "longitude": "0.08333000",
    "native": null,
    "timezone": null,
    "translations": {}
  },
  {
    "id": 41650,
    "name": "Déville-lès-Rouen",
    "state_id": 4804,
    "state_code": "NOR",
    "country_id": 75,
    "country_code": "FR",
    "latitude": "49.46942000",
    "longitude": "1.05214000",
    "native": null,
    "timezone": null,
    "translations": {}
  },
  {
    "id": 41469,
    "name": "Dieppe",
    "state_id": 4804,
    "state_code": "NOR",
    "country_id": 75,
    "country_code": "FR",
    "latitude": "49.92160000",
    "longitude": "1.07772000",
    "native": null,
    "timezone": null,
    "translations": {}
  },
  {
    "id": 41480,
    "name": "Digosville",
    "state_id": 4804,
    "state_code": "NOR",
    "country_id": 75,
    "country_code": "FR",
    "latitude": "49.63104000",
    "longitude": "-1.52627000",
    "native": null,
    "timezone": null,
    "translations": {}
  },
  {
    "id": 41495,
    "name": "Dives-sur-Mer",
    "state_id": 4804,
    "state_code": "NOR",
    "country_id": 75,
    "country_code": "FR",
    "latitude": "49.28176000",
    "longitude": "-0.10125000",
    "native": null,
    "timezone": null,
    "translations": {}
  },
  {
    "id": 41516,
    "name": "Domfront",
    "state_id": 4804,
    "state_code": "NOR",
    "country_id": 75,
    "country_code": "FR",
    "latitude": "48.59208000",
    "longitude": "-0.64588000",
    "native": null,
    "timezone": null,
    "translations": {}
  },
  {
    "id": 41534,
    "name": "Donville-les-Bains",
    "state_id": 4804,
    "state_code": "NOR",
    "country_id": 75,
    "country_code": "FR",
    "latitude": "48.84608000",
    "longitude": "-1.58315000",
    "native": null,
    "timezone": null,
    "translations": {}
  },
  {
    "id": 41550,
    "name": "Doudeville",
    "state_id": 4804,
    "state_code": "NOR",
    "country_id": 75,
    "country_code": "FR",
    "latitude": "49.72268000",
    "longitude": "0.78479000",
    "native": null,
    "timezone": null,
    "translations": {}
  },
  {
    "id": 41559,
    "name": "Douvres-la-Délivrande",
    "state_id": 4804,
    "state_code": "NOR",
    "country_id": 75,
    "country_code": "FR",
    "latitude": "49.29472000",
    "longitude": "-0.38039000",
    "native": null,
    "timezone": null,
    "translations": {}
  },
  {
    "id": 41564,
    "name": "Dozulé",
    "state_id": 4804,
    "state_code": "NOR",
    "country_id": 75,
    "country_code": "FR",
    "latitude": "49.23132000",
    "longitude": "-0.04454000",
    "native": null,
    "timezone": null,
    "translations": {}
  },
  {
    "id": 41584,
    "name": "Ducey",
    "state_id": 4804,
    "state_code": "NOR",
    "country_id": 75,
    "country_code": "FR",
    "latitude": "48.61843000",
    "longitude": "-1.29052000",
    "native": null,
    "timezone": null,
    "translations": {}
  },
  {
    "id": 41585,
    "name": "Duclair",
    "state_id": 4804,
    "state_code": "NOR",
    "country_id": 75,
    "country_code": "FR",
    "latitude": "49.48385000",
    "longitude": "0.87617000",
    "native": null,
    "timezone": null,
    "translations": {}
  },
  {
    "id": 48046,
    "name": "Écouché",
    "state_id": 4804,
    "state_code": "NOR",
    "country_id": 75,
    "country_code": "FR",
    "latitude": "48.71751000",
    "longitude": "-0.12409000",
    "native": null,
    "timezone": null,
    "translations": {}
  },
  {
    "id": 48051,
    "name": "Écrainville",
    "state_id": 4804,
    "state_code": "NOR",
    "country_id": 75,
    "country_code": "FR",
    "latitude": "49.64943000",
    "longitude": "0.32488000",
    "native": null,
    "timezone": null,
    "translations": {}
  },
  {
    "id": 41662,
    "name": "Elbeuf",
    "state_id": 4804,
    "state_code": "NOR",
    "country_id": 75,
    "country_code": "FR",
    "latitude": "49.28669000",
    "longitude": "1.00288000",
    "native": null,
    "timezone": null,
    "translations": {}
  },
  {
    "id": 41685,
    "name": "Envermeu",
    "state_id": 4804,
    "state_code": "NOR",
    "country_id": 75,
    "country_code": "FR",
    "latitude": "49.89560000",
    "longitude": "1.26493000",
    "native": null,
    "timezone": null,
    "translations": {}
  },
  {
    "id": 48070,
    "name": "Épaignes",
    "state_id": 4804,
    "state_code": "NOR",
    "country_id": 75,
    "country_code": "FR",
    "latitude": "49.27945000",
    "longitude": "0.43980000",
    "native": null,
    "timezone": null,
    "translations": {}
  },
  {
    "id": 48083,
    "name": "Épouville",
    "state_id": 4804,
    "state_code": "NOR",
    "country_id": 75,
    "country_code": "FR",
    "latitude": "49.56349000",
    "longitude": "0.22373000",
    "native": null,
    "timezone": null,
    "translations": {}
  },
  {
    "id": 48084,
    "name": "Épron",
    "state_id": 4804,
    "state_code": "NOR",
    "country_id": 75,
    "country_code": "FR",
    "latitude": "49.22174000",
    "longitude": "-0.37085000",
    "native": null,
    "timezone": null,
    "translations": {}
  },
  {
    "id": 48086,
    "name": "Équemauville",
    "state_id": 4804,
    "state_code": "NOR",
    "country_id": 75,
    "country_code": "FR",
    "latitude": "49.39406000",
    "longitude": "0.20760000",
    "native": null,
    "timezone": null,
    "translations": {}
  },
  {
    "id": 48087,
    "name": "Équeurdreville-Hainneville",
    "state_id": 4804,
    "state_code": "NOR",
    "country_id": 75,
    "country_code": "FR",
    "latitude": "49.64868000",
    "longitude": "-1.65306000",
    "native": null,
    "timezone": null,
    "translations": {}
  },
  {
    "id": 41714,
    "name": "Eslettes",
    "state_id": 4804,
    "state_code": "NOR",
    "country_id": 75,
    "country_code": "FR",
    "latitude": "49.54820000",
    "longitude": "1.05515000",
    "native": null,
    "timezone": null,
    "translations": {}
  },
  {
    "id": 48093,
    "name": "Étainhus",
    "state_id": 4804,
    "state_code": "NOR",
    "country_id": 75,
    "country_code": "FR",
    "latitude": "49.56648000",
    "longitude": "0.31285000",
    "native": null,
    "timezone": null,
    "translations": {}
  },
  {
    "id": 48102,
    "name": "Éterville",
    "state_id": 4804,
    "state_code": "NOR",
    "country_id": 75,
    "country_code": "FR",
    "latitude": "49.14423000",
    "longitude": "-0.42512000",
    "native": null,
    "timezone": null,
    "translations": {}
  },
  {
    "id": 48114,
    "name": "Étrépagny",
    "state_id": 4804,
    "state_code": "NOR",
    "country_id": 75,
    "country_code": "FR",
    "latitude": "49.30623000",
    "longitude": "1.61139000",
    "native": null,
    "timezone": null,
    "translations": {}
  },
  {
    "id": 48110,
    "name": "Étretat",
    "state_id": 4804,
    "state_code": "NOR",
    "country_id": 75,
    "country_code": "FR",
    "latitude": "49.70669000",
    "longitude": "0.20523000",
    "native": null,
    "timezone": null,
    "translations": {}
  },
  {
    "id": 41742,
    "name": "Eu",
    "state_id": 4804,
    "state_code": "NOR",
    "country_id": 75,
    "country_code": "FR",
    "latitude": "50.04606000",
    "longitude": "1.42079000",
    "native": null,
    "timezone": null,
    "translations": {}
  },
  {
    "id": 48122,
    "name": "Évrecy",
    "state_id": 4804,
    "state_code": "NOR",
    "country_id": 75,
    "country_code": "FR",
    "latitude": "49.09904000",
    "longitude": "-0.50421000",
    "native": null,
    "timezone": null,
    "translations": {}
  },
  {
    "id": 48123,
    "name": "Évreux",
    "state_id": 4804,
    "state_code": "NOR",
    "country_id": 75,
    "country_code": "FR",
    "latitude": "49.02414000",
    "longitude": "1.15082000",
    "native": null,
    "timezone": null,
    "translations": {}
  },
  {
    "id": 48127,
    "name": "Ézy-sur-Eure",
    "state_id": 4804,
    "state_code": "NOR",
    "country_id": 75,
    "country_code": "FR",
    "latitude": "48.86667000",
    "longitude": "1.41667000",
    "native": null,
    "timezone": null,
    "translations": {}
  },
  {
    "id": 41765,
    "name": "Falaise",
    "state_id": 4804,
    "state_code": "NOR",
    "country_id": 75,
    "country_code": "FR",
    "latitude": "48.89217000",
    "longitude": "-0.19527000",
    "native": null,
    "timezone": null,
    "translations": {}
  },
  {
    "id": 41781,
    "name": "Fauville-en-Caux",
    "state_id": 4804,
    "state_code": "NOR",
    "country_id": 75,
    "country_code": "FR",
    "latitude": "49.65257000",
    "longitude": "0.59197000",
    "native": null,
    "timezone": null,
    "translations": {}
  },
  {
    "id": 41999,
    "name": "Fécamp",
    "state_id": 4804,
    "state_code": "NOR",
    "country_id": 75,
    "country_code": "FR",
    "latitude": "49.75787000",
    "longitude": "0.37457000",
    "native": null,
    "timezone": null,
    "translations": {}
  },
  {
    "id": 41800,
    "name": "Fermanville",
    "state_id": 4804,
    "state_code": "NOR",
    "country_id": 75,
    "country_code": "FR",
    "latitude": "49.68673000",
    "longitude": "-1.46284000",
    "native": null,
    "timezone": null,
    "translations": {}
  },
  {
    "id": 41828,
    "name": "Flamanville",
    "state_id": 4804,
    "state_code": "NOR",
    "country_id": 75,
    "country_code": "FR",
    "latitude": "49.53274000",
    "longitude": "-1.86560000",
    "native": null,
    "timezone": null,
    "translations": {}
  },
  {
    "id": 41836,
    "name": "Flers",
    "state_id": 4804,
    "state_code": "NOR",
    "country_id": 75,
    "country_code": "FR",
    "latitude": "48.73722000",
    "longitude": "-0.57466000",
    "native": null,
    "timezone": null,
    "translations": {}
  },
  {
    "id": 41850,
    "name": "Fleury-sur-Andelle",
    "state_id": 4804,
    "state_code": "NOR",
    "country_id": 75,
    "country_code": "FR",
    "latitude": "49.36176000",
    "longitude": "1.35599000",
    "native": null,
    "timezone": null,
    "translations": {}
  },
  {
    "id": 41851,
    "name": "Fleury-sur-Orne",
    "state_id": 4804,
    "state_code": "NOR",
    "country_id": 75,
    "country_code": "FR",
    "latitude": "49.14851000",
    "longitude": "-0.37508000",
    "native": null,
    "timezone": null,
    "translations": {}
  },
  {
    "id": 41886,
    "name": "Fontaine-Étoupefour",
    "state_id": 4804,
    "state_code": "NOR",
    "country_id": 75,
    "country_code": "FR",
    "latitude": "49.14600000",
    "longitude": "-0.45522000",
    "native": null,
    "timezone": null,
    "translations": {}
  },
  {
    "id": 41880,
    "name": "Fontaine-la-Mallet",
    "state_id": 4804,
    "state_code": "NOR",
    "country_id": 75,
    "country_code": "FR",
    "latitude": "49.53600000",
    "longitude": "0.14625000",
    "native": null,
    "timezone": null,
    "translations": {}
  },
  {
    "id": 41881,
    "name": "Fontaine-le-Bourg",
    "state_id": 4804,
    "state_code": "NOR",
    "country_id": 75,
    "country_code": "FR",
    "latitude": "49.56451000",
    "longitude": "1.16391000",
    "native": null,
    "timezone": null,
    "translations": {}
  },
  {
    "id": 41883,
    "name": "Fontaine-le-Dun",
    "state_id": 4804,
    "state_code": "NOR",
    "country_id": 75,
    "country_code": "FR",
    "latitude": "49.81182000",
    "longitude": "0.85095000",
    "native": null,
    "timezone": null,
    "translations": {}
  },
  {
    "id": 41894,
    "name": "Fontenay",
    "state_id": 4804,
    "state_code": "NOR",
    "country_id": 75,
    "country_code": "FR",
    "latitude": "49.55993000",
    "longitude": "0.18391000",
    "native": null,
    "timezone": null,
    "translations": {}
  },
  {
    "id": 41900,
    "name": "Fontenay-le-Marmion",
    "state_id": 4804,
    "state_code": "NOR",
    "country_id": 75,
    "country_code": "FR",
    "latitude": "49.09346000",
    "longitude": "-0.35294000",
    "native": null,
    "timezone": null,
    "translations": {}
  },
  {
    "id": 41913,
    "name": "Forges-les-Eaux",
    "state_id": 4804,
    "state_code": "NOR",
    "country_id": 75,
    "country_code": "FR",
    "latitude": "49.61391000",
    "longitude": "1.54449000",
    "native": null,
    "timezone": null,
    "translations": {}
  },
  {
    "id": 41921,
    "name": "Foucarmont",
    "state_id": 4804,
    "state_code": "NOR",
    "country_id": 75,
    "country_code": "FR",
    "latitude": "49.84682000",
    "longitude": "1.56899000",
    "native": null,
    "timezone": null,
    "translations": {}
  },
  {
    "id": 41948,
    "name": "Francheville",
    "state_id": 4804,
    "state_code": "NOR",
    "country_id": 75,
    "country_code": "FR",
    "latitude": "48.78647000",
    "longitude": "0.84962000",
    "native": null,
    "timezone": null,
    "translations": {}
  },
  {
    "id": 42010,
    "name": "Gacé",
    "state_id": 4804,
    "state_code": "NOR",
    "country_id": 75,
    "country_code": "FR",
    "latitude": "48.79344000",
    "longitude": "0.29624000",
    "native": null,
    "timezone": null,
    "translations": {}
  },
  {
    "id": 42017,
    "name": "Gaillefontaine",
    "state_id": 4804,
    "state_code": "NOR",
    "country_id": 75,
    "country_code": "FR",
    "latitude": "49.65371000",
    "longitude": "1.61547000",
    "native": null,
    "timezone": null,
    "translations": {}
  },
  {
    "id": 42018,
    "name": "Gaillon",
    "state_id": 4804,
    "state_code": "NOR",
    "country_id": 75,
    "country_code": "FR",
    "latitude": "49.16104000",
    "longitude": "1.34016000",
    "native": null,
    "timezone": null,
    "translations": {}
  },
  {
    "id": 42019,
    "name": "Gainneville",
    "state_id": 4804,
    "state_code": "NOR",
    "country_id": 75,
    "country_code": "FR",
    "latitude": "49.51845000",
    "longitude": "0.26164000",
    "native": null,
    "timezone": null,
    "translations": {}
  },
  {
    "id": 42040,
    "name": "Garennes-sur-Eure",
    "state_id": 4804,
    "state_code": "NOR",
    "country_id": 75,
    "country_code": "FR",
    "latitude": "48.91116000",
    "longitude": "1.43836000",
    "native": null,
    "timezone": null,
    "translations": {}
  },
  {
    "id": 42049,
    "name": "Gasny",
    "state_id": 4804,
    "state_code": "NOR",
    "country_id": 75,
    "country_code": "FR",
    "latitude": "49.09184000",
    "longitude": "1.60336000",
    "native": null,
    "timezone": null,
    "translations": {}
  },
  {
    "id": 42055,
    "name": "Gavray",
    "state_id": 4804,
    "state_code": "NOR",
    "country_id": 75,
    "country_code": "FR",
    "latitude": "48.91108000",
    "longitude": "-1.35059000",
    "native": null,
    "timezone": null,
    "translations": {}
  },
  {
    "id": 42086,
    "name": "Giberville",
    "state_id": 4804,
    "state_code": "NOR",
    "country_id": 75,
    "country_code": "FR",
    "latitude": "49.18158000",
    "longitude": "-0.28386000",
    "native": null,
    "timezone": null,
    "translations": {}
  },
  {
    "id": 42105,
    "name": "Gisors",
    "state_id": 4804,
    "state_code": "NOR",
    "country_id": 75,
    "country_code": "FR",
    "latitude": "49.28178000",
    "longitude": "1.78010000",
    "native": null,
    "timezone": null,
    "translations": {}
  },
  {
    "id": 42115,
    "name": "Goderville",
    "state_id": 4804,
    "state_code": "NOR",
    "country_id": 75,
    "country_code": "FR",
    "latitude": "49.64566000",
    "longitude": "0.36593000",
    "native": null,
    "timezone": null,
    "translations": {}
  },
  {
    "id": 42132,
    "name": "Gonneville-la-Mallet",
    "state_id": 4804,
    "state_code": "NOR",
    "country_id": 75,
    "country_code": "FR",
    "latitude": "49.63950000",
    "longitude": "0.22245000",
    "native": null,
    "timezone": null,
    "translations": {}
  },
  {
    "id": 42152,
    "name": "Gournay-en-Bray",
    "state_id": 4804,
    "state_code": "NOR",
    "country_id": 75,
    "country_code": "FR",
    "latitude": "49.48285000",
    "longitude": "1.72471000",
    "native": null,
    "timezone": null,
    "translations": {}
  },
  {
    "id": 42157,
    "name": "Gouville-sur-Mer",
    "state_id": 4804,
    "state_code": "NOR",
    "country_id": 75,
    "country_code": "FR",
    "latitude": "49.09611000",
    "longitude": "-1.57908000",
    "native": null,
    "timezone": null,
    "translations": {}
  },
  {
    "id": 42166,
    "name": "Grainville-la-Teinturière",
    "state_id": 4804,
    "state_code": "NOR",
    "country_id": 75,
    "country_code": "FR",
    "latitude": "49.74773000",
    "longitude": "0.64048000",
    "native": null,
    "timezone": null,
    "translations": {}
  },
  {
    "id": 42167,
    "name": "Grainville-sur-Odon",
    "state_id": 4804,
    "state_code": "NOR",
    "country_id": 75,
    "country_code": "FR",
    "latitude": "49.13936000",
    "longitude": "-0.53046000",
    "native": null,
    "timezone": null,
    "translations": {}
  },
  {
    "id": 42172,
    "name": "Grand-Couronne",
    "state_id": 4804,
    "state_code": "NOR",
    "country_id": 75,
    "country_code": "FR",
    "latitude": "49.35563000",
    "longitude": "1.00647000",
    "native": null,
    "timezone": null,
    "translations": {}
  },
  {
    "id": 42175,
    "name": "Grandcamp-Maisy",
    "state_id": 4804,
    "state_code": "NOR",
    "country_id": 75,
    "country_code": "FR",
    "latitude": "49.38333000",
    "longitude": "-1.03333000",
    "native": null,
    "timezone": null,
    "translations": {}
  },
  {
    "id": 42185,
    "name": "Granville",
    "state_id": 4804,
    "state_code": "NOR",
    "country_id": 75,
    "country_code": "FR",
    "latitude": "48.83792000",
    "longitude": "-1.59714000",
    "native": null,
    "timezone": null,
    "translations": {}
  },
  {
    "id": 42191,
    "name": "Gravigny",
    "state_id": 4804,
    "state_code": "NOR",
    "country_id": 75,
    "country_code": "FR",
    "latitude": "49.05310000",
    "longitude": "1.16962000",
    "native": null,
    "timezone": null,
    "translations": {}
  },
  {
    "id": 42228,
    "name": "Gruchet-le-Valasse",
    "state_id": 4804,
    "state_code": "NOR",
    "country_id": 75,
    "country_code": "FR",
    "latitude": "49.55466000",
    "longitude": "0.48684000",
    "native": null,
    "timezone": null,
    "translations": {}
  },
  {
    "id": 42251,
    "name": "Guichainville",
    "state_id": 4804,
    "state_code": "NOR",
    "country_id": 75,
    "country_code": "FR",
    "latitude": "49.00139000",
    "longitude": "1.19305000",
    "native": null,
    "timezone": null,
    "translations": {}
  },
  {
    "id": 42320,
    "name": "Hambye",
    "state_id": 4804,
    "state_code": "NOR",
    "country_id": 75,
    "country_code": "FR",
    "latitude": "48.94798000",
    "longitude": "-1.26417000",
    "native": null,
    "timezone": null,
    "translations": {}
  },
  {
    "id": 42328,
    "name": "Harfleur",
    "state_id": 4804,
    "state_code": "NOR",
    "country_id": 75,
    "country_code": "FR",
    "latitude": "49.50660000",
    "longitude": "0.19827000",
    "native": null,
    "timezone": null,
    "translations": {}
  },
  {
    "id": 42355,
    "name": "Hautot-sur-Mer",
    "state_id": 4804,
    "state_code": "NOR",
    "country_id": 75,
    "country_code": "FR",
    "latitude": "49.89789000",
    "longitude": "1.02884000",
    "native": null,
    "timezone": null,
    "translations": {}
  },
  {
    "id": 42357,
    "name": "Hauville",
    "state_id": 4804,
    "state_code": "NOR",
    "country_id": 75,
    "country_code": "FR",
    "latitude": "49.39645000",
    "longitude": "0.77232000",
    "native": null,
    "timezone": null,
    "translations": {}
  },
  {
    "id": 42455,
    "name": "Hénouville",
    "state_id": 4804,
    "state_code": "NOR",
    "country_id": 75,
    "country_code": "FR",
    "latitude": "49.47890000",
    "longitude": "0.96367000",
    "native": null,
    "timezone": null,
    "translations": {}
  },
  {
    "id": 42378,
    "name": "Hermanville-sur-Mer",
    "state_id": 4804,
    "state_code": "NOR",
    "country_id": 75,
    "country_code": "FR",
    "latitude": "49.28464000",
    "longitude": "-0.31544000",
    "native": null,
    "timezone": null,
    "translations": {}
  },
  {
    "id": 42461,
    "name": "Hérouville-Saint-Clair",
    "state_id": 4804,
    "state_code": "NOR",
    "country_id": 75,
    "country_code": "FR",
    "latitude": "49.21088000",
    "longitude": "-0.30653000",
    "native": null,
    "timezone": null,
    "translations": {}
  },
  {
    "id": 42462,
    "name": "Hérouvillette",
    "state_id": 4804,
    "state_code": "NOR",
    "country_id": 75,
    "country_code": "FR",
    "latitude": "49.22130000",
    "longitude": "-0.24348000",
    "native": null,
    "timezone": null,
    "translations": {}
  },
  {
    "id": 42390,
    "name": "Heudreville-sur-Eure",
    "state_id": 4804,
    "state_code": "NOR",
    "country_id": 75,
    "country_code": "FR",
    "latitude": "49.14089000",
    "longitude": "1.18813000",
    "native": null,
    "timezone": null,
    "translations": {}
  },
  {
    "id": 42417,
    "name": "Honfleur",
    "state_id": 4804,
    "state_code": "NOR",
    "country_id": 75,
    "country_code": "FR",
    "latitude": "49.41985000",
    "longitude": "0.23294000",
    "native": null,
    "timezone": null,
    "translations": {}
  },
  {
    "id": 42427,
    "name": "Houlbec-Cocherel",
    "state_id": 4804,
    "state_code": "NOR",
    "country_id": 75,
    "country_code": "FR",
    "latitude": "49.07350000",
    "longitude": "1.36563000",
    "native": null,
    "timezone": null,
    "translations": {}
  },
  {
    "id": 42428,
    "name": "Houlgate",
    "state_id": 4804,
    "state_code": "NOR",
    "country_id": 75,
    "country_code": "FR",
    "latitude": "49.29900000",
    "longitude": "-0.08153000",
    "native": null,
    "timezone": null,
    "translations": {}
  },
  {
    "id": 42431,
    "name": "Houppeville",
    "state_id": 4804,
    "state_code": "NOR",
    "country_id": 75,
    "country_code": "FR",
    "latitude": "49.51259000",
    "longitude": "1.07962000",
    "native": null,
    "timezone": null,
    "translations": {}
  },
  {
    "id": 42472,
    "name": "Ifs",
    "state_id": 4804,
    "state_code": "NOR",
    "country_id": 75,
    "country_code": "FR",
    "latitude": "49.14000000",
    "longitude": "-0.34899000",
    "native": null,
    "timezone": null,
    "translations": {}
  },
  {
    "id": 42476,
    "name": "Igoville",
    "state_id": 4804,
    "state_code": "NOR",
    "country_id": 75,
    "country_code": "FR",
    "latitude": "49.31990000",
    "longitude": "1.14832000",
    "native": null,
    "timezone": null,
    "translations": {}
  },
  {
    "id": 42485,
    "name": "Incheville",
    "state_id": 4804,
    "state_code": "NOR",
    "country_id": 75,
    "country_code": "FR",
    "latitude": "50.01239000",
    "longitude": "1.49438000",
    "native": null,
    "timezone": null,
    "translations": {}
  },
  {
    "id": 42499,
    "name": "Isigny-le-Buat",
    "state_id": 4804,
    "state_code": "NOR",
    "country_id": 75,
    "country_code": "FR",
    "latitude": "48.61705000",
    "longitude": "-1.16993000",
    "native": null,
    "timezone": null,
    "translations": {}
  },
  {
    "id": 42500,
    "name": "Isigny-sur-Mer",
    "state_id": 4804,
    "state_code": "NOR",
    "country_id": 75,
    "country_code": "FR",
    "latitude": "49.31604000",
    "longitude": "-1.10384000",
    "native": null,
    "timezone": null,
    "translations": {}
  },
  {
    "id": 42502,
    "name": "Isneauville",
    "state_id": 4804,
    "state_code": "NOR",
    "country_id": 75,
    "country_code": "FR",
    "latitude": "49.49832000",
    "longitude": "1.15431000",
    "native": null,
    "timezone": null,
    "translations": {}
  },
  {
    "id": 42516,
    "name": "Ivry-la-Bataille",
    "state_id": 4804,
    "state_code": "NOR",
    "country_id": 75,
    "country_code": "FR",
    "latitude": "48.88333000",
    "longitude": "1.45948000",
    "native": null,
    "timezone": null,
    "translations": {}
  },
  {
    "id": 42589,
    "name": "Jullouville",
    "state_id": 4804,
    "state_code": "NOR",
    "country_id": 75,
    "country_code": "FR",
    "latitude": "48.77576000",
    "longitude": "-1.56366000",
    "native": null,
    "timezone": null,
    "translations": {}
  },
  {
    "id": 42592,
    "name": "Jumièges",
    "state_id": 4804,
    "state_code": "NOR",
    "country_id": 75,
    "country_code": "FR",
    "latitude": "49.43324000",
    "longitude": "0.81918000",
    "native": null,
    "timezone": null,
    "translations": {}
  },
  {
    "id": 42599,
    "name": "Juvigny-sous-Andaine",
    "state_id": 4804,
    "state_code": "NOR",
    "country_id": 75,
    "country_code": "FR",
    "latitude": "48.55194000",
    "longitude": "-0.50878000",
    "native": null,
    "timezone": null,
    "translations": {}
  },
  {
    "id": 42648,
    "name": "La Bonneville-sur-Iton",
    "state_id": 4804,
    "state_code": "NOR",
    "country_id": 75,
    "country_code": "FR",
    "latitude": "49.00000000",
    "longitude": "1.03333000",
    "native": null,
    "timezone": null,
    "translations": {}
  },
  {
    "id": 42674,
    "name": "La Cerlangue",
    "state_id": 4804,
    "state_code": "NOR",
    "country_id": 75,
    "country_code": "FR",
    "latitude": "49.50592000",
    "longitude": "0.41332000",
    "native": null,
    "timezone": null,
    "translations": {}
  },
  {
    "id": 42683,
    "name": "La Chapelle-Réanville",
    "state_id": 4804,
    "state_code": "NOR",
    "country_id": 75,
    "country_code": "FR",
    "latitude": "49.09752000",
    "longitude": "1.38209000",
    "native": null,
    "timezone": null,
    "translations": {}
  },
  {
    "id": 42720,
    "name": "La Couture-Boussey",
    "state_id": 4804,
    "state_code": "NOR",
    "country_id": 75,
    "country_code": "FR",
    "latitude": "48.89581000",
    "longitude": "1.40491000",
    "native": null,
    "timezone": null,
    "translations": {}
  },
  {
    "id": 42735,
    "name": "La Ferrière-aux-Étangs",
    "state_id": 4804,
    "state_code": "NOR",
    "country_id": 75,
    "country_code": "FR",
    "latitude": "48.66227000",
    "longitude": "-0.51955000",
    "native": null,
    "timezone": null,
    "translations": {}
  },
  {
    "id": 42740,
    "name": "La Ferté-Macé",
    "state_id": 4804,
    "state_code": "NOR",
    "country_id": 75,
    "country_code": "FR",
    "latitude": "48.58999000",
    "longitude": "-0.35800000",
    "native": null,
    "timezone": null,
    "translations": {}
  },
  {
    "id": 42744,
    "name": "La Feuillie",
    "state_id": 4804,
    "state_code": "NOR",
    "country_id": 75,
    "country_code": "FR",
    "latitude": "49.46415000",
    "longitude": "1.51463000",
    "native": null,
    "timezone": null,
    "translations": {}
  },
  {
    "id": 42768,
    "name": "La Glacerie",
    "state_id": 4804,
    "state_code": "NOR",
    "country_id": 75,
    "country_code": "FR",
    "latitude": "49.60517000",
    "longitude": "-1.58185000",
    "native": null,
    "timezone": null,
    "translations": {}
  },
  {
    "id": 42782,
    "name": "La Haye-du-Puits",
    "state_id": 4804,
    "state_code": "NOR",
    "country_id": 75,
    "country_code": "FR",
    "latitude": "49.28973000",
    "longitude": "-1.54324000",
    "native": null,
    "timezone": null,
    "translations": {}
  },
  {
    "id": 42780,
    "name": "La Haye-Malherbe",
    "state_id": 4804,
    "state_code": "NOR",
    "country_id": 75,
    "country_code": "FR",
    "latitude": "49.22553000",
    "longitude": "1.06774000",
    "native": null,
    "timezone": null,
    "translations": {}
  },
  {
    "id": 42781,
    "name": "La Haye-Pesnel",
    "state_id": 4804,
    "state_code": "NOR",
    "country_id": 75,
    "country_code": "FR",
    "latitude": "48.79561000",
    "longitude": "-1.39655000",
    "native": null,
    "timezone": null,
    "translations": {}
  },
  {
    "id": 42789,
    "name": "La Lande-Patry",
    "state_id": 4804,
    "state_code": "NOR",
    "country_id": 75,
    "country_code": "FR",
    "latitude": "48.76202000",
    "longitude": "-0.59876000",
    "native": null,
    "timezone": null,
    "translations": {}
  },
  {
    "id": 42798,
    "name": "La Madeleine-de-Nonancourt",
    "state_id": 4804,
    "state_code": "NOR",
    "country_id": 75,
    "country_code": "FR",
    "latitude": "48.77298000",
    "longitude": "1.20253000",
    "native": null,
    "timezone": null,
    "translations": {}
  },
  {
    "id": 42799,
    "name": "La Mailleraye-sur-Seine",
    "state_id": 4804,
    "state_code": "NOR",
    "country_id": 75,
    "country_code": "FR",
    "latitude": "49.48308000",
    "longitude": "0.77030000",
    "native": null,
    "timezone": null,
    "translations": {}
  },
  {
    "id": 42800,
    "name": "La Meauffe",
    "state_id": 4804,
    "state_code": "NOR",
    "country_id": 75,
    "country_code": "FR",
    "latitude": "49.17643000",
    "longitude": "-1.11119000",
    "native": null,
    "timezone": null,
    "translations": {}
  },
  {
    "id": 42844,
    "name": "La Remuée",
    "state_id": 4804,
    "state_code": "NOR",
    "country_id": 75,
    "country_code": "FR",
    "latitude": "49.52773000",
    "longitude": "0.40283000",
    "native": null,
    "timezone": null,
    "translations": {}
  },
  {
    "id": 42848,
    "name": "La Rivière-Saint-Sauveur",
    "state_id": 4804,
    "state_code": "NOR",
    "country_id": 75,
    "country_code": "FR",
    "latitude": "49.40821000",
    "longitude": "0.27030000",
    "native": null,
    "timezone": null,
    "translations": {}
  },
  {
    "id": 42874,
    "name": "La Saussaye",
    "state_id": 4804,
    "state_code": "NOR",
    "country_id": 75,
    "country_code": "FR",
    "latitude": "49.25936000",
    "longitude": "0.98094000",
    "native": null,
    "timezone": null,
    "translations": {}
  },
  {
    "id": 42876,
    "name": "La Selle-la-Forge",
    "state_id": 4804,
    "state_code": "NOR",
    "country_id": 75,
    "country_code": "FR",
    "latitude": "48.73295000",
    "longitude": "-0.54103000",
    "native": null,
    "timezone": null,
    "translations": {}
  },
  {
    "id": 42907,
    "name": "La Vaupalière",
    "state_id": 4804,
    "state_code": "NOR",
    "country_id": 75,
    "country_code": "FR",
    "latitude": "49.48789000",
    "longitude": "0.99630000",
    "native": null,
    "timezone": null,
    "translations": {}
  },
  {
    "id": 42911,
    "name": "La Vespière",
    "state_id": 4804,
    "state_code": "NOR",
    "country_id": 75,
    "country_code": "FR",
    "latitude": "49.01975000",
    "longitude": "0.41250000",
    "native": null,
    "timezone": null,
    "translations": {}
  },
  {
    "id": 43031,
    "name": "Langrune-sur-Mer",
    "state_id": 4804,
    "state_code": "NOR",
    "country_id": 75,
    "country_code": "FR",
    "latitude": "49.32346000",
    "longitude": "-0.37346000",
    "native": null,
    "timezone": null,
    "translations": {}
  },
  {
    "id": 43042,
    "name": "Lanquetot",
    "state_id": 4804,
    "state_code": "NOR",
    "country_id": 75,
    "country_code": "FR",
    "latitude": "49.58527000",
    "longitude": "0.52637000",
    "native": null,
    "timezone": null,
    "translations": {}
  },
  {
    "id": 43135,
    "name": "Le Bosc-Roger-en-Roumois",
    "state_id": 4804,
    "state_code": "NOR",
    "country_id": 75,
    "country_code": "FR",
    "latitude": "49.28333000",
    "longitude": "0.93333000",
    "native": null,
    "timezone": null,
    "translations": {}
  },
  {
    "id": 43199,
    "name": "Le Grand-Quevilly",
    "state_id": 4804,
    "state_code": "NOR",
    "country_id": 75,
    "country_code": "FR",
    "latitude": "49.40076000",
    "longitude": "1.04582000",
    "native": null,
    "timezone": null,
    "translations": {}
  },
  {
    "id": 43205,
    "name": "Le Havre",
    "state_id": 4804,
    "state_code": "NOR",
    "country_id": 75,
    "country_code": "FR",
    "latitude": "49.49380000",
    "longitude": "0.10767000",
    "native": null,
    "timezone": null,
    "translations": {}
  },
  {
    "id": 43207,
    "name": "Le Houlme",
    "state_id": 4804,
    "state_code": "NOR",
    "country_id": 75,
    "country_code": "FR",
    "latitude": "49.50972000",
    "longitude": "1.03537000",
    "native": null,
    "timezone": null,
    "translations": {}
  },
  {
    "id": 43220,
    "name": "Le Manoir",
    "state_id": 4804,
    "state_code": "NOR",
    "country_id": 75,
    "country_code": "FR",
    "latitude": "49.31355000",
    "longitude": "1.20455000",
    "native": null,
    "timezone": null,
    "translations": {}
  },
  {
    "id": 43226,
    "name": "Le Mesnil-Esnard",
    "state_id": 4804,
    "state_code": "NOR",
    "country_id": 75,
    "country_code": "FR",
    "latitude": "49.41319000",
    "longitude": "1.14521000",
    "native": null,
    "timezone": null,
    "translations": {}
  },
  {
    "id": 43234,
    "name": "Le Molay-Littry",
    "state_id": 4804,
    "state_code": "NOR",
    "country_id": 75,
    "country_code": "FR",
    "latitude": "49.24265000",
    "longitude": "-0.87238000",
    "native": null,
    "timezone": null,
    "translations": {}
  },
  {
    "id": 43241,
    "name": "Le Neubourg",
    "state_id": 4804,
    "state_code": "NOR",
    "country_id": 75,
    "country_code": "FR",
    "latitude": "49.15048000",
    "longitude": "0.91020000",
    "native": null,
    "timezone": null,
    "translations": {}
  },
  {
    "id": 43254,
    "name": "Le Petit-Quevilly",
    "state_id": 4804,
    "state_code": "NOR",
    "country_id": 75,
    "country_code": "FR",
    "latitude": "49.41338000",
    "longitude": "1.06155000",
    "native": null,
    "timezone": null,
    "translations": {}
  },
  {
    "id": 43308,
    "name": "Le Teilleul",
    "state_id": 4804,
    "state_code": "NOR",
    "country_id": 75,
    "country_code": "FR",
    "latitude": "48.53758000",
    "longitude": "-0.87304000",
    "native": null,
    "timezone": null,
    "translations": {}
  },
  {
    "id": 43310,
    "name": "Le Theil-Bocage",
    "state_id": 4804,
    "state_code": "NOR",
    "country_id": 75,
    "country_code": "FR",
    "latitude": "48.88333000",
    "longitude": "-0.71667000",
    "native": null,
    "timezone": null,
    "translations": {}
  },
  {
    "id": 43319,
    "name": "Le Thuit-Signol",
    "state_id": 4804,
    "state_code": "NOR",
    "country_id": 75,
    "country_code": "FR",
    "latitude": "49.26487000",
    "longitude": "0.93910000",
    "native": null,
    "timezone": null,
    "translations": {}
  },
  {
    "id": 43323,
    "name": "Le Trait",
    "state_id": 4804,
    "state_code": "NOR",
    "country_id": 75,
    "country_code": "FR",
    "latitude": "49.46895000",
    "longitude": "0.81634000",
    "native": null,
    "timezone": null,
    "translations": {}
  },
  {
    "id": 43324,
    "name": "Le Tréport",
    "state_id": 4804,
    "state_code": "NOR",
    "country_id": 75,
    "country_code": "FR",
    "latitude": "50.05979000",
    "longitude": "1.37583000",
    "native": null,
    "timezone": null,
    "translations": {}
  },
  {
    "id": 43328,
    "name": "Le Val-Saint-Père",
    "state_id": 4804,
    "state_code": "NOR",
    "country_id": 75,
    "country_code": "FR",
    "latitude": "48.66177000",
    "longitude": "-1.37653000",
    "native": null,
    "timezone": null,
    "translations": {}
  },
  {
    "id": 43329,
    "name": "Le Vaudreuil",
    "state_id": 4804,
    "state_code": "NOR",
    "country_id": 75,
    "country_code": "FR",
    "latitude": "49.25407000",
    "longitude": "1.20960000",
    "native": null,
    "timezone": null,
    "translations": {}
  },
  {
    "id": 43690,
    "name": "Léry",
    "state_id": 4804,
    "state_code": "NOR",
    "country_id": 75,
    "country_code": "FR",
    "latitude": "49.28585000",
    "longitude": "1.20768000",
    "native": null,
    "timezone": null,
    "translations": {}
  },
  {
    "id": 43362,
    "name": "Les Andelys",
    "state_id": 4804,
    "state_code": "NOR",
    "country_id": 75,
    "country_code": "FR",
    "latitude": "49.24557000",
    "longitude": "1.41168000",
    "native": null,
    "timezone": null,
    "translations": {}
  },
  {
    "id": 43368,
    "name": "Les Authieux-sur-le-Port-Saint-Ouen",
    "state_id": 4804,
    "state_code": "NOR",
    "country_id": 75,
    "country_code": "FR",
    "latitude": "49.34100000",
    "longitude": "1.13465000",
    "native": null,
    "timezone": null,
    "translations": {}
  },
  {
    "id": 43392,
    "name": "Les Grandes-Ventes",
    "state_id": 4804,
    "state_code": "NOR",
    "country_id": 75,
    "country_code": "FR",
    "latitude": "49.78544000",
    "longitude": "1.22921000",
    "native": null,
    "timezone": null,
    "translations": {}
  },
  {
    "id": 43399,
    "name": "Les Loges",
    "state_id": 4804,
    "state_code": "NOR",
    "country_id": 75,
    "country_code": "FR",
    "latitude": "49.69860000",
    "longitude": "0.28403000",
    "native": null,
    "timezone": null,
    "translations": {}
  },
  {
    "id": 43400,
    "name": "Les Loges-Marchis",
    "state_id": 4804,
    "state_code": "NOR",
    "country_id": 75,
    "country_code": "FR",
    "latitude": "48.54132000",
    "longitude": "-1.08754000",
    "native": null,
    "timezone": null,
    "translations": {}
  },
  {
    "id": 43421,
    "name": "Les Pieux",
    "state_id": 4804,
    "state_code": "NOR",
    "country_id": 75,
    "country_code": "FR",
    "latitude": "49.51286000",
    "longitude": "-1.80714000",
    "native": null,
    "timezone": null,
    "translations": {}
  },
  {
    "id": 43442,
    "name": "Lessay",
    "state_id": 4804,
    "state_code": "NOR",
    "country_id": 75,
    "country_code": "FR",
    "latitude": "49.21703000",
    "longitude": "-1.53089000",
    "native": null,
    "timezone": null,
    "translations": {}
  },
  {
    "id": 43471,
    "name": "Lieurey",
    "state_id": 4804,
    "state_code": "NOR",
    "country_id": 75,
    "country_code": "FR",
    "latitude": "49.23019000",
    "longitude": "0.49879000",
    "native": null,
    "timezone": null,
    "translations": {}
  },
  {
    "id": 43486,
    "name": "Lillebonne",
    "state_id": 4804,
    "state_code": "NOR",
    "country_id": 75,
    "country_code": "FR",
    "latitude": "49.52030000",
    "longitude": "0.53617000",
    "native": null,
    "timezone": null,
    "translations": {}
  },
  {
    "id": 43497,
    "name": "Limésy",
    "state_id": 4804,
    "state_code": "NOR",
    "country_id": 75,
    "country_code": "FR",
    "latitude": "49.61271000",
    "longitude": "0.92483000",
    "native": null,
    "timezone": null,
    "translations": {}
  },
  {
    "id": 43505,
    "name": "Lion-sur-Mer",
    "state_id": 4804,
    "state_code": "NOR",
    "country_id": 75,
    "country_code": "FR",
    "latitude": "49.30018000",
    "longitude": "-0.32157000",
    "native": null,
    "timezone": null,
    "translations": {}
  },
  {
    "id": 43508,
    "name": "Lisieux",
    "state_id": 4804,
    "state_code": "NOR",
    "country_id": 75,
    "country_code": "FR",
    "latitude": "49.14660000",
    "longitude": "0.22925000",
    "native": null,
    "timezone": null,
    "translations": {}
  },
  {
    "id": 43514,
    "name": "Livarot",
    "state_id": 4804,
    "state_code": "NOR",
    "country_id": 75,
    "country_code": "FR",
    "latitude": "49.00500000",
    "longitude": "0.15020000",
    "native": null,
    "timezone": null,
    "translations": {}
  },
  {
    "id": 43551,
    "name": "Londinières",
    "state_id": 4804,
    "state_code": "NOR",
    "country_id": 75,
    "country_code": "FR",
    "latitude": "49.83187000",
    "longitude": "1.40232000",
    "native": null,
    "timezone": null,
    "translations": {}
  },
  {
    "id": 43564,
    "name": "Longny-au-Perche",
    "state_id": 4804,
    "state_code": "NOR",
    "country_id": 75,
    "country_code": "FR",
    "latitude": "48.52984000",
    "longitude": "0.75239000",
    "native": null,
    "timezone": null,
    "translations": {}
  },
  {
    "id": 43614,
    "name": "Louviers",
    "state_id": 4804,
    "state_code": "NOR",
    "country_id": 75,
    "country_code": "FR",
    "latitude": "49.21667000",
    "longitude": "1.16667000",
    "native": null,
    "timezone": null,
    "translations": {}
  },
  {
    "id": 43615,
    "name": "Louvigny",
    "state_id": 4804,
    "state_code": "NOR",
    "country_id": 75,
    "country_code": "FR",
    "latitude": "49.15715000",
    "longitude": "-0.39376000",
    "native": null,
    "timezone": null,
    "translations": {}
  },
  {
    "id": 43630,
    "name": "Luc-sur-Mer",
    "state_id": 4804,
    "state_code": "NOR",
    "country_id": 75,
    "country_code": "FR",
    "latitude": "49.31452000",
    "longitude": "-0.35499000",
    "native": null,
    "timezone": null,
    "translations": {}
  },
  {
    "id": 43654,
    "name": "Luneray",
    "state_id": 4804,
    "state_code": "NOR",
    "country_id": 75,
    "country_code": "FR",
    "latitude": "49.82795000",
    "longitude": "0.91581000",
    "native": null,
    "timezone": null,
    "translations": {}
  },
  {
    "id": 43727,
    "name": "Magny-le-Désert",
    "state_id": 4804,
    "state_code": "NOR",
    "country_id": 75,
    "country_code": "FR",
    "latitude": "48.57015000",
    "longitude": "-0.32732000",
    "native": null,
    "timezone": null,
    "translations": {}
  },
  {
    "id": 43752,
    "name": "Malaunay",
    "state_id": 4804,
    "state_code": "NOR",
    "country_id": 75,
    "country_code": "FR",
    "latitude": "49.52710000",
    "longitude": "1.04292000",
    "native": null,
    "timezone": null,
    "translations": {}
  },
  {
    "id": 43771,
    "name": "Manche",
    "state_id": 4804,
    "state_code": "NOR",
    "country_id": 75,
    "country_code": "FR",
    "latitude": "49.03822000",
    "longitude": "-1.31865000",
    "native": null,
    "timezone": null,
    "translations": {}
  },
  {
    "id": 43789,
    "name": "Manéglise",
    "state_id": 4804,
    "state_code": "NOR",
    "country_id": 75,
    "country_code": "FR",
    "latitude": "49.56578000",
    "longitude": "0.25572000",
    "native": null,
    "timezone": null,
    "translations": {}
  },
  {
    "id": 43778,
    "name": "Manneville-sur-Risle",
    "state_id": 4804,
    "state_code": "NOR",
    "country_id": 75,
    "country_code": "FR",
    "latitude": "49.35173000",
    "longitude": "0.54526000",
    "native": null,
    "timezone": null,
    "translations": {}
  },
  {
    "id": 43798,
    "name": "Marcey-les-Grèves",
    "state_id": 4804,
    "state_code": "NOR",
    "country_id": 75,
    "country_code": "FR",
    "latitude": "48.69673000",
    "longitude": "-1.39156000",
    "native": null,
    "timezone": null,
    "translations": {}
  },
  {
    "id": 43807,
    "name": "Marcilly-sur-Eure",
    "state_id": 4804,
    "state_code": "NOR",
    "country_id": 75,
    "country_code": "FR",
    "latitude": "48.82568000",
    "longitude": "1.34741000",
    "native": null,
    "timezone": null,
    "translations": {}
  },
  {
    "id": 43840,
    "name": "Marigny",
    "state_id": 4804,
    "state_code": "NOR",
    "country_id": 75,
    "country_code": "FR",
    "latitude": "49.09952000",
    "longitude": "-1.24179000",
    "native": null,
    "timezone": null,
    "translations": {}
  },
  {
    "id": 43869,
    "name": "Maromme",
    "state_id": 4804,
    "state_code": "NOR",
    "country_id": 75,
    "country_code": "FR",
    "latitude": "49.47925000",
    "longitude": "1.02375000",
    "native": null,
    "timezone": null,
    "translations": {}
  },
  {
    "id": 43918,
    "name": "Martin-Église",
    "state_id": 4804,
    "state_code": "NOR",
    "country_id": 75,
    "country_code": "FR",
    "latitude": "49.90174000",
    "longitude": "1.14120000",
    "native": null,
    "timezone": null,
    "translations": {}
  },
  {
    "id": 43919,
    "name": "Martinvast",
    "state_id": 4804,
    "state_code": "NOR",
    "country_id": 75,
    "country_code": "FR",
    "latitude": "49.59608000",
    "longitude": "-1.66434000",
    "native": null,
    "timezone": null,
    "translations": {}
  },
  {
    "id": 43939,
    "name": "Mathieu",
    "state_id": 4804,
    "state_code": "NOR",
    "country_id": 75,
    "country_code": "FR",
    "latitude": "49.25448000",
    "longitude": "-0.37188000",
    "native": null,
    "timezone": null,
    "translations": {}
  },
  {
    "id": 43968,
    "name": "May-sur-Orne",
    "state_id": 4804,
    "state_code": "NOR",
    "country_id": 75,
    "country_code": "FR",
    "latitude": "49.10107000",
    "longitude": "-0.37471000",
    "native": null,
    "timezone": null,
    "translations": {}
  },
  {
    "id": 44465,
    "name": "Ménilles",
    "state_id": 4804,
    "state_code": "NOR",
    "country_id": 75,
    "country_code": "FR",
    "latitude": "49.03333000",
    "longitude": "1.36667000",
    "native": null,
    "timezone": null,
    "translations": {}
  },
  {
    "id": 44002,
    "name": "Menneval",
    "state_id": 4804,
    "state_code": "NOR",
    "country_id": 75,
    "country_code": "FR",
    "latitude": "49.10000000",
    "longitude": "0.61667000",
    "native": null,
    "timezone": null,
    "translations": {}
  },
  {
    "id": 44025,
    "name": "Merville-Franceville-Plage",
    "state_id": 4804,
    "state_code": "NOR",
    "country_id": 75,
    "country_code": "FR",
    "latitude": "49.27218000",
    "longitude": "-0.19616000",
    "native": null,
    "timezone": null,
    "translations": {}
  },
  {
    "id": 44030,
    "name": "Mesnières-en-Bray",
    "state_id": 4804,
    "state_code": "NOR",
    "country_id": 75,
    "country_code": "FR",
    "latitude": "49.76172000",
    "longitude": "1.38187000",
    "native": null,
    "timezone": null,
    "translations": {}
  },
  {
    "id": 44033,
    "name": "Messei",
    "state_id": 4804,
    "state_code": "NOR",
    "country_id": 75,
    "country_code": "FR",
    "latitude": "48.71157000",
    "longitude": "-0.53739000",
    "native": null,
    "timezone": null,
    "translations": {}
  },
  {
    "id": 44136,
    "name": "Mondeville",
    "state_id": 4804,
    "state_code": "NOR",
    "country_id": 75,
    "country_code": "FR",
    "latitude": "49.17497000",
    "longitude": "-0.32238000",
    "native": null,
    "timezone": null,
    "translations": {}
  },
  {
    "id": 44156,
    "name": "Mont-Saint-Aignan",
    "state_id": 4804,
    "state_code": "NOR",
    "country_id": 75,
    "country_code": "FR",
    "latitude": "49.46307000",
    "longitude": "1.09364000",
    "native": null,
    "timezone": null,
    "translations": {}
  },
  {
    "id": 44185,
    "name": "Montaure",
    "state_id": 4804,
    "state_code": "NOR",
    "country_id": 75,
    "country_code": "FR",
    "latitude": "49.23417000",
    "longitude": "1.08837000",
    "native": null,
    "timezone": null,
    "translations": {}
  },
  {
    "id": 44215,
    "name": "Montebourg",
    "state_id": 4804,
    "state_code": "NOR",
    "country_id": 75,
    "country_code": "FR",
    "latitude": "49.48774000",
    "longitude": "-1.38036000",
    "native": null,
    "timezone": null,
    "translations": {}
  },
  {
    "id": 44256,
    "name": "Montigny",
    "state_id": 4804,
    "state_code": "NOR",
    "country_id": 75,
    "country_code": "FR",
    "latitude": "49.45960000",
    "longitude": "1.00168000",
    "native": null,
    "timezone": null,
    "translations": {}
  },
  {
    "id": 44265,
    "name": "Montivilliers",
    "state_id": 4804,
    "state_code": "NOR",
    "country_id": 75,
    "country_code": "FR",
    "latitude": "49.54518000",
    "longitude": "0.18769000",
    "native": null,
    "timezone": null,
    "translations": {}
  },
  {
    "id": 44280,
    "name": "Montmain",
    "state_id": 4804,
    "state_code": "NOR",
    "country_id": 75,
    "country_code": "FR",
    "latitude": "49.40996000",
    "longitude": "1.23742000",
    "native": null,
    "timezone": null,
    "translations": {}
  },
  {
    "id": 44282,
    "name": "Montmartin-sur-Mer",
    "state_id": 4804,
    "state_code": "NOR",
    "country_id": 75,
    "country_code": "FR",
    "latitude": "48.98861000",
    "longitude": "-1.52530000",
    "native": null,
    "timezone": null,
    "translations": {}
  },
  {
    "id": 44368,
    "name": "Mortagne-au-Perche",
    "state_id": 4804,
    "state_code": "NOR",
    "country_id": 75,
    "country_code": "FR",
    "latitude": "48.52018000",
    "longitude": "0.54734000",
    "native": null,
    "timezone": null,
    "translations": {}
  },
  {
    "id": 44372,
    "name": "Mortain",
    "state_id": 4804,
    "state_code": "NOR",
    "country_id": 75,
    "country_code": "FR",
    "latitude": "48.64782000",
    "longitude": "-0.94055000",
    "native": null,
    "timezone": null,
    "translations": {}
  },
  {
    "id": 44375,
    "name": "Mortrée",
    "state_id": 4804,
    "state_code": "NOR",
    "country_id": 75,
    "country_code": "FR",
    "latitude": "48.63899000",
    "longitude": "0.07909000",
    "native": null,
    "timezone": null,
    "translations": {}
  },
  {
    "id": 44385,
    "name": "Mouen",
    "state_id": 4804,
    "state_code": "NOR",
    "country_id": 75,
    "country_code": "FR",
    "latitude": "49.14696000",
    "longitude": "-0.48366000",
    "native": null,
    "timezone": null,
    "translations": {}
  },
  {
    "id": 44398,
    "name": "Moult",
    "state_id": 4804,
    "state_code": "NOR",
    "country_id": 75,
    "country_code": "FR",
    "latitude": "49.11494000",
    "longitude": "-0.16472000",
    "native": null,
    "timezone": null,
    "translations": {}
  },
  {
    "id": 44420,
    "name": "Moyaux",
    "state_id": 4804,
    "state_code": "NOR",
    "country_id": 75,
    "country_code": "FR",
    "latitude": "49.19511000",
    "longitude": "0.35603000",
    "native": null,
    "timezone": null,
    "translations": {}
  },
  {
    "id": 44517,
    "name": "Nassandres",
    "state_id": 4804,
    "state_code": "NOR",
    "country_id": 75,
    "country_code": "FR",
    "latitude": "49.12632000",
    "longitude": "0.73597000",
    "native": null,
    "timezone": null,
    "translations": {}
  },
  {
    "id": 44527,
    "name": "Neaufles-Saint-Martin",
    "state_id": 4804,
    "state_code": "NOR",
    "country_id": 75,
    "country_code": "FR",
    "latitude": "49.27650000",
    "longitude": "1.72794000",
    "native": null,
    "timezone": null,
    "translations": {}
  },
  {
    "id": 44542,
    "name": "Neufchâtel-en-Bray",
    "state_id": 4804,
    "state_code": "NOR",
    "country_id": 75,
    "country_code": "FR",
    "latitude": "49.73315000",
    "longitude": "1.43956000",
    "native": null,
    "timezone": null,
    "translations": {}
  },
  {
    "id": 44699,
    "name": "Néville",
    "state_id": 4804,
    "state_code": "NOR",
    "country_id": 75,
    "country_code": "FR",
    "latitude": "49.82472000",
    "longitude": "0.70862000",
    "native": null,
    "timezone": null,
    "translations": {}
  },
  {
    "id": 44623,
    "name": "Nointot",
    "state_id": 4804,
    "state_code": "NOR",
    "country_id": 75,
    "country_code": "FR",
    "latitude": "49.59822000",
    "longitude": "0.47674000",
    "native": null,
    "timezone": null,
    "translations": {}
  },
  {
    "id": 44638,
    "name": "Nonancourt",
    "state_id": 4804,
    "state_code": "NOR",
    "country_id": 75,
    "country_code": "FR",
    "latitude": "48.77086000",
    "longitude": "1.19799000",
    "native": null,
    "timezone": null,
    "translations": {}
  },
  {
    "id": 44642,
    "name": "Normanville",
    "state_id": 4804,
    "state_code": "NOR",
    "country_id": 75,
    "country_code": "FR",
    "latitude": "49.07868000",
    "longitude": "1.15915000",
    "native": null,
    "timezone": null,
    "translations": {}
  },
  {
    "id": 44650,
    "name": "Notre-Dame-de-Bondeville",
    "state_id": 4804,
    "state_code": "NOR",
    "country_id": 75,
    "country_code": "FR",
    "latitude": "49.48333000",
    "longitude": "1.05000000",
    "native": null,
    "timezone": null,
    "translations": {}
  },
  {
    "id": 44651,
    "name": "Notre-Dame-de-Gravenchon",
    "state_id": 4804,
    "state_code": "NOR",
    "country_id": 75,
    "country_code": "FR",
    "latitude": "49.48940000",
    "longitude": "0.57188000",
    "native": null,
    "timezone": null,
    "translations": {}
  },
  {
    "id": 44712,
    "name": "Octeville",
    "state_id": 4804,
    "state_code": "NOR",
    "country_id": 75,
    "country_code": "FR",
    "latitude": "49.62612000",
    "longitude": "-1.64349000",
    "native": null,
    "timezone": null,
    "translations": {}
  },
  {
    "id": 44713,
    "name": "Octeville-sur-Mer",
    "state_id": 4804,
    "state_code": "NOR",
    "country_id": 75,
    "country_code": "FR",
    "latitude": "49.55496000",
    "longitude": "0.11660000",
    "native": null,
    "timezone": null,
    "translations": {}
  },
  {
    "id": 44720,
    "name": "Offranville",
    "state_id": 4804,
    "state_code": "NOR",
    "country_id": 75,
    "country_code": "FR",
    "latitude": "49.87208000",
    "longitude": "1.04817000",
    "native": null,
    "timezone": null,
    "translations": {}
  },
  {
    "id": 44728,
    "name": "Oissel",
    "state_id": 4804,
    "state_code": "NOR",
    "country_id": 75,
    "country_code": "FR",
    "latitude": "49.33309000",
    "longitude": "1.09413000",
    "native": null,
    "timezone": null,
    "translations": {}
  },
  {
    "id": 44754,
    "name": "Orbec",
    "state_id": 4804,
    "state_code": "NOR",
    "country_id": 75,
    "country_code": "FR",
    "latitude": "49.01667000",
    "longitude": "0.41667000",
    "native": null,
    "timezone": null,
    "translations": {}
  },
  {
    "id": 44770,
    "name": "Orival",
    "state_id": 4804,
    "state_code": "NOR",
    "country_id": 75,
    "country_code": "FR",
    "latitude": "49.72429000",
    "longitude": "1.20512000",
    "native": null,
    "timezone": null,
    "translations": {}
  },
  {
    "id": 44805,
    "name": "Ouistreham",
    "state_id": 4804,
    "state_code": "NOR",
    "country_id": 75,
    "country_code": "FR",
    "latitude": "49.27566000",
    "longitude": "-0.25910000",
    "native": null,
    "timezone": null,
    "translations": {}
  },
  {
    "id": 44810,
    "name": "Ourville-en-Caux",
    "state_id": 4804,
    "state_code": "NOR",
    "country_id": 75,
    "country_code": "FR",
    "latitude": "49.72854000",
    "longitude": "0.60460000",
    "native": null,
    "timezone": null,
    "translations": {}
  },
  {
    "id": 44824,
    "name": "Pacy-sur-Eure",
    "state_id": 4804,
    "state_code": "NOR",
    "country_id": 75,
    "country_code": "FR",
    "latitude": "49.01667000",
    "longitude": "1.38333000",
    "native": null,
    "timezone": null,
    "translations": {}
  },
  {
    "id": 44853,
    "name": "Parigny",
    "state_id": 4804,
    "state_code": "NOR",
    "country_id": 75,
    "country_code": "FR",
    "latitude": "48.59450000",
    "longitude": "-1.07925000",
    "native": null,
    "timezone": null,
    "translations": {}
  },
  {
    "id": 44874,
    "name": "Pavilly",
    "state_id": 4804,
    "state_code": "NOR",
    "country_id": 75,
    "country_code": "FR",
    "latitude": "49.56703000",
    "longitude": "0.95445000",
    "native": null,
    "timezone": null,
    "translations": {}
  },
  {
    "id": 44895,
    "name": "Percy",
    "state_id": 4804,
    "state_code": "NOR",
    "country_id": 75,
    "country_code": "FR",
    "latitude": "48.91714000",
    "longitude": "-1.18916000",
    "native": null,
    "timezone": null,
    "translations": {}
  },
  {
    "id": 45352,
    "name": "Périers",
    "state_id": 4804,
    "state_code": "NOR",
    "country_id": 75,
    "country_code": "FR",
    "latitude": "49.18667000",
    "longitude": "-1.40762000",
    "native": null,
    "timezone": null,
    "translations": {}
  },
  {
    "id": 44902,
    "name": "Perriers-sur-Andelle",
    "state_id": 4804,
    "state_code": "NOR",
    "country_id": 75,
    "country_code": "FR",
    "latitude": "49.41487000",
    "longitude": "1.37098000",
    "native": null,
    "timezone": null,
    "translations": {}
  },
  {
    "id": 44915,
    "name": "Petit-Couronne",
    "state_id": 4804,
    "state_code": "NOR",
    "country_id": 75,
    "country_code": "FR",
    "latitude": "49.38333000",
    "longitude": "1.01667000",
    "native": null,
    "timezone": null,
    "translations": {}
  },
  {
    "id": 44921,
    "name": "Petiville",
    "state_id": 4804,
    "state_code": "NOR",
    "country_id": 75,
    "country_code": "FR",
    "latitude": "49.46078000",
    "longitude": "0.58740000",
    "native": null,
    "timezone": null,
    "translations": {}
  },
  {
    "id": 44946,
    "name": "Picauville",
    "state_id": 4804,
    "state_code": "NOR",
    "country_id": 75,
    "country_code": "FR",
    "latitude": "49.37810000",
    "longitude": "-1.40048000",
    "native": null,
    "timezone": null,
    "translations": {}
  },
  {
    "id": 44979,
    "name": "Pirou",
    "state_id": 4804,
    "state_code": "NOR",
    "country_id": 75,
    "country_code": "FR",
    "latitude": "49.18089000",
    "longitude": "-1.57384000",
    "native": null,
    "timezone": null,
    "translations": {}
  },
  {
    "id": 44983,
    "name": "Pissy-Pôville",
    "state_id": 4804,
    "state_code": "NOR",
    "country_id": 75,
    "country_code": "FR",
    "latitude": "49.52986000",
    "longitude": "0.99281000",
    "native": null,
    "timezone": null,
    "translations": {}
  },
  {
    "id": 45368,
    "name": "Pîtres",
    "state_id": 4804,
    "state_code": "NOR",
    "country_id": 75,
    "country_code": "FR",
    "latitude": "49.31667000",
    "longitude": "1.23333000",
    "native": null,
    "timezone": null,
    "translations": {}
  },
  {
    "id": 45164,
    "name": "Pont-Audemer",
    "state_id": 4804,
    "state_code": "NOR",
    "country_id": 75,
    "country_code": "FR",
    "latitude": "49.35000000",
    "longitude": "0.51667000",
    "native": null,
    "timezone": null,
    "translations": {}
  },
  {
    "id": 45177,
    "name": "Pont-d'Ouilly",
    "state_id": 4804,
    "state_code": "NOR",
    "country_id": 75,
    "country_code": "FR",
    "latitude": "48.87590000",
    "longitude": "-0.40221000",
    "native": null,
    "timezone": null,
    "translations": {}
  },
  {
    "id": 45194,
    "name": "Pont-Écrepin",
    "state_id": 4804,
    "state_code": "NOR",
    "country_id": 75,
    "country_code": "FR",
    "latitude": "48.76425000",
    "longitude": "-0.24455000",
    "native": null,
    "timezone": null,
    "translations": {}
  },
  {
    "id": 45167,
    "name": "Pont-Hébert",
    "state_id": 4804,
    "state_code": "NOR",
    "country_id": 75,
    "country_code": "FR",
    "latitude": "49.16714000",
    "longitude": "-1.13428000",
    "native": null,
    "timezone": null,
    "translations": {}
  },
  {
    "id": 45191,
    "name": "Pont-l’Évêque",
    "state_id": 4804,
    "state_code": "NOR",
    "country_id": 75,
    "country_code": "FR",
    "latitude": "49.28912000",
    "longitude": "0.19161000",
    "native": null,
    "timezone": null,
    "translations": {}
  },
  {
    "id": 45171,
    "name": "Pont-Saint-Pierre",
    "state_id": 4804,
    "state_code": "NOR",
    "country_id": 75,
    "country_code": "FR",
    "latitude": "49.33561000",
    "longitude": "1.27601000",
    "native": null,
    "timezone": null,
    "translations": {}
  },
  {
    "id": 45215,
    "name": "Pontorson",
    "state_id": 4804,
    "state_code": "NOR",
    "country_id": 75,
    "country_code": "FR",
    "latitude": "48.55316000",
    "longitude": "-1.50754000",
    "native": null,
    "timezone": null,
    "translations": {}
  },
  {
    "id": 45235,
    "name": "Port-en-Bessin-Huppain",
    "state_id": 4804,
    "state_code": "NOR",
    "country_id": 75,
    "country_code": "FR",
    "latitude": "49.34460000",
    "longitude": "-0.75557000",
    "native": null,
    "timezone": null,
    "translations": {}
  },
  {
    "id": 45238,
    "name": "Portbail",
    "state_id": 4804,
    "state_code": "NOR",
    "country_id": 75,
    "country_code": "FR",
    "latitude": "49.33571000",
    "longitude": "-1.69560000",
    "native": null,
    "timezone": null,
    "translations": {}
  },