[
  {
    "id": 107350,
    "name": "Beşiri",
    "state_id": 2194,
    "state_code": "72",
    "country_id": 225,
    "country_code": "TR",
    "latitude": "37.91573000",
    "longitude": "41.28650000",
    "native": null,
    "timezone": null,
    "translations": {}
  },
  {
    "id": 107663,
    "name": "Gercüş",
    "state_id": 2194,
    "state_code": "72",
    "country_id": 225,
    "country_code": "TR",
    "latitude": "37.59139000",
    "longitude": "41.33278000",
    "native": null,
    "timezone": null,
    "translations": {}
  },
  {
    "id": 107800,
    "name": "Hasankeyf",
    "state_id": 2194,
    "state_code": "72",
    "country_id": 225,
    "country_code": "TR",
    "latitude": "37.70612000",
    "longitude": "41.40480000",
    "native": null,
    "timezone": null,
    "translations": {}
  },
  {
    "id": 108035,
    "name": "Kozluk",
    "state_id": 2194,
    "state_code": "72",
    "country_id": 225,
    "country_code": "TR",
    "latitude": "38.19249000",
    "longitude": "41.48705000",
    "native": null,
    "timezone": null,
    "translations": {}
  },
  {
    "id": 108186,
    "name": "Merkez",
    "state_id": 2194,
    "state_code": "72",
    "country_id": 225,
    "country_code": "TR",
    "latitude": "37.84362000",
    "longitude": "41.18341000",
    "native": null,
    "timezone": null,
    "translations": {}
  },
  {
    "id": 108415,
    "name": "Sason",
    "state_id": 2194,
    "state_code": "72",
    "country_id": 225,
    "country_code": "TR",
    "latitude": "38.32767000",
    "longitude": "41.41377000",
    "native": null,
    "timezone": null,
    "translations": {}
  }
]