[
  {
    "id": 52413,
    "name": "Agriá",
    "state_id": 2104,
    "state_code": "24",
    "country_id": 85,
    "country_code": "GR",
    "latitude": "39.34078000",
    "longitude": "23.01258000",
    "native": null,
    "timezone": null,
    "translations": {}
  },
  {
    "id": 53388,
    "name": "Álli Meriá",
    "state_id": 2104,
    "state_code": "24",
    "country_id": 85,
    "country_code": "GR",
    "latitude": "39.37039000",
    "longitude": "22.98350000",
    "native": null,
    "timezone": null,
    "translations": {}
  },
  {
    "id": 52445,
    "name": "Almyrós",
    "state_id": 2104,
    "state_code": "24",
    "country_id": 85,
    "country_code": "GR",
    "latitude": "39.18222000",
    "longitude": "22.75944000",
    "native": null,
    "timezone": null,
    "translations": {}
  },
  {
    "id": 52459,
    "name": "Anakasiá",
    "state_id": 2104,
    "state_code": "24",
    "country_id": 85,
    "country_code": "GR",
    "latitude": "39.38112000",
    "longitude": "22.97484000",
    "native": null,
    "timezone": null,
    "translations": {}
  },
  {
    "id": 53393,
    "name": "Áno Lekhónia",
    "state_id": 2104,
    "state_code": "24",
    "country_id": 85,
    "country_code": "GR",
    "latitude": "39.32763000",
    "longitude": "23.05395000",
    "native": null,
    "timezone": null,
    "translations": {}
  },
  {
    "id": 52486,
    "name": "Argalastí",
    "state_id": 2104,
    "state_code": "24",
    "country_id": 85,
    "country_code": "GR",
    "latitude": "39.22627000",
    "longitude": "23.21868000",
    "native": null,
    "timezone": null,
    "translations": {}
  },
  {
    "id": 52595,
    "name": "Evxinoúpolis",
    "state_id": 2104,
    "state_code": "24",
    "country_id": 85,
    "country_code": "GR",
    "latitude": "39.18414000",
    "longitude": "22.73831000",
    "native": null,
    "timezone": null,
    "translations": {}
  },
  {
    "id": 52704,
    "name": "Kanália",
    "state_id": 2104,
    "state_code": "24",
    "country_id": 85,
    "country_code": "GR",
    "latitude": "39.49928000",
    "longitude": "22.88589000",
    "native": null,
    "timezone": null,
    "translations": {}
  },
  {
    "id": 52811,
    "name": "Káto Lekhónia",
    "state_id": 2104,
    "state_code": "24",
    "country_id": 85,
    "country_code": "GR",
    "latitude": "39.33091000",
    "longitude": "23.03957000",
    "native": null,
    "timezone": null,
    "translations": {}
  },
  {
    "id": 53001,
    "name": "Néa Anchiálos",
    "state_id": 2104,
    "state_code": "24",
    "country_id": 85,
    "country_code": "GR",
    "latitude": "39.28015000",
    "longitude": "22.81819000",
    "native": null,
    "timezone": null,
    "translations": {}
  },
  {
    "id": 53010,
    "name": "Néa Ionía",
    "state_id": 2104,
    "state_code": "24",
    "country_id": 85,
    "country_code": "GR",
    "latitude": "39.37904000",
    "longitude": "22.92752000",
    "native": null,
    "timezone": null,
    "translations": {}
  },
  {
    "id": 53099,
    "name": "Patitírion",
    "state_id": 2104,
    "state_code": "24",
    "country_id": 85,
    "country_code": "GR",
    "latitude": "39.14657000",
    "longitude": "23.86494000",
    "native": null,
    "timezone": null,
    "translations": {}
  },
  {
    "id": 53138,
    "name": "Portariá",
    "state_id": 2104,
    "state_code": "24",
    "country_id": 85,
    "country_code": "GR",
    "latitude": "39.38950000",
    "longitude": "22.99948000",
    "native": null,
    "timezone": null,
    "translations": {}
  },
  {
    "id": 53156,
    "name": "Pteleós",
    "state_id": 2104,
    "state_code": "24",
    "country_id": 85,
    "country_code": "GR",
    "latitude": "39.05261000",
    "longitude": "22.95271000",
    "native": null,
    "timezone": null,
    "translations": {}
  },
  {
    "id": 53192,
    "name": "Rizómylos",
    "state_id": 2104,
    "state_code": "24",
    "country_id": 85,
    "country_code": "GR",
    "latitude": "39.42763000",
    "longitude": "22.74717000",
    "native": null,
    "timezone": null,
    "translations": {}
  },
  {
    "id": 53221,
    "name": "Skiáthos",
    "state_id": 2104,
    "state_code": "24",
    "country_id": 85,
    "country_code": "GR",
    "latitude": "39.16227000",
    "longitude": "23.49089000",
    "native": null,
    "timezone": null,
    "translations": {}
  },
  {
    "id": 53227,
    "name": "Skópelos",
    "state_id": 2104,
    "state_code": "24",
    "country_id": 85,
    "country_code": "GR",
    "latitude": "39.12144000",
    "longitude": "23.72686000",
    "native": null,
    "timezone": null,
    "translations": {}
  },
  {
    "id": 53238,
    "name": "Soúrpi",
    "state_id": 2104,
    "state_code": "24",
    "country_id": 85,
    "country_code": "GR",
    "latitude": "39.10319000",
    "longitude": "22.89789000",
    "native": null,
    "timezone": null,
    "translations": {}
  },
  {
    "id": 53251,
    "name": "Stefanovíkeio",
    "state_id": 2104,
    "state_code": "24",
    "country_id": 85,
    "country_code": "GR",
    "latitude": "39.46354000",
    "longitude": "22.74198000",
    "native": null,
    "timezone": null,
    "translations": {}
  },
  {
    "id": 53292,
    "name": "Tríkeri",
    "state_id": 2104,
    "state_code": "24",
    "country_id": 85,
    "country_code": "GR",
    "latitude": "39.10114000",
    "longitude": "23.07669000",
    "native": null,
    "timezone": null,
    "translations": {}
  },
  {
    "id": 53318,
    "name": "Velestíno",
    "state_id": 2104,
    "state_code": "24",
    "country_id": 85,
    "country_code": "GR",
    "latitude": "39.38181000",
    "longitude": "22.74616000",
    "native": null,
    "timezone": null,
    "translations": {}
  },
  {
    "id": 53327,
    "name": "Volos",
    "state_id": 2104,
    "state_code": "24",
    "country_id": 85,
    "country_code": "GR",
    "latitude": "39.36103000",
    "longitude": "22.94248000",
    "native": null,
    "timezone": null,
    "translations": {}
  },
  {
    "id": 53357,
    "name": "Zagorá",
    "state_id": 2104,
    "state_code": "24",
    "country_id": 85,
    "country_code": "GR",
    "latitude": "39.45000000",
    "longitude": "23.10000000",
    "native": null,
    "timezone": null,
    "translations": {}
  }
]