[
  {
    "id": 3671,
    "name": "Alta Verapaz ",
    "country_id": 90,
    "country_code": "GT",
    "fips_code": null,
    "iso2": "16",
    "type": "department",
    "latitude": "15.59497050",
    "longitude": "-90.09180310",
    "native": "Alta Verapaz ",
    "timezone": "America/Guatemala",
    "translations": {}
  },
  {
    "id": 3674,
    "name": "Baja Verapaz ",
    "country_id": 90,
    "country_code": "GT",
    "fips_code": null,
    "iso2": "15",
    "type": "department",
    "latitude": "15.11707980",
    "longitude": "-90.41096160",
    "native": "Baja Verapaz",
    "timezone": "America/Guatemala",
    "translations": {}
  },
  {
    "id": 3675,
    "name": "Chimaltenango ",
    "country_id": 90,
    "country_code": "GT",
    "fips_code": null,
    "iso2": "04",
    "type": "department",
    "latitude": "14.65397480",
    "longitude": "-90.92727410",
    "native": "Chimaltenango",
    "timezone": "America/Guatemala",
    "translations": {}
  },
  {
    "id": 3666,
    "name": "Chiquimula ",
    "country_id": 90,
    "country_code": "GT",
    "fips_code": null,
    "iso2": "20",
    "type": "department",
    "latitude": "14.80057090",
    "longitude": "-89.54591730",
    "native": "Chiquimula",
    "timezone": "America/Guatemala",
    "translations": {}
  },
  {
    "id": 3662,
    "name": "El Progreso ",
    "country_id": 90,
    "country_code": "GT",
    "fips_code": null,
    "iso2": "02",
    "type": "department",
    "latitude": "14.91004360",
    "longitude": "-90.06827280",
    "native": "El Progreso",
    "timezone": "America/Guatemala",
    "translations": {}
  },
  {
    "id": 3677,
    "name": "Escuintla ",
    "country_id": 90,
    "country_code": "GT",
    "fips_code": null,
    "iso2": "05",
    "type": "department",
    "latitude": "14.19212870",
    "longitude": "-91.02637910",
    "native": "Escuintla",
    "timezone": "America/Guatemala",
    "translations": {}
  },
  {
    "id": 3672,
    "name": "Guatemala ",
    "country_id": 90,
    "country_code": "GT",
    "fips_code": null,
    "iso2": "01",
    "type": "department",
    "latitude": "14.64161420",
    "longitude": "-90.51328360",
    "native": "Guatemala",
    "timezone": "America/Guatemala",
    "translations": {}
  },
  {
    "id": 3670,
    "name": "Huehuetenango ",
    "country_id": 90,
    "country_code": "GT",
    "fips_code": null,
    "iso2": "13",
    "type": "department",
    "latitude": "15.60641800",
    "longitude": "-91.64422170",
    "native": "Huehuetenango",
    "timezone": "America/Guatemala",
    "translations": {}
  },
  {
    "id": 3659,
    "name": "Izabal ",
    "country_id": 90,
    "country_code": "GT",
    "fips_code": null,
    "iso2": "18",
    "type": "department",
    "latitude": "15.57005840",
    "longitude": "-88.98292470",
    "native": "Izabal",
    "timezone": "America/Guatemala",
    "translations": {}
  },
  {
    "id": 3658,
    "name": "Jalapa ",
    "country_id": 90,
    "country_code": "GT",
    "fips_code": null,
    "iso2": "21",
    "type": "department",
    "latitude": "14.63441640",
    "longitude": "-89.98979960",
    "native": "Jalapa",
    "timezone": "America/Guatemala",
    "translations": {}
  },
  {
    "id": 3673,
    "name": "Jutiapa ",
    "country_id": 90,
    "country_code": "GT",
    "fips_code": null,
    "iso2": "22",
    "type": "department",
    "latitude": "14.14768590",
    "longitude": "-89.88725080",
    "native": "Jutiapa",
    "timezone": "America/Guatemala",
    "translations": {}
  },
  {
    "id": 3669,
    "name": "Petén ",
    "country_id": 90,
    "country_code": "GT",
    "fips_code": null,
    "iso2": "17",
    "type": "department",
    "latitude": "16.83179060",
    "longitude": "-90.04506370",
    "native": "Petén ",
    "timezone": "America/Guatemala",
    "translations": {}
  },
  {
    "id": 3668,
    "name": "Quetzaltenango ",
    "country_id": 90,
    "country_code": "GT",
    "fips_code": null,
    "iso2": "09",
    "type": "department",
    "latitude": "14.85946410",
    "longitude": "-91.59315860",
    "native": "Quetzaltenango",
    "timezone": "America/Guatemala",
    "translations": {}
  },
  {
    "id": 3657,
    "name": "Quiché ",
    "country_id": 90,
    "country_code": "GT",
    "fips_code": null,
    "iso2": "14",
    "type": "department",
    "latitude": "15.43817860",
    "longitude": "-91.00751860",
    "native": "Quiché",
    "timezone": "America/Guatemala",
    "translations": {}
  },
  {
    "id": 3664,
    "name": "Retalhuleu ",
    "country_id": 90,
    "country_code": "GT",
    "fips_code": null,
    "iso2": "11",
    "type": "department",
    "latitude": "14.53596210",
    "longitude": "-91.67806510",
    "native": "Retalhuleu",
    "timezone": "America/Guatemala",
    "translations": {}
  },
  {
    "id": 3676,
    "name": "Sacatepéquez ",
    "country_id": 90,
    "country_code": "GT",
    "fips_code": null,
    "iso2": "03",
    "type": "department",
    "latitude": "14.55317590",
    "longitude": "-90.75470180",
    "native": "Sacatepéquez",
    "timezone": "America/Guatemala",
    "translations": {}
  },
  {
    "id": 3667,
    "name": "San Marcos ",
    "country_id": 90,
    "country_code": "GT",
    "fips_code": null,
    "iso2": "12",
    "type": "department",
    "latitude": "14.95331350",
    "longitude": "-91.91204440",
    "native": "San Marcos",
    "timezone": "America/Guatemala",
    "translations": {}
  },
  {
    "id": 3665,
    "name": "Santa Rosa ",
    "country_id": 90,
    "country_code": "GT",
    "fips_code": null,
    "iso2": "06",
    "type": "department",
    "latitude": "14.15015230",
    "longitude": "-90.35088180",
    "native": "Santa Rosa",
    "timezone": "America/Guatemala",
    "translations": {}
  },
  {
    "id": 3661,
    "name": "Sololá ",
    "country_id": 90,
    "country_code": "GT",
    "fips_code": null,
    "iso2": "07",
    "type": "department",
    "latitude": "14.70394120",
    "longitude": "-91.28281800",
    "native": "Sololá",
    "timezone": "America/Guatemala",
    "translations": {}
  },
  {
    "id": 3660,
    "name": "Suchitepéquez ",
    "country_id": 90,
    "country_code": "GT",
    "fips_code": null,
    "iso2": "10",
    "type": "department",
    "latitude": "14.37402260",
    "longitude": "-91.36501390",
    "native": "Suchitepéquez",
    "timezone": "America/Guatemala",
    "translations": {}
  },
  {
    "id": 3663,
    "name": "Totonicapán ",
    "country_id": 90,
    "country_code": "GT",
    "fips_code": null,
    "iso2": "08",
    "type": "department",
    "latitude": "14.91734020",
    "longitude": "-91.36139230",
    "native": "Totonicapán",
    "timezone": "America/Guatemala",
    "translations": {}
  },
  {
    "id": 5239,
    "name": "Zacapa",
    "country_id": 90,
    "country_code": "GT",
    "fips_code": null,
    "iso2": "19",
    "type": "department",
    "latitude": "14.97072190",
    "longitude": "-89.52974110",
    "native": "Zacapa",
    "timezone": "America/Guatemala",
    "translations": {}
  }
]