[
  {
    "id": 153462,
    "name": "Bukit Timah",
    "state_id": 4651,
    "state_code": "01",
    "country_id": 199,
    "country_code": "SG",
    "latitude": "1.32940000",
    "longitude": "103.80210000",
    "native": null,
    "timezone": null,
    "translations": {}
  },
  {
    "id": 153466,
    "name": "Downtown Core",
    "state_id": 4651,
    "state_code": "01",
    "country_id": 199,
    "country_code": "SG",
    "latitude": "1.27800000",
    "longitude": "103.85200000",
    "native": null,
    "timezone": null,
    "translations": {}
  },
  {
    "id": 153463,
    "name": "Geylang",
    "state_id": 4651,
    "state_code": "01",
    "country_id": 199,
    "country_code": "SG",
    "latitude": "1.31820000",
    "longitude": "103.88710000",
    "native": null,
    "timezone": null,
    "translations": {}
  },
  {
    "id": 153467,
    "name": "Kallang",
    "state_id": 4651,
    "state_code": "01",
    "country_id": 199,
    "country_code": "SG",
    "latitude": "1.31060000",
    "longitude": "103.86600000",
    "native": null,
    "timezone": null,
    "translations": {}
  },
  {
    "id": 153459,
    "name": "Marine Parade",
    "state_id": 4651,
    "state_code": "01",
    "country_id": 199,
    "country_code": "SG",
    "latitude": "1.30300000",
    "longitude": "103.90720000",
    "native": null,
    "timezone": null,
    "translations": {}
  },
  {
    "id": 153461,
    "name": "Novena",
    "state_id": 4651,
    "state_code": "01",
    "country_id": 199,
    "country_code": "SG",
    "latitude": "1.32010000",
    "longitude": "103.84390000",
    "native": null,
    "timezone": null,
    "translations": {}
  },
  {
    "id": 153464,
    "name": "Orchard Road",
    "state_id": 4651,
    "state_code": "01",
    "country_id": 199,
    "country_code": "SG",
    "latitude": "1.30360000",
    "longitude": "103.83180000",
    "native": null,
    "timezone": null,
    "translations": {}
  },
  {
    "id": 153468,
    "name": "Outram",
    "state_id": 4651,
    "state_code": "01",
    "country_id": 199,
    "country_code": "SG",
    "latitude": "1.28190000",
    "longitude": "103.83900000",
    "native": null,
    "timezone": null,
    "translations": {}
  },
  {
    "id": 153465,
    "name": "Rochor",
    "state_id": 4651,
    "state_code": "01",
    "country_id": 199,
    "country_code": "SG",
    "latitude": "1.30490000",
    "longitude": "103.85200000",
    "native": null,
    "timezone": null,
    "translations": {}
  },
  {
    "id": 104057,
    "name": "Singapore",
    "state_id": 4651,
    "state_code": "01",
    "country_id": 199,
    "country_code": "SG",
    "latitude": "1.28967000",
    "longitude": "103.85007000",
    "native": null,
    "timezone": null,
    "translations": {}
  },
  {
    "id": 153460,
    "name": "Tanjong Pagar",
    "state_id": 4651,
    "state_code": "01",
    "country_id": 199,
    "country_code": "SG",
    "latitude": "1.27640000",
    "longitude": "103.84340000",
    "native": null,
    "timezone": null,
    "translations": {}
  },
  {
    "id": 153469,
    "name": "Toa Payoh",
    "state_id": 4651,
    "state_code": "01",
    "country_id": 199,
    "country_code": "SG",
    "latitude": "1.33540000",
    "longitude": "103.84970000",
    "native": null,
    "timezone": null,
    "translations": {}
  }
]