[
  {
    "id": 145786,
    "name": "Adams",
    "state_id": 1298,
    "state_code": "ILN",
    "country_id": 174,
    "country_code": "PH",
    "latitude": "18.43902960",
    "longitude": "120.83394140",
    "native": null,
    "timezone": null,
    "translations": {}
  },
  {
    "id": 145806,
    "name": "Bacarra",
    "state_id": 1298,
    "state_code": "ILN",
    "country_id": 174,
    "country_code": "PH",
    "latitude": "18.25832460",
    "longitude": "120.52870080",
    "native": null,
    "timezone": null,
    "translations": {}
  },
  {
    "id": 145811,
    "name": "Badoc",
    "state_id": 1298,
    "state_code": "ILN",
    "country_id": 174,
    "country_code": "PH",
    "latitude": "17.91022520",
    "longitude": "120.41798330",
    "native": null,
    "timezone": null,
    "translations": {}
  },
  {
    "id": 145823,
    "name": "Bangui",
    "state_id": 1298,
    "state_code": "ILN",
    "country_id": 174,
    "country_code": "PH",
    "latitude": "18.46727860",
    "longitude": "120.67103470",
    "native": null,
    "timezone": null,
    "translations": {}
  },
  {
    "id": 145825,
    "name": "Banna",
    "state_id": 1298,
    "state_code": "ILN",
    "country_id": 174,
    "country_code": "PH",
    "latitude": "17.97950230",
    "longitude": "120.57816580",
    "native": null,
    "timezone": null,
    "translations": {}
  },
  {
    "id": 145835,
    "name": "Batac",
    "state_id": 1298,
    "state_code": "ILN",
    "country_id": 174,
    "country_code": "PH",
    "latitude": "18.03211930",
    "longitude": "120.49237710",
    "native": null,
    "timezone": null,
    "translations": {}
  },
  {
    "id": 145860,
    "name": "Burgos",
    "state_id": 1298,
    "state_code": "ILN",
    "country_id": 174,
    "country_code": "PH",
    "latitude": "18.46357390",
    "longitude": "120.56095410",
    "native": null,
    "timezone": null,
    "translations": {}
  },
  {
    "id": 145887,
    "name": "Carasi",
    "state_id": 1298,
    "state_code": "ILN",
    "country_id": 174,
    "country_code": "PH",
    "latitude": "18.23050040",
    "longitude": "120.80123980",
    "native": null,
    "timezone": null,
    "translations": {}
  },
  {
    "id": 145905,
    "name": "Currimao",
    "state_id": 1298,
    "state_code": "ILN",
    "country_id": 174,
    "country_code": "PH",
    "latitude": "18.01890000",
    "longitude": "120.45959350",
    "native": null,
    "timezone": null,
    "translations": {}
  },
  {
    "id": 145914,
    "name": "Dingras",
    "state_id": 1298,
    "state_code": "ILN",
    "country_id": 174,
    "country_code": "PH",
    "latitude": "18.07588870",
    "longitude": "120.66133490",
    "native": null,
    "timezone": null,
    "translations": {}
  },
  {
    "id": 145921,
    "name": "Dumalneg",
    "state_id": 1298,
    "state_code": "ILN",
    "country_id": 174,
    "country_code": "PH",
    "latitude": "18.47308420",
    "longitude": "120.79636650",
    "native": null,
    "timezone": null,
    "translations": {}
  },
  {
    "id": 145944,
    "name": "Laoag",
    "state_id": 1298,
    "state_code": "ILN",
    "country_id": 174,
    "country_code": "PH",
    "latitude": "18.19826940",
    "longitude": "120.51527430",
    "native": null,
    "timezone": null,
    "translations": {}
  },
  {
    "id": 145982,
    "name": "Marcos",
    "state_id": 1298,
    "state_code": "ILN",
    "country_id": 174,
    "country_code": "PH",
    "latitude": "18.02988670",
    "longitude": "120.61931440",
    "native": null,
    "timezone": null,
    "translations": {}
  },
  {
    "id": 146001,
    "name": "Nueva Era",
    "state_id": 1298,
    "state_code": "ILN",
    "country_id": 174,
    "country_code": "PH",
    "latitude": "17.95021590",
    "longitude": "120.41440590",
    "native": null,
    "timezone": null,
    "translations": {}
  },
  {
    "id": 146006,
    "name": "Pagudpud",
    "state_id": 1298,
    "state_code": "ILN",
    "country_id": 174,
    "country_code": "PH",
    "latitude": "18.56598700",
    "longitude": "120.71179790",
    "native": null,
    "timezone": null,
    "translations": {}
  },
  {
    "id": 146014,
    "name": "Paoay",
    "state_id": 1298,
    "state_code": "ILN",
    "country_id": 174,
    "country_code": "PH",
    "latitude": "18.07796030",
    "longitude": "120.47480490",
    "native": null,
    "timezone": null,
    "translations": {}
  },
  {
    "id": 146018,
    "name": "Pasuquin",
    "state_id": 1298,
    "state_code": "ILN",
    "country_id": 174,
    "country_code": "PH",
    "latitude": "18.38426810",
    "longitude": "120.55223440",
    "native": null,
    "timezone": null,
    "translations": {}
  },
  {
    "id": 146022,
    "name": "Piddig",
    "state_id": 1298,
    "state_code": "ILN",
    "country_id": 174,
    "country_code": "PH",
    "latitude": "18.19300140",
    "longitude": "120.68455300",
    "native": null,
    "timezone": null,
    "translations": {}
  },
  {
    "id": 146024,
    "name": "Pinili",
    "state_id": 1298,
    "state_code": "ILN",
    "country_id": 174,
    "country_code": "PH",
    "latitude": "17.94533870",
    "longitude": "120.45875310",
    "native": null,
    "timezone": null,
    "translations": {}
  },
  {
    "id": 154544,
    "name": "San Nicolas",
    "state_id": 1298,
    "state_code": "ILN",
    "country_id": 174,
    "country_code": "PH",
    "latitude": "18.14328470",
    "longitude": "120.55181990",
    "native": null,
    "timezone": null,
    "translations": {}
  },
  {
    "id": 146088,
    "name": "Sarrat",
    "state_id": 1298,
    "state_code": "ILN",
    "country_id": 174,
    "country_code": "PH",
    "latitude": "18.10921290",
    "longitude": "120.56889880",
    "native": null,
    "timezone": null,
    "translations": {}
  },
  {
    "id": 146092,
    "name": "Solsona",
    "state_id": 1298,
    "state_code": "ILN",
    "country_id": 174,
    "country_code": "PH",
    "latitude": "18.12104980",
    "longitude": "120.67818720",
    "native": null,
    "timezone": null,
    "translations": {}
  },
  {
    "id": 146131,
    "name": "Vintar",
    "state_id": 1298,
    "state_code": "ILN",
    "country_id": 174,
    "country_code": "PH",
    "latitude": "18.31836550",
    "longitude": "120.62558840",
    "native": null,
    "timezone": null,
    "translations": {}
  }
]