[
  {
    "id": 31899,
    "name": "Abades",
    "state_id": 1192,
    "state_code": "SG",
    "country_id": 207,
    "country_code": "ES",
    "latitude": "40.91646000",
    "longitude": "-4.26937000",
    "native": null,
    "timezone": null,
    "translations": {}
  },
  {
    "id": 31938,
    "name": "Adrada de Pirón",
    "state_id": 1192,
    "state_code": "SG",
    "country_id": 207,
    "country_code": "ES",
    "latitude": "41.05257000",
    "longitude": "-4.05107000",
    "native": null,
    "timezone": null,
    "translations": {}
  },
  {
    "id": 31940,
    "name": "Adrados",
    "state_id": 1192,
    "state_code": "SG",
    "country_id": 207,
    "country_code": "ES",
    "latitude": "41.36816000",
    "longitude": "-4.11186000",
    "native": null,
    "timezone": null,
    "translations": {}
  },
  {
    "id": 31957,
    "name": "Aguilafuente",
    "state_id": 1192,
    "state_code": "SG",
    "country_id": 207,
    "country_code": "ES",
    "latitude": "41.22667000",
    "longitude": "-4.11185000",
    "native": null,
    "timezone": null,
    "translations": {}
  },
  {
    "id": 32114,
    "name": "Alconada de Maderuelo",
    "state_id": 1192,
    "state_code": "SG",
    "country_id": 207,
    "country_code": "ES",
    "latitude": "41.45015000",
    "longitude": "-3.48554000",
    "native": null,
    "timezone": null,
    "translations": {}
  },
  {
    "id": 32141,
    "name": "Aldea Real",
    "state_id": 1192,
    "state_code": "SG",
    "country_id": 207,
    "country_code": "ES",
    "latitude": "41.18553000",
    "longitude": "-4.16559000",
    "native": null,
    "timezone": null,
    "translations": {}
  },
  {
    "id": 32151,
    "name": "Aldealcorvo",
    "state_id": 1192,
    "state_code": "SG",
    "country_id": 207,
    "country_code": "ES",
    "latitude": "41.24443000",
    "longitude": "-3.79136000",
    "native": null,
    "timezone": null,
    "translations": {}
  },
  {
    "id": 152756,
    "name": "Aldealengua de Pedraza",
    "state_id": 1192,
    "state_code": "SG",
    "country_id": 207,
    "country_code": "ES",
    "latitude": "41.02752130",
    "longitude": "-3.79431570",
    "native": null,
    "timezone": null,
    "translations": {}
  },
  {
    "id": 32153,
    "name": "Aldealengua de Santa María",
    "state_id": 1192,
    "state_code": "SG",
    "country_id": 207,
    "country_code": "ES",
    "latitude": "41.46196000",
    "longitude": "-3.46723000",
    "native": null,
    "timezone": null,
    "translations": {}
  },
  {
    "id": 152757,
    "name": "Aldeanueva de la Serrezuela",
    "state_id": 1192,
    "state_code": "SG",
    "country_id": 207,
    "country_code": "ES",
    "latitude": "41.46119330",
    "longitude": "-3.78097400",
    "native": null,
    "timezone": null,
    "translations": {}
  },
  {
    "id": 32166,
    "name": "Aldeanueva del Codonal",
    "state_id": 1192,
    "state_code": "SG",
    "country_id": 207,
    "country_code": "ES",
    "latitude": "41.08236000",
    "longitude": "-4.54369000",
    "native": null,
    "timezone": null,
    "translations": {}
  },
  {
    "id": 32173,
    "name": "Aldeasoña",
    "state_id": 1192,
    "state_code": "SG",
    "country_id": 207,
    "country_code": "ES",
    "latitude": "41.47285000",
    "longitude": "-4.05711000",
    "native": null,
    "timezone": null,
    "translations": {}
  },
  {
    "id": 152758,
    "name": "Aldehorno",
    "state_id": 1192,
    "state_code": "SG",
    "country_id": 207,
    "country_code": "ES",
    "latitude": "41.51278770",
    "longitude": "-3.77811560",
    "native": null,
    "timezone": null,
    "translations": {}
  },
  {
    "id": 32179,
    "name": "Aldehuela del Codonal",
    "state_id": 1192,
    "state_code": "SG",
    "country_id": 207,
    "country_code": "ES",
    "latitude": "41.05504000",
    "longitude": "-4.53863000",
    "native": null,
    "timezone": null,
    "translations": {}
  },
  {
    "id": 32181,
    "name": "Aldeonte",
    "state_id": 1192,
    "state_code": "SG",
    "country_id": 207,
    "country_code": "ES",
    "latitude": "41.35092000",
    "longitude": "-3.67847000",
    "native": null,
    "timezone": null,
    "translations": {}
  },
  {
    "id": 32366,
    "name": "Anaya",
    "state_id": 1192,
    "state_code": "SG",
    "country_id": 207,
    "country_code": "ES",
    "latitude": "40.99184000",
    "longitude": "-4.30950000",
    "native": null,
    "timezone": null,
    "translations": {}
  },
  {
    "id": 32595,
    "name": "Añe",
    "state_id": 1192,
    "state_code": "SG",
    "country_id": 207,
    "country_code": "ES",
    "latitude": "41.03702000",
    "longitude": "-4.29462000",
    "native": null,
    "timezone": null,
    "translations": {}
  },
  {
    "id": 32402,
    "name": "Arahuetes",
    "state_id": 1192,
    "state_code": "SG",
    "country_id": 207,
    "country_code": "ES",
    "latitude": "41.13762000",
    "longitude": "-3.85664000",
    "native": null,
    "timezone": null,
    "translations": {}
  },
  {
    "id": 32434,
    "name": "Arcones",
    "state_id": 1192,
    "state_code": "SG",
    "country_id": 207,
    "country_code": "ES",
    "latitude": "41.11817000",
    "longitude": "-3.72384000",
    "native": null,
    "timezone": null,
    "translations": {}
  },
  {
    "id": 32459,
    "name": "Arevalillo de Cega",
    "state_id": 1192,
    "state_code": "SG",
    "country_id": 207,
    "country_code": "ES",
    "latitude": "41.16174000",
    "longitude": "-3.88911000",
    "native": null,
    "timezone": null,
    "translations": {}
  },
  {
    "id": 32490,
    "name": "Armuña",
    "state_id": 1192,
    "state_code": "SG",
    "country_id": 207,
    "country_code": "ES",
    "latitude": "41.07715000",
    "longitude": "-4.31949000",
    "native": null,
    "timezone": null,
    "translations": {}
  },
  {
    "id": 32574,
    "name": "Ayllón",
    "state_id": 1192,
    "state_code": "SG",
    "country_id": 207,
    "country_code": "ES",
    "latitude": "41.41899000",
    "longitude": "-3.37537000",
    "native": null,
    "timezone": null,
    "translations": {}
  },
  {
    "id": 32648,
    "name": "Barbolla",
    "state_id": 1192,
    "state_code": "SG",
    "country_id": 207,
    "country_code": "ES",
    "latitude": "41.32567000",
    "longitude": "-3.67361000",
    "native": null,
    "timezone": null,
    "translations": {}
  },
  {
    "id": 32687,
    "name": "Basardilla",
    "state_id": 1192,
    "state_code": "SG",
    "country_id": 207,
    "country_code": "ES",
    "latitude": "41.02737000",
    "longitude": "-4.02598000",
    "native": null,
    "timezone": null,
    "translations": {}
  },
  {
    "id": 32840,
    "name": "Bercial",
    "state_id": 1192,
    "state_code": "SG",
    "country_id": 207,
    "country_code": "ES",
    "latitude": "40.90711000",
    "longitude": "-4.43638000",
    "native": null,
    "timezone": null,
    "translations": {}
  },
  {
    "id": 32844,
    "name": "Bercimuel",
    "state_id": 1192,
    "state_code": "SG",
    "country_id": 207,
    "country_code": "ES",
    "latitude": "41.39925000",
    "longitude": "-3.57051000",
    "native": null,
    "timezone": null,
    "translations": {}
  },
  {
    "id": 32861,
    "name": "Bernardos",
    "state_id": 1192,
    "state_code": "SG",
    "country_id": 207,
    "country_code": "ES",
    "latitude": "41.12787000",
    "longitude": "-4.35119000",
    "native": null,
    "timezone": null,
    "translations": {}
  },
  {
    "id": 152759,
    "name": "Bernuy de Porreros",
    "state_id": 1192,
    "state_code": "SG",
    "country_id": 207,
    "country_code": "ES",
    "latitude": "40.99941430",
    "longitude": "-4.11875650",
    "native": null,
    "timezone": null,
    "translations": {}
  },
  {
    "id": 32924,
    "name": "Boceguillas",
    "state_id": 1192,
    "state_code": "SG",
    "country_id": 207,
    "country_code": "ES",
    "latitude": "41.33641000",
    "longitude": "-3.63828000",
    "native": null,
    "timezone": null,
    "translations": {}
  },
  {
    "id": 32982,
    "name": "Brieva",
    "state_id": 1192,
    "state_code": "SG",
    "country_id": 207,
    "country_code": "ES",
    "latitude": "41.03483000",
    "longitude": "-4.05364000",
    "native": null,
    "timezone": null,
    "translations": {}
  },
  {
    "id": 33065,
    "name": "Caballar",
    "state_id": 1192,
    "state_code": "SG",
    "country_id": 207,
    "country_code": "ES",
    "latitude": "41.12159000",
    "longitude": "-3.96420000",
    "native": null,
    "timezone": null,
    "translations": {}
  },
  {
    "id": 33071,
    "name": "Cabañas de Polendos",
    "state_id": 1192,
    "state_code": "SG",
    "country_id": 207,
    "country_code": "ES",
    "latitude": "41.06667000",
    "longitude": "-4.11010000",
    "native": null,
    "timezone": null,
    "translations": {}
  },
  {
    "id": 33088,
    "name": "Cabezuela",
    "state_id": 1192,
    "state_code": "SG",
    "country_id": 207,
    "country_code": "ES",
    "latitude": "41.23590000",
    "longitude": "-3.93173000",
    "native": null,
    "timezone": null,
    "translations": {}
  },
  {
    "id": 152760,
    "name": "Calabazas de Fuentidueña",
    "state_id": 1192,
    "state_code": "SG",
    "country_id": 207,
    "country_code": "ES",
    "latitude": "41.44565330",
    "longitude": "-4.00985150",
    "native": null,
    "timezone": null,
    "translations": {}
  },
  {
    "id": 33203,
    "name": "Campo de San Pedro",
    "state_id": 1192,
    "state_code": "SG",
    "country_id": 207,
    "country_code": "ES",
    "latitude": "41.42992000",
    "longitude": "-3.54599000",
    "native": null,
    "timezone": null,
    "translations": {}
  },
  {
    "id": 33251,
    "name": "Cantalejo",
    "state_id": 1192,
    "state_code": "SG",
    "country_id": 207,
    "country_code": "ES",
    "latitude": "41.25760000",
    "longitude": "-3.92791000",
    "native": null,
    "timezone": null,
    "translations": {}
  },
  {
    "id": 33258,
    "name": "Cantimpalos",
    "state_id": 1192,
    "state_code": "SG",
    "country_id": 207,
    "country_code": "ES",
    "latitude": "41.07406000",
    "longitude": "-4.15988000",
    "native": null,
    "timezone": null,
    "translations": {}
  },
  {
    "id": 33287,
    "name": "Carbonero el Mayor",
    "state_id": 1192,
    "state_code": "SG",
    "country_id": 207,
    "country_code": "ES",
    "latitude": "41.12257000",
    "longitude": "-4.26478000",
    "native": null,
    "timezone": null,
    "translations": {}
  },
  {
    "id": 152761,
    "name": "Carrascal del Río",
    "state_id": 1192,
    "state_code": "SG",
    "country_id": 207,
    "country_code": "ES",
    "latitude": "41.36729130",
    "longitude": "-3.89799120",
    "native": null,
    "timezone": null,
    "translations": {}
  },
  {
    "id": 33392,
    "name": "Casla",
    "state_id": 1192,
    "state_code": "SG",
    "country_id": 207,
    "country_code": "ES",
    "latitude": "41.16602000",
    "longitude": "-3.65643000",
    "native": null,
    "timezone": null,
    "translations": {}
  },
  {
    "id": 33459,
    "name": "Castillejo de Mesleón",
    "state_id": 1192,
    "state_code": "SG",
    "country_id": 207,
    "country_code": "ES",
    "latitude": "41.28100000",
    "longitude": "-3.60137000",
    "native": null,
    "timezone": null,
    "translations": {}
  },
  {
    "id": 33489,
    "name": "Castro de Fuentidueña",
    "state_id": 1192,
    "state_code": "SG",
    "country_id": 207,
    "country_code": "ES",
    "latitude": "41.42044000",
    "longitude": "-3.85528000",
    "native": null,
    "timezone": null,
    "translations": {}
  },
  {
    "id": 33498,
    "name": "Castrojimeno",
    "state_id": 1192,
    "state_code": "SG",
    "country_id": 207,
    "country_code": "ES",
    "latitude": "41.39659000",
    "longitude": "-3.84726000",
    "native": null,
    "timezone": null,
    "translations": {}
  },
  {
    "id": 33507,
    "name": "Castroserna de Abajo",
    "state_id": 1192,
    "state_code": "SG",
    "country_id": 207,
    "country_code": "ES",
    "latitude": "41.20835000",
    "longitude": "-3.73387000",
    "native": null,
    "timezone": null,
    "translations": {}
  },
  {
    "id": 33508,
    "name": "Castroserracín",
    "state_id": 1192,
    "state_code": "SG",
    "country_id": 207,
    "country_code": "ES",
    "latitude": "41.39329000",
    "longitude": "-3.80196000",
    "native": null,
    "timezone": null,
    "translations": {}
  },
  {
    "id": 33556,
    "name": "Cedillo de la Torre",
    "state_id": 1192,
    "state_code": "SG",
    "country_id": 207,
    "country_code": "ES",
    "latitude": "41.42482000",
    "longitude": "-3.60577000",
    "native": null,
    "timezone": null,
    "translations": {}
  },
  {
    "id": 33588,
    "name": "Cerezo de Abajo",
    "state_id": 1192,
    "state_code": "SG",
    "country_id": 207,
    "country_code": "ES",
    "latitude": "41.21817000",
    "longitude": "-3.59126000",
    "native": null,
    "timezone": null,
    "translations": {}
  },
  {
    "id": 33589,
    "name": "Cerezo de Arriba",
    "state_id": 1192,
    "state_code": "SG",
    "country_id": 207,
    "country_code": "ES",
    "latitude": "41.23890000",
    "longitude": "-3.55846000",
    "native": null,
    "timezone": null,
    "translations": {}
  },
  {
    "id": 33620,
    "name": "Chañe",
    "state_id": 1192,
    "state_code": "SG",
    "country_id": 207,
    "country_code": "ES",
    "latitude": "41.33834000",
    "longitude": "-4.42764000",
    "native": null,
    "timezone": null,
    "translations": {}
  },
  {
    "id": 33671,
    "name": "Cilleruelo de San Mamés",
    "state_id": 1192,
    "state_code": "SG",
    "country_id": 207,
    "country_code": "ES",
    "latitude": "41.43220000",
    "longitude": "-3.56614000",
    "native": null,
    "timezone": null,
    "translations": {}
  },
  {
    "id": 33712,
    "name": "Cobos de Fuentidueña",
    "state_id": 1192,
    "state_code": "SG",
    "country_id": 207,
    "country_code": "ES",
    "latitude": "41.38265000",
    "longitude": "-3.92723000",
    "native": null,
    "timezone": null,
    "translations": {}
  },
  {
    "id": 33714,
    "name": "Coca",
    "state_id": 1192,
    "state_code": "SG",
    "country_id": 207,
    "country_code": "ES",
    "latitude": "41.21767000",
    "longitude": "-4.52145000",
    "native": null,
    "timezone": null,
    "translations": {}
  },
  {
    "id": 33717,
    "name": "Codorniz",
    "state_id": 1192,
    "state_code": "SG",
    "country_id": 207,
    "country_code": "ES",
    "latitude": "41.06745000",
    "longitude": "-4.60021000",
    "native": null,
    "timezone": null,
    "translations": {}
  },
  {
    "id": 33732,
    "name": "Collado Hermoso",
    "state_id": 1192,
    "state_code": "SG",
    "country_id": 207,
    "country_code": "ES",
    "latitude": "41.03869000",
    "longitude": "-3.91859000",
    "native": null,
    "timezone": null,
    "translations": {}
  },
  {
    "id": 152762,
    "name": "Condado de Castilnovo",
    "state_id": 1192,
    "state_code": "SG",
    "country_id": 207,
    "country_code": "ES",
    "latitude": "41.24511060",
    "longitude": "-3.74858740",
    "native": null,
    "timezone": null,
    "translations": {}
  },
  {
    "id": 33799,
    "name": "Corral de Ayllón",
    "state_id": 1192,
    "state_code": "SG",
    "country_id": 207,
    "country_code": "ES",
    "latitude": "41.39081000",
    "longitude": "-3.45856000",
    "native": null,
    "timezone": null,
    "translations": {}
  },
  {
    "id": 33830,
    "name": "Cozuelos de Fuentidueña",
    "state_id": 1192,
    "state_code": "SG",
    "country_id": 207,
    "country_code": "ES",
    "latitude": "41.39086000",
    "longitude": "-4.09564000",
    "native": null,
    "timezone": null,
    "translations": {}
  },
  {
    "id": 33854,
    "name": "Cubillo",
    "state_id": 1192,
    "state_code": "SG",
    "country_id": 207,
    "country_code": "ES",
    "latitude": "41.12138000",
    "longitude": "-3.90878000",
    "native": null,
    "timezone": null,
    "translations": {}
  },
  {
    "id": 33888,
    "name": "Cuéllar",
    "state_id": 1192,
    "state_code": "SG",
    "country_id": 207,
    "country_code": "ES",
    "latitude": "41.40155000",
    "longitude": "-4.31474000",
    "native": null,
    "timezone": null,
    "translations": {}
  },
  {
    "id": 33872,
    "name": "Cuevas de Provanco",
    "state_id": 1192,
    "state_code": "SG",
    "country_id": 207,
    "country_code": "ES",
    "latitude": "41.54209000",
    "longitude": "-3.96203000",
    "native": null,
    "timezone": null,
    "translations": {}
  },
  {
    "id": 33938,
    "name": "Domingo García",
    "state_id": 1192,
    "state_code": "SG",
    "country_id": 207,
    "country_code": "ES",
    "latitude": "41.11528000",
    "longitude": "-4.37927000",
    "native": null,
    "timezone": null,
    "translations": {}
  },
  {
    "id": 33944,
    "name": "Donhierro",
    "state_id": 1192,
    "state_code": "SG",
    "country_id": 207,
    "country_code": "ES",
    "latitude": "41.11642000",
    "longitude": "-4.69670000",
    "native": null,
    "timezone": null,
    "translations": {}
  },
  {
    "id": 33962,
    "name": "Duruelo",
    "state_id": 1192,
    "state_code": "SG",
    "country_id": 207,
    "country_code": "ES",
    "latitude": "41.23622000",
    "longitude": "-3.64914000",
    "native": null,
    "timezone": null,
    "translations": {}
  },
  {
    "id": 34046,
    "name": "Encinas",
    "state_id": 1192,
    "state_code": "SG",
    "country_id": 207,
    "country_code": "ES",
    "latitude": "41.37511000",
    "longitude": "-3.66762000",
    "native": null,
    "timezone": null,
    "translations": {}
  },
  {
    "id": 34054,
    "name": "Encinillas",
    "state_id": 1192,
    "state_code": "SG",
    "country_id": 207,
    "country_code": "ES",
    "latitude": "41.01809000",
    "longitude": "-4.15784000",
    "native": null,
    "timezone": null,
    "translations": {}
  },
  {
    "id": 34078,
    "name": "Escalona del Prado",
    "state_id": 1192,
    "state_code": "SG",
    "country_id": 207,
    "country_code": "ES",
    "latitude": "41.16682000",
    "longitude": "-4.12272000",
    "native": null,
    "timezone": null,
    "translations": {}
  },
  {
    "id": 34081,
    "name": "Escarabajosa de Cabezas",
    "state_id": 1192,
    "state_code": "SG",
    "country_id": 207,
    "country_code": "ES",
    "latitude": "41.10470000",
    "longitude": "-4.19411000",
    "native": null,
    "timezone": null,
    "translations": {}
  },
  {
    "id": 34086,
    "name": "Escobar de Polendos",
    "state_id": 1192,
    "state_code": "SG",
    "country_id": 207,
    "country_code": "ES",
    "latitude": "41.09079000",
    "longitude": "-4.13117000",
    "native": null,
    "timezone": null,
    "translations": {}
  },
  {
    "id": 152763,
    "name": "Espinar El",
    "state_id": 1192,
    "state_code": "SG",
    "country_id": 207,
    "country_code": "ES",
    "latitude": "40.74049150",
    "longitude": "-4.21283370",
    "native": null,
    "timezone": null,
    "translations": {}
  },
  {
    "id": 34125,
    "name": "Espirdo",
    "state_id": 1192,
    "state_code": "SG",
    "country_id": 207,
    "country_code": "ES",
    "latitude": "40.99764000",
    "longitude": "-4.07331000",
    "native": null,
    "timezone": null,
    "translations": {}
  },
  {
    "id": 34245,
    "name": "Fresneda de Cuéllar",
    "state_id": 1192,
    "state_code": "SG",
    "country_id": 207,
    "country_code": "ES",
    "latitude": "41.31905000",
    "longitude": "-4.44938000",
    "native": null,
    "timezone": null,
    "translations": {}
  },
  {
    "id": 34255,
    "name": "Fresno de Cantespino",
    "state_id": 1192,
    "state_code": "SG",
    "country_id": 207,
    "country_code": "ES",
    "latitude": "41.36820000",
    "longitude": "-3.49950000",
    "native": null,
    "timezone": null,
    "translations": {}
  },
  {
    "id": 34260,
    "name": "Fresno de la Fuente",
    "state_id": 1192,
    "state_code": "SG",
    "country_id": 207,
    "country_code": "ES",
    "latitude": "41.39243000",
    "longitude": "-3.64491000",
    "native": null,
    "timezone": null,
    "translations": {}
  },
  {
    "id": 34269,
    "name": "Frumales",
    "state_id": 1192,
    "state_code": "SG",
    "country_id": 207,
    "country_code": "ES",
    "latitude": "41.38333000",
    "longitude": "-4.18631000",
    "native": null,
    "timezone": null,
    "translations": {}
  },
  {
    "id": 34298,
    "name": "Fuente de Santa Cruz",
    "state_id": 1192,
    "state_code": "SG",
    "country_id": 207,
    "country_code": "ES",
    "latitude": "41.20972000",
    "longitude": "-4.63530000",
    "native": null,
    "timezone": null,
    "translations": {}
  },
  {
    "id": 34301,
    "name": "Fuente el Olmo de Fuentidueña",
    "state_id": 1192,
    "state_code": "SG",
    "country_id": 207,
    "country_code": "ES",
    "latitude": "41.37929000",
    "longitude": "-4.00086000",
    "native": null,
    "timezone": null,
    "translations": {}
  },
  {
    "id": 152764,
    "name": "Fuente el Olmo de Íscar",
    "state_id": 1192,
    "state_code": "SG",
    "country_id": 207,
    "country_code": "ES",
    "latitude": "41.28053600",
    "longitude": "-4.49349700",
    "native": null,
    "timezone": null,
    "translations": {}
  },
  {
    "id": 34330,
    "name": "Fuentepelayo",
    "state_id": 1192,
    "state_code": "SG",
    "country_id": 207,
    "country_code": "ES",
    "latitude": "41.22249000",
    "longitude": "-4.17570000",
    "native": null,
    "timezone": null,
    "translations": {}
  },
  {
    "id": 34332,
    "name": "Fuentepiñel",
    "state_id": 1192,
    "state_code": "SG",
    "country_id": 207,
    "country_code": "ES",
    "latitude": "41.39892000",
    "longitude": "-4.04295000",
    "native": null,
    "timezone": null,
    "translations": {}
  },
  {
    "id": 152765,
    "name": "Fuenterrebollo",
    "state_id": 1192,
    "state_code": "SG",
    "country_id": 207,
    "country_code": "ES",
    "latitude": "41.30331120",
    "longitude": "-3.95723740",
    "native": null,
    "timezone": null,
    "translations": {}
  },
  {
    "id": 34353,
    "name": "Fuentesaúco de Fuentidueña",
    "state_id": 1192,
    "state_code": "SG",
    "country_id": 207,
    "country_code": "ES",
    "latitude": "41.42445000",
    "longitude": "-4.06215000",
    "native": null,
    "timezone": null,
    "translations": {}
  },
  {
    "id": 34355,
    "name": "Fuentesoto",
    "state_id": 1192,
    "state_code": "SG",
    "country_id": 207,
    "country_code": "ES",
    "latitude": "41.45664000",
    "longitude": "-3.91835000",
    "native": null,
    "timezone": null,
    "translations": {}
  },
  {
    "id": 34360,
    "name": "Fuentidueña",
    "state_id": 1192,
    "state_code": "SG",
    "country_id": 207,
    "country_code": "ES",
    "latitude": "41.44226000",
    "longitude": "-3.97899000",
    "native": null,
    "timezone": null,
    "translations": {}
  },
  {
    "id": 34386,
    "name": "Gallegos",
    "state_id": 1192,
    "state_code": "SG",
    "country_id": 207,
    "country_code": "ES",
    "latitude": "41.07508000",
    "longitude": "-3.78591000",
    "native": null,
    "timezone": null,
    "translations": {}
  },
  {
    "id": 34411,
    "name": "Garcillán",
    "state_id": 1192,
    "state_code": "SG",
    "country_id": 207,
    "country_code": "ES",
    "latitude": "40.97771000",
    "longitude": "-4.26577000",
    "native": null,
    "timezone": null,
    "translations": {}
  },
  {
    "id": 152766,
    "name": "Gomezserracín",
    "state_id": 1192,
    "state_code": "SG",
    "country_id": 207,
    "country_code": "ES",
    "latitude": "41.28887860",
    "longitude": "-4.32440790",
    "native": null,
    "timezone": null,
    "translations": {}
  },
  {
    "id": 34496,
    "name": "Grajera",
    "state_id": 1192,
    "state_code": "SG",
    "country_id": 207,
    "country_code": "ES",
    "latitude": "41.37319000",
    "longitude": "-3.61304000",
    "native": null,
    "timezone": null,
    "translations": {}
  },
  {
    "id": 34637,
    "name": "Honrubia de la Cuesta",
    "state_id": 1192,
    "state_code": "SG",
    "country_id": 207,
    "country_code": "ES",
    "latitude": "41.50998000",
    "longitude": "-3.70453000",
    "native": null,
    "timezone": null,
    "translations": {}
  },
  {
    "id": 34638,
    "name": "Hontalbilla",
    "state_id": 1192,
    "state_code": "SG",
    "country_id": 207,
    "country_code": "ES",
    "latitude": "41.34551000",
    "longitude": "-4.12149000",
    "native": null,
    "timezone": null,
    "translations": {}
  },
  {
    "id": 34640,
    "name": "Hontanares de Eresma",
    "state_id": 1192,
    "state_code": "SG",
    "country_id": 207,
    "country_code": "ES",
    "latitude": "40.98273000",
    "longitude": "-4.20439000",
    "native": null,
    "timezone": null,
    "translations": {}
  },
  {
    "id": 152767,
    "name": "Huertos Los",
    "state_id": 1192,
    "state_code": "SG",
    "country_id": 207,
    "country_code": "ES",
    "latitude": "41.00961240",
    "longitude": "-4.21988030",
    "native": null,
    "timezone": null,
    "translations": {}
  },
  {
    "id": 34773,
    "name": "Ituero y Lama",
    "state_id": 1192,
    "state_code": "SG",
    "country_id": 207,
    "country_code": "ES",
    "latitude": "40.80066000",
    "longitude": "-4.37917000",
    "native": null,
    "timezone": null,
    "translations": {}
  },
  {
    "id": 152768,
    "name": "Juarros de Riomoros",
    "state_id": 1192,
    "state_code": "SG",
    "country_id": 207,
    "country_code": "ES",
    "latitude": "40.94589450",
    "longitude": "-4.30836270",
    "native": null,
    "timezone": null,
    "translations": {}
  },
  {
    "id": 34825,
    "name": "Juarros de Voltoya",
    "state_id": 1192,
    "state_code": "SG",
    "country_id": 207,
    "country_code": "ES",
    "latitude": "41.03097000",
    "longitude": "-4.51922000",
    "native": null,
    "timezone": null,
    "translations": {}
  },
  {
    "id": 34936,
    "name": "Labajos",
    "state_id": 1192,
    "state_code": "SG",
    "country_id": 207,
    "country_code": "ES",
    "latitude": "40.84335000",
    "longitude": "-4.52005000",
    "native": null,
    "timezone": null,
    "translations": {}
  },
  {
    "id": 34947,
    "name": "Laguna de Contreras",
    "state_id": 1192,
    "state_code": "SG",
    "country_id": 207,
    "country_code": "ES",
    "latitude": "41.49513000",
    "longitude": "-4.02874000",
    "native": null,
    "timezone": null,
    "translations": {}
  },
  {
    "id": 34966,
    "name": "Languilla",
    "state_id": 1192,
    "state_code": "SG",
    "country_id": 207,
    "country_code": "ES",
    "latitude": "41.44926000",
    "longitude": "-3.42438000",
    "native": null,
    "timezone": null,
    "translations": {}
  },
  {
    "id": 35000,
    "name": "Lastras de Cuéllar",
    "state_id": 1192,
    "state_code": "SG",
    "country_id": 207,
    "country_code": "ES",
    "latitude": "41.29762000",
    "longitude": "-4.10670000",
    "native": null,
    "timezone": null,
    "translations": {}
  },
  {
    "id": 35001,
    "name": "Lastras del Pozo",
    "state_id": 1192,
    "state_code": "SG",
    "country_id": 207,
    "country_code": "ES",
    "latitude": "40.87920000",
    "longitude": "-4.34658000",
    "native": null,
    "timezone": null,
    "translations": {}
  },
  {
    "id": 152769,
    "name": "Lastrilla La",
    "state_id": 1192,
    "state_code": "SG",
    "country_id": 207,
    "country_code": "ES",
    "latitude": "40.96773110",
    "longitude": "-4.10660920",
    "native": null,
    "timezone": null,
    "translations": {}
  },
  {
    "id": 152770,
    "name": "Losa La",
    "state_id": 1192,
    "state_code": "SG",
    "country_id": 207,
    "country_code": "ES",
    "latitude": "40.85414010",
    "longitude": "-4.16225430",
    "native": null,
    "timezone": null,
    "translations": {}
  },
  {
    "id": 35184,
    "name": "Maderuelo",
    "state_id": 1192,
    "state_code": "SG",
    "country_id": 207,
    "country_code": "ES",
    "latitude": "41.48644000",
    "longitude": "-3.52218000",
    "native": null,
    "timezone": null,
    "translations": {}
  },
  {
    "id": 35277,
    "name": "Marazoleja",
    "state_id": 1192,
    "state_code": "SG",
    "country_id": 207,
    "country_code": "ES",
    "latitude": "40.96086000",
    "longitude": "-4.33882000",
    "native": null,
    "timezone": null,
    "translations": {}
  },
  {
    "id": 35278,
    "name": "Marazuela",
    "state_id": 1192,
    "state_code": "SG",
    "country_id": 207,
    "country_code": "ES",
    "latitude": "40.97912000",
    "longitude": "-4.36506000",
    "native": null,
    "timezone": null,
    "translations": {}
  },
  {
    "id": 35303,
    "name": "Martín Miguel",
    "state_id": 1192,
    "state_code": "SG",
    "country_id": 207,
    "country_code": "ES",
    "latitude": "40.95220000",
    "longitude": "-4.27166000",
    "native": null,
    "timezone": null,
    "translations": {}
  },
  {
    "id": 35304,
    "name": "Martín Muñoz de la Dehesa",
    "state_id": 1192,
    "state_code": "SG",
    "country_id": 207,
    "country_code": "ES",
    "latitude": "41.06652000",
    "longitude": "-4.68676000",
    "native": null,
    "timezone": null,
    "translations": {}
  },
  {
    "id": 35305,
    "name": "Martín Muñoz de las Posadas",
    "state_id": 1192,
    "state_code": "SG",
    "country_id": 207,
    "country_code": "ES",
    "latitude": "40.99546000",
    "longitude": "-4.59672000",
    "native": null,
    "timezone": null,
    "translations": {}
  },
  {
    "id": 35310,
    "name": "Marugán",
    "state_id": 1192,
    "state_code": "SG",
    "country_id": 207,
    "country_code": "ES",
    "latitude": "40.89943000",
    "longitude": "-4.38383000",
    "native": null,
    "timezone": null,
    "translations": {}
  },
  {
    "id": 35330,
    "name": "Mata de Cuéllar",
    "state_id": 1192,
    "state_code": "SG",
    "country_id": 207,
    "country_code": "ES",
    "latitude": "41.39655000",
    "longitude": "-4.47167000",
    "native": null,
    "timezone": null,
    "translations": {}
  },
  {
    "id": 35331,
    "name": "Matabuena",
    "state_id": 1192,
    "state_code": "SG",
    "country_id": 207,
    "country_code": "ES",
    "latitude": "41.09590000",
    "longitude": "-3.75827000",
    "native": null,
    "timezone": null,
    "translations": {}
  },
  {
    "id": 152771,
    "name": "Matilla La",
    "state_id": 1192,
    "state_code": "SG",
    "country_id": 207,
    "country_code": "ES",
    "latitude": "41.19326840",
    "longitude": "-3.79939920",
    "native": null,
    "timezone": null,
    "translations": {}
  },
  {
    "id": 152772,
    "name": "Melque de Cercos",
    "state_id": 1192,
    "state_code": "SG",
    "country_id": 207,
    "country_code": "ES",
    "latitude": "41.05182310",
    "longitude": "-4.46903290",
    "native": null,
    "timezone": null,
    "translations": {}
  },
  {
    "id": 35393,
    "name": "Membibre de la Hoz",
    "state_id": 1192,
    "state_code": "SG",
    "country_id": 207,
    "country_code": "ES",
    "latitude": "41.44958000",
    "longitude": "-4.09571000",
    "native": null,
    "timezone": null,
    "translations": {}
  },
  {
    "id": 35425,
    "name": "Migueláñez",
    "state_id": 1192,
    "state_code": "SG",
    "country_id": 207,
    "country_code": "ES",
    "latitude": "41.12155000",
    "longitude": "-4.36410000",
    "native": null,
    "timezone": null,
    "translations": {}
  },
  {
    "id": 35553,
    "name": "Montejo de Arévalo",
    "state_id": 1192,
    "state_code": "SG",
    "country_id": 207,
    "country_code": "ES",
    "latitude": "41.14027000",
    "longitude": "-4.66414000",
    "native": null,
    "timezone": null,
    "translations": {}
  },
  {
    "id": 35556,
    "name": "Montejo de la Vega de la Serrezuela",
    "state_id": 1192,
    "state_code": "SG",
    "country_id": 207,
    "country_code": "ES",
    "latitude": "41.55032000",
    "longitude": "-3.65406000",
    "native": null,
    "timezone": null,
    "translations": {}
  },
  {
    "id": 35566,
    "name": "Monterrubio",
    "state_id": 1192,
    "state_code": "SG",
    "country_id": 207,
    "country_code": "ES",
    "latitude": "40.84914000",
    "longitude": "-4.35001000",
    "native": null,
    "timezone": null,
    "translations": {}
  },
  {
    "id": 152773,
    "name": "Moral de Hornuez",
    "state_id": 1192,
    "state_code": "SG",
    "country_id": 207,
    "country_code": "ES",
    "latitude": "41.46398400",
    "longitude": "-3.61608140",
    "native": null,
    "timezone": null,
    "translations": {}
  },
  {
    "id": 35649,
    "name": "Mozoncillo",
    "state_id": 1192,
    "state_code": "SG",
    "country_id": 207,
    "country_code": "ES",
    "latitude": "41.14539000",
    "longitude": "-4.18753000",
    "native": null,
    "timezone": null,
    "translations": {}
  },
  {
    "id": 35697,
    "name": "Muñopedro",
    "state_id": 1192,
    "state_code": "SG",
    "country_id": 207,
    "country_code": "ES",
    "latitude": "40.88804000",
    "longitude": "-4.47213000",
    "native": null,
    "timezone": null,
    "translations": {}
  },
  {
    "id": 35701,
    "name": "Muñoveros",
    "state_id": 1192,
    "state_code": "SG",
    "country_id": 207,
    "country_code": "ES",
    "latitude": "41.17234000",
    "longitude": "-3.95161000",
    "native": null,
    "timezone": null,
    "translations": {}
  },
  {
    "id": 35726,
    "name": "Nava de la Asunción",
    "state_id": 1192,
    "state_code": "SG",
    "country_id": 207,
    "country_code": "ES",
    "latitude": "41.15586000",
    "longitude": "-4.48751000",
    "native": null,
    "timezone": null,
    "translations": {}
  },
  {
    "id": 35735,
    "name": "Navafría",
    "state_id": 1192,
    "state_code": "SG",
    "country_id": 207,
    "country_code": "ES",
    "latitude": "41.05514000",
    "longitude": "-3.82478000",
    "native": null,
    "timezone": null,
    "translations": {}
  },
  {
    "id": 35748,
    "name": "Navalilla",
    "state_id": 1192,
    "state_code": "SG",
    "country_id": 207,
    "country_code": "ES",
    "latitude": "41.34146000",
    "longitude": "-3.93211000",
    "native": null,
    "timezone": null,
    "translations": {}
  },
  {
    "id": 35749,
    "name": "Navalmanzano",
    "state_id": 1192,
    "state_code": "SG",
    "country_id": 207,
    "country_code": "ES",
    "latitude": "41.21594000",
    "longitude": "-4.25631000",
    "native": null,
    "timezone": null,
    "translations": {}
  },
  {
    "id": 35767,
    "name": "Navares de Ayuso",
    "state_id": 1192,
    "state_code": "SG",
    "country_id": 207,
    "country_code": "ES",
    "latitude": "41.37447000",
    "longitude": "-3.70745000",
    "native": null,
    "timezone": null,
    "translations": {}
  },
  {
    "id": 35768,
    "name": "Navares de Enmedio",
    "state_id": 1192,
    "state_code": "SG",
    "country_id": 207,
    "country_code": "ES",
    "latitude": "41.38096000",
    "longitude": "-3.72283000",
    "native": null,
    "timezone": null,
    "translations": {}
  },
  {
    "id": 35769,
    "name": "Navares de las Cuevas",
    "state_id": 1192,
    "state_code": "SG",
    "country_id": 207,
    "country_code": "ES",
    "latitude": "41.41431000",
    "longitude": "-3.75076000",
    "native": null,
    "timezone": null,
    "translations": {}
  },
  {
    "id": 35780,
    "name": "Navas de Oro",
    "state_id": 1192,
    "state_code": "SG",
    "country_id": 207,
    "country_code": "ES",
    "latitude": "41.19627000",
    "longitude": "-4.43754000",
    "native": null,
    "timezone": null,
    "translations": {}
  },
  {
    "id": 152785,
    "name": "Navas de Riofrío",
    "state_id": 1192,
    "state_code": "SG",
    "country_id": 207,
    "country_code": "ES",
    "latitude": "40.86777140",
    "longitude": "-4.13410450",
    "native": null,
    "timezone": null,
    "translations": {}
  },
  {
    "id": 152774,
    "name": "Navas de San Antonio",
    "state_id": 1192,
    "state_code": "SG",
    "country_id": 207,
    "country_code": "ES",
    "latitude": "40.76020490",
    "longitude": "-4.32954340",
    "native": null,
    "timezone": null,
    "translations": {}
  },
  {
    "id": 35806,
    "name": "Nieva",
    "state_id": 1192,
    "state_code": "SG",
    "country_id": 207,
    "country_code": "ES",
    "latitude": "41.08191000",
    "longitude": "-4.42501000",
    "native": null,
    "timezone": null,
    "translations": {}
  },
  {
    "id": 35910,
    "name": "Olombrada",
    "state_id": 1192,
    "state_code": "SG",
    "country_id": 207,
    "country_code": "ES",
    "latitude": "41.41492000",
    "longitude": "-4.16071000",
    "native": null,
    "timezone": null,
    "translations": {}
  },
  {
    "id": 152775,
    "name": "Orejana",
    "state_id": 1192,
    "state_code": "SG",
    "country_id": 207,
    "country_code": "ES",
    "latitude": "41.16051220",
    "longitude": "-3.77229310",
    "native": null,
    "timezone": null,
    "translations": {}
  },
  {
    "id": 35962,
    "name": "Ortigosa de Pestaño",
    "state_id": 1192,
    "state_code": "SG",
    "country_id": 207,
    "country_code": "ES",
    "latitude": "41.08741000",
    "longitude": "-4.39516000",
    "native": null,
    "timezone": null,
    "translations": {}
  },
  {
    "id": 35963,
    "name": "Ortigosa del Monte",
    "state_id": 1192,
    "state_code": "SG",
    "country_id": 207,
    "country_code": "ES",
    "latitude": "40.84182000",
    "longitude": "-4.17724000",
    "native": null,
    "timezone": null,
    "translations": {}
  },
  {
    "id": 35979,
    "name": "Otero de Herreros",
    "state_id": 1192,
    "state_code": "SG",
    "country_id": 207,
    "country_code": "ES",
    "latitude": "40.82016000",
    "longitude": "-4.20990000",
    "native": null,
    "timezone": null,
    "translations": {}
  },
  {
    "id": 35999,
    "name": "Pajarejos",
    "state_id": 1192,
    "state_code": "SG",
    "country_id": 207,
    "country_code": "ES",
    "latitude": "41.38994000",
    "longitude": "-3.58997000",
    "native": null,
    "timezone": null,
    "translations": {}
  },
  {
    "id": 36019,
    "name": "Palazuelos de Eresma",
    "state_id": 1192,
    "state_code": "SG",
    "country_id": 207,
    "country_code": "ES",
    "latitude": "40.93055000",
    "longitude": "-4.06071000",
    "native": null,
    "timezone": null,
    "translations": {}
  },
  {
    "id": 36092,
    "name": "Pedraza",
    "state_id": 1192,
    "state_code": "SG",
    "country_id": 207,
    "country_code": "ES",
    "latitude": "41.13092000",
    "longitude": "-3.81116000",
    "native": null,
    "timezone": null,
    "translations": {}
  },
  {
    "id": 36123,
    "name": "Pelayos del Arroyo",
    "state_id": 1192,
    "state_code": "SG",
    "country_id": 207,
    "country_code": "ES",
    "latitude": "41.05086000",
    "longitude": "-3.94104000",
    "native": null,
    "timezone": null,
    "translations": {}
  },
  {
    "id": 36152,
    "name": "Perosillo",
    "state_id": 1192,
    "state_code": "SG",
    "country_id": 207,
    "country_code": "ES",
    "latitude": "41.39294000",
    "longitude": "-4.14115000",
    "native": null,
    "timezone": null,
    "translations": {}
  },
  {
    "id": 36194,
    "name": "Pinarejos",
    "state_id": 1192,
    "state_code": "SG",
    "country_id": 207,
    "country_code": "ES",
    "latitude": "41.25950000",
    "longitude": "-4.29364000",
    "native": null,
    "timezone": null,
    "translations": {}
  },
  {
    "id": 36195,
    "name": "Pinarnegrillo",
    "state_id": 1192,
    "state_code": "SG",
    "country_id": 207,
    "country_code": "ES",
    "latitude": "41.19098000",
    "longitude": "-4.20967000",
    "native": null,
    "timezone": null,
    "translations": {}
  },
  {
    "id": 36340,
    "name": "Pradales",
    "state_id": 1192,
    "state_code": "SG",
    "country_id": 207,
    "country_code": "ES",
    "latitude": "41.45555000",
    "longitude": "-3.70753000",
    "native": null,
    "timezone": null,
    "translations": {}
  },
  {
    "id": 36404,
    "name": "Prádena",
    "state_id": 1192,
    "state_code": "SG",
    "country_id": 207,
    "country_code": "ES",
    "latitude": "41.13911000",
    "longitude": "-3.68823000",
    "native": null,
    "timezone": null,
    "translations": {}
  },
  {
    "id": 36420,
    "name": "Puebla de Pedraza",
    "state_id": 1192,
    "state_code": "SG",
    "country_id": 207,
    "country_code": "ES",
    "latitude": "41.20557000",
    "longitude": "-3.91378000",
    "native": null,
    "timezone": null,
    "translations": {}
  },
  {
    "id": 36546,
    "name": "Rapariegos",
    "state_id": 1192,
    "state_code": "SG",
    "country_id": 207,
    "country_code": "ES",
    "latitude": "41.09498000",
    "longitude": "-4.65271000",
    "native": null,
    "timezone": null,
    "translations": {}
  },
  {
    "id": 152777,
    "name": "Real Sitio de San Ildefonso",
    "state_id": 1192,
    "state_code": "SG",
    "country_id": 207,
    "country_code": "ES",
    "latitude": "40.90212260",
    "longitude": "-4.00728990",
    "native": null,
    "timezone": null,
    "translations": {}
  },
  {
    "id": 36555,
    "name": "Rebollo",
    "state_id": 1192,
    "state_code": "SG",
    "country_id": 207,
    "country_code": "ES",
    "latitude": "41.19318000",
    "longitude": "-3.85771000",
    "native": null,
    "timezone": null,
    "translations": {}
  },
  {
    "id": 36574,
    "name": "Remondo",
    "state_id": 1192,
    "state_code": "SG",
    "country_id": 207,
    "country_code": "ES",
    "latitude": "41.34100000",
    "longitude": "-4.48390000",
    "native": null,
    "timezone": null,
    "translations": {}
  },
  {
    "id": 36602,
    "name": "Riaguas de San Bartolomé",
    "state_id": 1192,
    "state_code": "SG",
    "country_id": 207,
    "country_code": "ES",
    "latitude": "41.42640000",
    "longitude": "-3.48893000",
    "native": null,
    "timezone": null,
    "translations": {}
  },
  {
    "id": 36604,
    "name": "Riaza",
    "state_id": 1192,
    "state_code": "SG",
    "country_id": 207,
    "country_code": "ES",
    "latitude": "41.27826000",
    "longitude": "-3.47787000",
    "native": null,
    "timezone": null,
    "translations": {}
  },
  {
    "id": 36619,
    "name": "Ribota",
    "state_id": 1192,
    "state_code": "SG",
    "country_id": 207,
    "country_code": "ES",
    "latitude": "41.36477000",
    "longitude": "-3.42964000",
    "native": null,
    "timezone": null,
    "translations": {}
  },
  {
    "id": 152776,
    "name": "Riofrío de Riaza",
    "state_id": 1192,
    "state_code": "SG",
    "country_id": 207,
    "country_code": "ES",
    "latitude": "41.24706300",
    "longitude": "-3.44967680",
    "native": null,
    "timezone": null,
    "translations": {}
  },
  {
    "id": 36662,
    "name": "Roda de Eresma",
    "state_id": 1192,
    "state_code": "SG",
    "country_id": 207,
    "country_code": "ES",
    "latitude": "41.02852000",
    "longitude": "-4.18130000",
    "native": null,
    "timezone": null,
    "translations": {}
  },
  {
    "id": 36731,
    "name": "Sacramenia",
    "state_id": 1192,
    "state_code": "SG",
    "country_id": 207,
    "country_code": "ES",
    "latitude": "41.49419000",
    "longitude": "-3.96210000",
    "native": null,
    "timezone": null,
    "translations": {}
  },
  {
    "id": 36790,
    "name": "Samboal",
    "state_id": 1192,
    "state_code": "SG",
    "country_id": 207,
    "country_code": "ES",
    "latitude": "41.25758000",
    "longitude": "-4.41727000",
    "native": null,
    "timezone": null,
    "translations": {}
  },
  {
    "id": 36820,
    "name": "San Cristóbal de Cuéllar",
    "state_id": 1192,
    "state_code": "SG",
    "country_id": 207,
    "country_code": "ES",
    "latitude": "41.40591000",
    "longitude": "-4.40445000",
    "native": null,
    "timezone": null,
    "translations": {}
  },
  {
    "id": 36825,
    "name": "San Cristóbal de la Vega",
    "state_id": 1192,
    "state_code": "SG",
    "country_id": 207,
    "country_code": "ES",
    "latitude": "41.11214000",
    "longitude": "-4.64448000",
    "native": null,
    "timezone": null,
    "translations": {}
  },
  {
    "id": 36822,
    "name": "San Cristóbal de Segovia",
    "state_id": 1192,
    "state_code": "SG",
    "country_id": 207,
    "country_code": "ES",
    "latitude": "40.95225000",
    "longitude": "-4.07652000",
    "native": null,
    "timezone": null,
    "translations": {}
  },
  {
    "id": 152778,
    "name": "San Martín y Mudrián",
    "state_id": 1192,
    "state_code": "SG",
    "country_id": 207,
    "country_code": "ES",
    "latitude": "41.22916360",
    "longitude": "-4.34623730",
    "native": null,
    "timezone": null,
    "translations": {}
  },
  {
    "id": 152779,
    "name": "San Miguel de Bernuy",
    "state_id": 1192,
    "state_code": "SG",
    "country_id": 207,
    "country_code": "ES",
    "latitude": "41.39829070",
    "longitude": "-3.95181960",
    "native": null,
    "timezone": null,
    "translations": {}
  },
  {
    "id": 36905,
    "name": "San Pedro de Gaíllos",
    "state_id": 1192,
    "state_code": "SG",
    "country_id": 207,
    "country_code": "ES",
    "latitude": "41.22662000",
    "longitude": "-3.80921000",
    "native": null,
    "timezone": null,
    "translations": {}
  },
  {
    "id": 36936,
    "name": "Sanchonuño",
    "state_id": 1192,
    "state_code": "SG",
    "country_id": 207,
    "country_code": "ES",
    "latitude": "41.32325000",
    "longitude": "-4.30531000",
    "native": null,
    "timezone": null,
    "translations": {}
  },
  {
    "id": 36943,
    "name": "Sangarcía",
    "state_id": 1192,
    "state_code": "SG",
    "country_id": 207,
    "country_code": "ES",
    "latitude": "40.95023000",
    "longitude": "-4.41085000",
    "native": null,
    "timezone": null,
    "translations": {}
  },
  {
    "id": 37091,
    "name": "Santa María la Real de Nieva",
    "state_id": 1192,
    "state_code": "SG",
    "country_id": 207,
    "country_code": "ES",
    "latitude": "41.06998000",
    "longitude": "-4.40709000",
    "native": null,
    "timezone": null,
    "translations": {}
  },
  {
    "id": 37073,
    "name": "Santa Marta del Cerro",
    "state_id": 1192,
    "state_code": "SG",
    "country_id": 207,
    "country_code": "ES",
    "latitude": "41.21843000",
    "longitude": "-3.68582000",
    "native": null,
    "timezone": null,
    "translations": {}
  },
  {
    "id": 152780,
    "name": "Santiuste de Pedraza",
    "state_id": 1192,
    "state_code": "SG",
    "country_id": 207,
    "country_code": "ES",
    "latitude": "41.08452210",
    "longitude": "-3.89608110",
    "native": null,
    "timezone": null,
    "translations": {}
  },
  {
    "id": 37137,
    "name": "Santiuste de San Juan Bautista",
    "state_id": 1192,
    "state_code": "SG",
    "country_id": 207,
    "country_code": "ES",
    "latitude": "41.15593000",
    "longitude": "-4.57202000",
    "native": null,
    "timezone": null,
    "translations": {}
  },
  {
    "id": 37139,
    "name": "Santo Domingo de Pirón",
    "state_id": 1192,
    "state_code": "SG",
    "country_id": 207,
    "country_code": "ES",
    "latitude": "41.04104000",
    "longitude": "-3.98933000",
    "native": null,
    "timezone": null,
    "translations": {}
  },
  {
    "id": 152781,
    "name": "Santo Tomé del Puerto",
    "state_id": 1192,
    "state_code": "SG",
    "country_id": 207,
    "country_code": "ES",
    "latitude": "41.19409580",
    "longitude": "-3.57729910",
    "native": null,
    "timezone": null,
    "translations": {}
  },
  {
    "id": 37179,
    "name": "Sauquillo de Cabezas",
    "state_id": 1192,
    "state_code": "SG",
    "country_id": 207,
    "country_code": "ES",
    "latitude": "41.19422000",
    "longitude": "-4.06884000",
    "native": null,
    "timezone": null,
    "translations": {}
  },
  {
    "id": 37185,
    "name": "Sebúlcor",
    "state_id": 1192,
    "state_code": "SG",
    "country_id": 207,
    "country_code": "ES",
    "latitude": "41.27091000",
    "longitude": "-3.88398000",
    "native": null,
    "timezone": null,
    "translations": {}
  },
  {
    "id": 37192,
    "name": "Segovia",
    "state_id": 1192,
    "state_code": "SG",
    "country_id": 207,
    "country_code": "ES",
    "latitude": "40.94808000",
    "longitude": "-4.11839000",
    "native": null,
    "timezone": null,
    "translations": {}
  },
  {
    "id": 37215,
    "name": "Sepúlveda",
    "state_id": 1192,
    "state_code": "SG",
    "country_id": 207,
    "country_code": "ES",
    "latitude": "41.29695000",
    "longitude": "-3.74221000",
    "native": null,
    "timezone": null,
    "translations": {}
  },
  {
    "id": 37216,
    "name": "Sequera de Fresno",
    "state_id": 1192,
    "state_code": "SG",
    "country_id": 207,
    "country_code": "ES",
    "latitude": "41.36640000",
    "longitude": "-3.54612000",
    "native": null,
    "timezone": null,
    "translations": {}
  },
  {
    "id": 37312,
    "name": "Sotillo",
    "state_id": 1192,
    "state_code": "SG",
    "country_id": 207,
    "country_code": "ES",
    "latitude": "41.25846000",
    "longitude": "-3.63729000",
    "native": null,
    "timezone": null,
    "translations": {}
  },
  {
    "id": 37323,
    "name": "Sotosalbos",
    "state_id": 1192,
    "state_code": "SG",
    "country_id": 207,
    "country_code": "ES",
    "latitude": "41.03537000",
    "longitude": "-3.94115000",
    "native": null,
    "timezone": null,
    "translations": {}
  },
  {
    "id": 37341,
    "name": "Tabanera la Luenga",
    "state_id": 1192,
    "state_code": "SG",
    "country_id": 207,
    "country_code": "ES",
    "latitude": "41.09647000",
    "longitude": "-4.23937000",
    "native": null,
    "timezone": null,
    "translations": {}
  },
  {
    "id": 37445,
    "name": "Tolocirio",
    "state_id": 1192,
    "state_code": "SG",
    "country_id": 207,
    "country_code": "ES",
    "latitude": "41.13425000",
    "longitude": "-4.65121000",
    "native": null,
    "timezone": null,
    "translations": {}
  },
  {
    "id": 37489,
    "name": "Torre Val de San Pedro",
    "state_id": 1192,
    "state_code": "SG",
    "country_id": 207,
    "country_code": "ES",
    "latitude": "41.07534000",
    "longitude": "-3.87116000",
    "native": null,
    "timezone": null,
    "translations": {}
  },
  {
    "id": 37508,
    "name": "Torreadrada",
    "state_id": 1192,
    "state_code": "SG",
    "country_id": 207,
    "country_code": "ES",
    "latitude": "41.44474000",
    "longitude": "-3.84000000",
    "native": null,
    "timezone": null,
    "translations": {}
  },
  {
    "id": 37512,
    "name": "Torrecaballeros",
    "state_id": 1192,
    "state_code": "SG",
    "country_id": 207,
    "country_code": "ES",
    "latitude": "40.99211000",
    "longitude": "-4.02470000",
    "native": null,
    "timezone": null,
    "translations": {}
  },
  {
    "id": 37522,
    "name": "Torrecilla del Pinar",
    "state_id": 1192,
    "state_code": "SG",
    "country_id": 207,
    "country_code": "ES",
    "latitude": "41.37360000",
    "longitude": "-4.03838000",
    "native": null,
    "timezone": null,
    "translations": {}
  },
  {
    "id": 37535,
    "name": "Torreiglesias",
    "state_id": 1192,
    "state_code": "SG",
    "country_id": 207,
    "country_code": "ES",
    "latitude": "41.10236000",
    "longitude": "-4.03280000",
    "native": null,
    "timezone": null,
    "translations": {}
  },
  {
    "id": 37630,
    "name": "Trescasas",
    "state_id": 1192,
    "state_code": "SG",
    "country_id": 207,
    "country_code": "ES",
    "latitude": "40.96442000",
    "longitude": "-4.03590000",
    "native": null,
    "timezone": null,
    "translations": {}
  },
  {
    "id": 37658,
    "name": "Turégano",
    "state_id": 1192,
    "state_code": "SG",
    "country_id": 207,
    "country_code": "ES",
    "latitude": "41.15610000",
    "longitude": "-4.00696000",
    "native": null,
    "timezone": null,
    "translations": {}
  },
  {
    "id": 37699,
    "name": "Urueñas",
    "state_id": 1192,
    "state_code": "SG",
    "country_id": 207,
    "country_code": "ES",
    "latitude": "41.35589000",
    "longitude": "-3.77391000",
    "native": null,
    "timezone": null,
    "translations": {}
  },
  {
    "id": 37789,
    "name": "Valdeprados",
    "state_id": 1192,
    "state_code": "SG",
    "country_id": 207,
    "country_code": "ES",
    "latitude": "40.81766000",
    "longitude": "-4.25734000",
    "native": null,
    "timezone": null,
    "translations": {}
  },
  {
    "id": 37805,
    "name": "Valdevacas de Montejo",
    "state_id": 1192,
    "state_code": "SG",
    "country_id": 207,
    "country_code": "ES",
    "latitude": "41.52068000",
    "longitude": "-3.63571000",
    "native": null,
    "timezone": null,
    "translations": {}
  },
  {
    "id": 152782,
    "name": "Valdevacas y Guijar",
    "state_id": 1192,
    "state_code": "SG",
    "country_id": 207,
    "country_code": "ES",
    "latitude": "41.14415610",
    "longitude": "-3.91645850",
    "native": null,
    "timezone": null,
    "translations": {}
  },
  {
    "id": 37847,
    "name": "Valle de Tabladillo",
    "state_id": 1192,
    "state_code": "SG",
    "country_id": 207,
    "country_code": "ES",
    "latitude": "41.36304000",
    "longitude": "-3.83966000",
    "native": null,
    "timezone": null,
    "translations": {}
  },
  {
    "id": 37852,
    "name": "Vallelado",
    "state_id": 1192,
    "state_code": "SG",
    "country_id": 207,
    "country_code": "ES",
    "latitude": "41.40436000",
    "longitude": "-4.42662000",
    "native": null,
    "timezone": null,
    "translations": {}
  },
  {
    "id": 37853,
    "name": "Valleruela de Pedraza",
    "state_id": 1192,
    "state_code": "SG",
    "country_id": 207,
    "country_code": "ES",
    "latitude": "41.17937000",
    "longitude": "-3.80717000",
    "native": null,
    "timezone": null,
    "translations": {}
  },
  {
    "id": 37854,
    "name": "Valleruela de Sepúlveda",
    "state_id": 1192,
    "state_code": "SG",
    "country_id": 207,
    "country_code": "ES",
    "latitude": "41.18794000",
    "longitude": "-3.77277000",
    "native": null,
    "timezone": null,
    "translations": {}
  },
  {
    "id": 37874,
    "name": "Valseca",
    "state_id": 1192,
    "state_code": "SG",
    "country_id": 207,
    "country_code": "ES",
    "latitude": "40.99933000",
    "longitude": "-4.17514000",
    "native": null,
    "timezone": null,
    "translations": {}
  },
  {
    "id": 37878,
    "name": "Valtiendas",
    "state_id": 1192,
    "state_code": "SG",
    "country_id": 207,
    "country_code": "ES",
    "latitude": "41.47851000",
    "longitude": "-3.91766000",
    "native": null,
    "timezone": null,
    "translations": {}
  },
  {
    "id": 37895,
    "name": "Valverde del Majano",
    "state_id": 1192,
    "state_code": "SG",
    "country_id": 207,
    "country_code": "ES",
    "latitude": "40.95689000",
    "longitude": "-4.23468000",
    "native": null,
    "timezone": null,
    "translations": {}
  },
  {
    "id": 37917,
    "name": "Veganzones",
    "state_id": 1192,
    "state_code": "SG",
    "country_id": 207,
    "country_code": "ES",
    "latitude": "41.19308000",
    "longitude": "-3.99329000",
    "native": null,
    "timezone": null,
    "translations": {}
  },
  {
    "id": 37919,
    "name": "Vegas de Matute",
    "state_id": 1192,
    "state_code": "SG",
    "country_id": 207,
    "country_code": "ES",
    "latitude": "40.79476000",
    "longitude": "-4.27762000",
    "native": null,
    "timezone": null,
    "translations": {}
  },
  {
    "id": 152783,
    "name": "Ventosilla y Tejadilla",
    "state_id": 1192,
    "state_code": "SG",
    "country_id": 207,
    "country_code": "ES",
    "latitude": "41.18684940",
    "longitude": "-3.68768030",
    "native": null,
    "timezone": null,
    "translations": {}
  },
  {
    "id": 38027,
    "name": "Villacastín",
    "state_id": 1192,
    "state_code": "SG",
    "country_id": 207,
    "country_code": "ES",
    "latitude": "40.77960000",
    "longitude": "-4.41357000",
    "native": null,
    "timezone": null,
    "translations": {}
  },
  {
    "id": 152784,
    "name": "Villaverde de Íscar",
    "state_id": 1192,
    "state_code": "SG",
    "country_id": 207,
    "country_code": "ES",
    "latitude": "41.30677250",
    "longitude": "-4.52699230",
    "native": null,
    "timezone": null,
    "translations": {}
  },
  {
    "id": 38347,
    "name": "Villaverde de Montejo",
    "state_id": 1192,
    "state_code": "SG",
    "country_id": 207,
    "country_code": "ES",
    "latitude": "41.52225000",
    "longitude": "-3.65452000",
    "native": null,
    "timezone": null,
    "translations": {}
  },
  {
    "id": 38366,
    "name": "Villeguillo",
    "state_id": 1192,
    "state_code": "SG",
    "country_id": 207,
    "country_code": "ES",
    "latitude": "41.25290000",
    "longitude": "-4.57951000",
    "native": null,
    "timezone": null,
    "translations": {}
  },
  {
    "id": 38427,
    "name": "Yanguas de Eresma",
    "state_id": 1192,
    "state_code": "SG",
    "country_id": 207,
    "country_code": "ES",
    "latitude": "41.07201000",
    "longitude": "-4.23905000",
    "native": null,
    "timezone": null,
    "translations": {}
  },
  {
    "id": 38486,
    "name": "Zarzuela del Monte",
    "state_id": 1192,
    "state_code": "SG",
    "country_id": 207,
    "country_code": "ES",
    "latitude": "40.80888000",
    "longitude": "-4.33613000",
    "native": null,
    "timezone": null,
    "translations": {}
  },
  {
    "id": 38487,
    "name": "Zarzuela del Pinar",
    "state_id": 1192,
    "state_code": "SG",
    "country_id": 207,
    "country_code": "ES",
    "latitude": "41.26018000",
    "longitude": "-4.18457000",
    "native": null,
    "timezone": null,
    "translations": {}
  }
]