[
  {
    "id": 31917,
    "name": "Abrera",
    "state_id": 5102,
    "state_code": "B",
    "country_id": 207,
    "country_code": "ES",
    "latitude": "41.51682000",
    "longitude": "1.90100000",
    "native": null,
    "timezone": null,
    "translations": {}
  },
  {
    "id": 31963,
    "name": "Aguilar de Segarra",
    "state_id": 5102,
    "state_code": "B",
    "country_id": 207,
    "country_code": "ES",
    "latitude": "41.74822000",
    "longitude": "1.62919000",
    "native": null,
    "timezone": null,
    "translations": {}
  },
  {
    "id": 31980,
    "name": "Aiguafreda",
    "state_id": 5102,
    "state_code": "B",
    "country_id": 207,
    "country_code": "ES",
    "latitude": "41.76807000",
    "longitude": "2.25051000",
    "native": null,
    "timezone": null,
    "translations": {}
  },
  {
    "id": 32183,
    "name": "Alella",
    "state_id": 5102,
    "state_code": "B",
    "country_id": 207,
    "country_code": "ES",
    "latitude": "41.49379000",
    "longitude": "2.29451000",
    "native": null,
    "timezone": null,
    "translations": {}
  },
  {
    "id": 32328,
    "name": "Alpens",
    "state_id": 5102,
    "state_code": "B",
    "country_id": 207,
    "country_code": "ES",
    "latitude": "42.11930000",
    "longitude": "2.10135000",
    "native": null,
    "timezone": null,
    "translations": {}
  },
  {
    "id": 151479,
    "name": "Ametlla del Vallès L",
    "state_id": 5102,
    "state_code": "B",
    "country_id": 207,
    "country_code": "ES",
    "latitude": "41.66898350",
    "longitude": "2.26050150",
    "native": null,
    "timezone": null,
    "translations": {}
  },
  {
    "id": 32451,
    "name": "Arenys de Mar",
    "state_id": 5102,
    "state_code": "B",
    "country_id": 207,
    "country_code": "ES",
    "latitude": "41.58190000",
    "longitude": "2.54936000",
    "native": null,
    "timezone": null,
    "translations": {}
  },
  {
    "id": 32452,
    "name": "Arenys de Munt",
    "state_id": 5102,
    "state_code": "B",
    "country_id": 207,
    "country_code": "ES",
    "latitude": "41.61424000",
    "longitude": "2.53972000",
    "native": null,
    "timezone": null,
    "translations": {}
  },
  {
    "id": 151480,
    "name": "Argençola",
    "state_id": 5102,
    "state_code": "B",
    "country_id": 207,
    "country_code": "ES",
    "latitude": "41.59807500",
    "longitude": "1.44377110",
    "native": null,
    "timezone": null,
    "translations": {}
  },
  {
    "id": 32471,
    "name": "Argentona",
    "state_id": 5102,
    "state_code": "B",
    "country_id": 207,
    "country_code": "ES",
    "latitude": "41.55336000",
    "longitude": "2.40114000",
    "native": null,
    "timezone": null,
    "translations": {}
  },
  {
    "id": 32527,
    "name": "Artés",
    "state_id": 5102,
    "state_code": "B",
    "country_id": 207,
    "country_code": "ES",
    "latitude": "41.79800000",
    "longitude": "1.95428000",
    "native": null,
    "timezone": null,
    "translations": {}
  },
  {
    "id": 151481,
    "name": "Avià",
    "state_id": 5102,
    "state_code": "B",
    "country_id": 207,
    "country_code": "ES",
    "latitude": "42.07821010",
    "longitude": "1.82026490",
    "native": null,
    "timezone": null,
    "translations": {}
  },
  {
    "id": 32568,
    "name": "Avinyó",
    "state_id": 5102,
    "state_code": "B",
    "country_id": 207,
    "country_code": "ES",
    "latitude": "41.86367000",
    "longitude": "1.97095000",
    "native": null,
    "timezone": null,
    "translations": {}
  },
  {
    "id": 151482,
    "name": "Avinyonet del Penedès",
    "state_id": 5102,
    "state_code": "B",
    "country_id": 207,
    "country_code": "ES",
    "latitude": "41.35475380",
    "longitude": "1.78580920",
    "native": null,
    "timezone": null,
    "translations": {}
  },
  {
    "id": 32602,
    "name": "Badalona",
    "state_id": 5102,
    "state_code": "B",
    "country_id": 207,
    "country_code": "ES",
    "latitude": "41.45004000",
    "longitude": "2.24741000",
    "native": null,
    "timezone": null,
    "translations": {}
  },
  {
    "id": 151629,
    "name": "Badia del Vallès",
    "state_id": 5102,
    "state_code": "B",
    "country_id": 207,
    "country_code": "ES",
    "latitude": "41.50805200",
    "longitude": "2.11529320",
    "native": null,
    "timezone": null,
    "translations": {}
  },
  {
    "id": 32609,
    "name": "Bagà",
    "state_id": 5102,
    "state_code": "B",
    "country_id": 207,
    "country_code": "ES",
    "latitude": "42.25289000",
    "longitude": "1.86098000",
    "native": null,
    "timezone": null,
    "translations": {}
  },
  {
    "id": 151483,
    "name": "Balenyà",
    "state_id": 5102,
    "state_code": "B",
    "country_id": 207,
    "country_code": "ES",
    "latitude": "41.45527810",
    "longitude": "2.18390780",
    "native": null,
    "timezone": null,
    "translations": {}
  },
  {
    "id": 32628,
    "name": "Balsareny",
    "state_id": 5102,
    "state_code": "B",
    "country_id": 207,
    "country_code": "ES",
    "latitude": "41.86311000",
    "longitude": "1.87356000",
    "native": null,
    "timezone": null,
    "translations": {}
  },
  {
    "id": 32647,
    "name": "Barberà del Vallès",
    "state_id": 5102,
    "state_code": "B",
    "country_id": 207,
    "country_code": "ES",
    "latitude": "41.51590000",
    "longitude": "2.12457000",
    "native": null,
    "timezone": null,
    "translations": {}
  },
  {
    "id": 32653,
    "name": "Barcelona",
    "state_id": 5102,
    "state_code": "B",
    "country_id": 207,
    "country_code": "ES",
    "latitude": "41.38879000",
    "longitude": "2.15899000",
    "native": null,
    "timezone": null,
    "translations": {}
  },
  {
    "id": 32728,
    "name": "Begues",
    "state_id": 5102,
    "state_code": "B",
    "country_id": 207,
    "country_code": "ES",
    "latitude": "41.33333000",
    "longitude": "1.93333000",
    "native": null,
    "timezone": null,
    "translations": {}
  },
  {
    "id": 32742,
    "name": "Bellprat",
    "state_id": 5102,
    "state_code": "B",
    "country_id": 207,
    "country_code": "ES",
    "latitude": "41.51695000",
    "longitude": "1.43333000",
    "native": null,
    "timezone": null,
    "translations": {}
  },
  {
    "id": 32846,
    "name": "Berga",
    "state_id": 5102,
    "state_code": "B",
    "country_id": 207,
    "country_code": "ES",
    "latitude": "42.10429000",
    "longitude": "1.84628000",
    "native": null,
    "timezone": null,
    "translations": {}
  },
  {
    "id": 32893,
    "name": "Bigues i Riells",
    "state_id": 5102,
    "state_code": "B",
    "country_id": 207,
    "country_code": "ES",
    "latitude": "41.68333000",
    "longitude": "2.23333000",
    "native": null,
    "timezone": null,
    "translations": {}
  },
  {
    "id": 151484,
    "name": "Borredà",
    "state_id": 5102,
    "state_code": "B",
    "country_id": 207,
    "country_code": "ES",
    "latitude": "42.13475630",
    "longitude": "1.99396430",
    "native": null,
    "timezone": null,
    "translations": {}
  },
  {
    "id": 151485,
    "name": "Bruc El",
    "state_id": 5102,
    "state_code": "B",
    "country_id": 207,
    "country_code": "ES",
    "latitude": "41.39432320",
    "longitude": "2.16952660",
    "native": null,
    "timezone": null,
    "translations": {}
  },
  {
    "id": 151486,
    "name": "Brull El",
    "state_id": 5102,
    "state_code": "B",
    "country_id": 207,
    "country_code": "ES",
    "latitude": "41.81681130",
    "longitude": "2.30540670",
    "native": null,
    "timezone": null,
    "translations": {}
  },
  {
    "id": 151487,
    "name": "Cabanyes Les",
    "state_id": 5102,
    "state_code": "B",
    "country_id": 207,
    "country_code": "ES",
    "latitude": "41.37194190",
    "longitude": "1.68882570",
    "native": null,
    "timezone": null,
    "translations": {}
  },
  {
    "id": 151488,
    "name": "Cabrera dAnoia",
    "state_id": 5102,
    "state_code": "B",
    "country_id": 207,
    "country_code": "ES",
    "latitude": "41.49361170",
    "longitude": "1.71009500",
    "native": null,
    "timezone": null,
    "translations": {}
  },
  {
    "id": 33104,
    "name": "Cabrera de Mar",
    "state_id": 5102,
    "state_code": "B",
    "country_id": 207,
    "country_code": "ES",
    "latitude": "41.51667000",
    "longitude": "2.40000000",
    "native": null,
    "timezone": null,
    "translations": {}
  },
  {
    "id": 33111,
    "name": "Cabrils",
    "state_id": 5102,
    "state_code": "B",
    "country_id": 207,
    "country_code": "ES",
    "latitude": "41.52760000",
    "longitude": "2.36996000",
    "native": null,
    "timezone": null,
    "translations": {}
  },
  {
    "id": 33124,
    "name": "Calaf",
    "state_id": 5102,
    "state_code": "B",
    "country_id": 207,
    "country_code": "ES",
    "latitude": "41.73289000",
    "longitude": "1.51375000",
    "native": null,
    "timezone": null,
    "translations": {}
  },
  {
    "id": 151490,
    "name": "Calders",
    "state_id": 5102,
    "state_code": "B",
    "country_id": 207,
    "country_code": "ES",
    "latitude": "41.38455100",
    "longitude": "2.18328210",
    "native": null,
    "timezone": null,
    "translations": {}
  },
  {
    "id": 33138,
    "name": "Caldes de Montbui",
    "state_id": 5102,
    "state_code": "B",
    "country_id": 207,
    "country_code": "ES",
    "latitude": "41.63333000",
    "longitude": "2.16667000",
    "native": null,
    "timezone": null,
    "translations": {}
  },
  {
    "id": 151489,
    "name": "Caldes dEstrac",
    "state_id": 5102,
    "state_code": "B",
    "country_id": 207,
    "country_code": "ES",
    "latitude": "41.57168580",
    "longitude": "2.52367170",
    "native": null,
    "timezone": null,
    "translations": {}
  },
  {
    "id": 33139,
    "name": "Calella",
    "state_id": 5102,
    "state_code": "B",
    "country_id": 207,
    "country_code": "ES",
    "latitude": "41.61381000",
    "longitude": "2.65423000",
    "native": null,
    "timezone": null,
    "translations": {}
  },
  {
    "id": 151492,
    "name": "Calldetenes",
    "state_id": 5102,
    "state_code": "B",
    "country_id": 207,
    "country_code": "ES",
    "latitude": "41.92509820",
    "longitude": "2.28409530",
    "native": null,
    "timezone": null,
    "translations": {}
  },
  {
    "id": 151493,
    "name": "Callús",
    "state_id": 5102,
    "state_code": "B",
    "country_id": 207,
    "country_code": "ES",
    "latitude": "41.79659590",
    "longitude": "1.78309730",
    "native": null,
    "timezone": null,
    "translations": {}
  },
  {
    "id": 151491,
    "name": "Calonge de Segarra",
    "state_id": 5102,
    "state_code": "B",
    "country_id": 207,
    "country_code": "ES",
    "latitude": "41.74104490",
    "longitude": "1.49182350",
    "native": null,
    "timezone": null,
    "translations": {}
  },
  {
    "id": 33198,
    "name": "Campins",
    "state_id": 5102,
    "state_code": "B",
    "country_id": 207,
    "country_code": "ES",
    "latitude": "41.71667000",
    "longitude": "2.46667000",
    "native": null,
    "timezone": null,
    "translations": {}
  },
  {
    "id": 33234,
    "name": "Canet de Mar",
    "state_id": 5102,
    "state_code": "B",
    "country_id": 207,
    "country_code": "ES",
    "latitude": "41.59054000",
    "longitude": "2.58116000",
    "native": null,
    "timezone": null,
    "translations": {}
  },
  {
    "id": 33246,
    "name": "Canovelles",
    "state_id": 5102,
    "state_code": "B",
    "country_id": 207,
    "country_code": "ES",
    "latitude": "41.61667000",
    "longitude": "2.28333000",
    "native": null,
    "timezone": null,
    "translations": {}
  },
  {
    "id": 33890,
    "name": "Cànoves i Samalús",
    "state_id": 5102,
    "state_code": "B",
    "country_id": 207,
    "country_code": "ES",
    "latitude": "41.68333000",
    "longitude": "2.35000000",
    "native": null,
    "timezone": null,
    "translations": {}
  },
  {
    "id": 33261,
    "name": "Canyelles",
    "state_id": 5102,
    "state_code": "B",
    "country_id": 207,
    "country_code": "ES",
    "latitude": "41.44509000",
    "longitude": "2.16346000",
    "native": null,
    "timezone": null,
    "translations": {}
  },
  {
    "id": 33267,
    "name": "Capellades",
    "state_id": 5102,
    "state_code": "B",
    "country_id": 207,
    "country_code": "ES",
    "latitude": "41.53005000",
    "longitude": "1.68651000",
    "native": null,
    "timezone": null,
    "translations": {}
  },
  {
    "id": 151494,
    "name": "Capolat",
    "state_id": 5102,
    "state_code": "B",
    "country_id": 207,
    "country_code": "ES",
    "latitude": "42.08314540",
    "longitude": "1.75480080",
    "native": null,
    "timezone": null,
    "translations": {}
  },
  {
    "id": 33296,
    "name": "Cardedeu",
    "state_id": 5102,
    "state_code": "B",
    "country_id": 207,
    "country_code": "ES",
    "latitude": "41.63976000",
    "longitude": "2.35739000",
    "native": null,
    "timezone": null,
    "translations": {}
  },
  {
    "id": 33304,
    "name": "Cardona",
    "state_id": 5102,
    "state_code": "B",
    "country_id": 207,
    "country_code": "ES",
    "latitude": "41.91371000",
    "longitude": "1.67855000",
    "native": null,
    "timezone": null,
    "translations": {}
  },
  {
    "id": 151495,
    "name": "Carme",
    "state_id": 5102,
    "state_code": "B",
    "country_id": 207,
    "country_code": "ES",
    "latitude": "41.53182820",
    "longitude": "1.62034680",
    "native": null,
    "timezone": null,
    "translations": {}
  },
  {
    "id": 151496,
    "name": "Casserres",
    "state_id": 5102,
    "state_code": "B",
    "country_id": 207,
    "country_code": "ES",
    "latitude": "42.01208190",
    "longitude": "1.84341620",
    "native": null,
    "timezone": null,
    "translations": {}
  },
  {
    "id": 151500,
    "name": "Castell de lAreny",
    "state_id": 5102,
    "state_code": "B",
    "country_id": 207,
    "country_code": "ES",
    "latitude": "42.17308830",
    "longitude": "1.94520140",
    "native": null,
    "timezone": null,
    "translations": {}
  },
  {
    "id": 151498,
    "name": "Castellar de nHug",
    "state_id": 5102,
    "state_code": "B",
    "country_id": 207,
    "country_code": "ES",
    "latitude": "42.28295120",
    "longitude": "2.01721810",
    "native": null,
    "timezone": null,
    "translations": {}
  },
  {
    "id": 151497,
    "name": "Castellar del Riu",
    "state_id": 5102,
    "state_code": "B",
    "country_id": 207,
    "country_code": "ES",
    "latitude": "42.11411990",
    "longitude": "1.76361810",
    "native": null,
    "timezone": null,
    "translations": {}
  },
  {
    "id": 33422,
    "name": "Castellar del Vallès",
    "state_id": 5102,
    "state_code": "B",
    "country_id": 207,
    "country_code": "ES",
    "latitude": "41.61667000",
    "longitude": "2.08333000",
    "native": null,
    "timezone": null,
    "translations": {}
  },
  {
    "id": 151499,
    "name": "Castellbell i el Vilar",
    "state_id": 5102,
    "state_code": "B",
    "country_id": 207,
    "country_code": "ES",
    "latitude": "41.62910320",
    "longitude": "1.86415190",
    "native": null,
    "timezone": null,
    "translations": {}
  },
  {
    "id": 33423,
    "name": "Castellbisbal",
    "state_id": 5102,
    "state_code": "B",
    "country_id": 207,
    "country_code": "ES",
    "latitude": "41.47534000",
    "longitude": "1.98174000",
    "native": null,
    "timezone": null,
    "translations": {}
  },
  {
    "id": 33424,
    "name": "Castellcir",
    "state_id": 5102,
    "state_code": "B",
    "country_id": 207,
    "country_code": "ES",
    "latitude": "41.76074000",
    "longitude": "2.16128000",
    "native": null,
    "timezone": null,
    "translations": {}
  },
  {
    "id": 33425,
    "name": "Castelldefels",
    "state_id": 5102,
    "state_code": "B",
    "country_id": 207,
    "country_code": "ES",
    "latitude": "41.27794000",
    "longitude": "1.97033000",
    "native": null,
    "timezone": null,
    "translations": {}
  },
  {
    "id": 151501,
    "name": "Castellet i la Gornal",
    "state_id": 5102,
    "state_code": "B",
    "country_id": 207,
    "country_code": "ES",
    "latitude": "41.25353610",
    "longitude": "1.59250290",
    "native": null,
    "timezone": null,
    "translations": {}
  },
  {
    "id": 33427,
    "name": "Castellfollit de Riubregós",
    "state_id": 5102,
    "state_code": "B",
    "country_id": 207,
    "country_code": "ES",
    "latitude": "41.76667000",
    "longitude": "1.43333000",
    "native": null,
    "timezone": null,
    "translations": {}
  },
  {
    "id": 151502,
    "name": "Castellfollit del Boix",
    "state_id": 5102,
    "state_code": "B",
    "country_id": 207,
    "country_code": "ES",
    "latitude": "41.66587320",
    "longitude": "1.68426930",
    "native": null,
    "timezone": null,
    "translations": {}
  },
  {
    "id": 151503,
    "name": "Castellgalí",
    "state_id": 5102,
    "state_code": "B",
    "country_id": 207,
    "country_code": "ES",
    "latitude": "41.67472390",
    "longitude": "1.84353190",
    "native": null,
    "timezone": null,
    "translations": {}
  },
  {
    "id": 151504,
    "name": "Castellnou de Bages",
    "state_id": 5102,
    "state_code": "B",
    "country_id": 207,
    "country_code": "ES",
    "latitude": "41.83434360",
    "longitude": "1.83678620",
    "native": null,
    "timezone": null,
    "translations": {}
  },
  {
    "id": 33431,
    "name": "Castellolí",
    "state_id": 5102,
    "state_code": "B",
    "country_id": 207,
    "country_code": "ES",
    "latitude": "41.59829000",
    "longitude": "1.70057000",
    "native": null,
    "timezone": null,
    "translations": {}
  },
  {
    "id": 151505,
    "name": "Castellterçol",
    "state_id": 5102,
    "state_code": "B",
    "country_id": 207,
    "country_code": "ES",
    "latitude": "41.41715690",
    "longitude": "2.14627870",
    "native": null,
    "timezone": null,
    "translations": {}
  },
  {
    "id": 151506,
    "name": "Castellví de la Marca",
    "state_id": 5102,
    "state_code": "B",
    "country_id": 207,
    "country_code": "ES",
    "latitude": "41.33248330",
    "longitude": "1.59358600",
    "native": null,
    "timezone": null,
    "translations": {}
  },
  {
    "id": 33435,
    "name": "Castellví de Rosanes",
    "state_id": 5102,
    "state_code": "B",
    "country_id": 207,
    "country_code": "ES",
    "latitude": "41.45000000",
    "longitude": "1.90000000",
    "native": null,
    "timezone": null,
    "translations": {}
  },
  {
    "id": 33573,
    "name": "Centelles",
    "state_id": 5102,
    "state_code": "B",
    "country_id": 207,
    "country_code": "ES",
    "latitude": "41.79746000",
    "longitude": "2.21902000",
    "native": null,
    "timezone": null,
    "translations": {}
  },
  {
    "id": 151610,
    "name": "Cercs",
    "state_id": 5102,
    "state_code": "B",
    "country_id": 207,
    "country_code": "ES",
    "latitude": "42.14687420",
    "longitude": "1.86018620",
    "native": null,
    "timezone": null,
    "translations": {}
  },
  {
    "id": 33580,
    "name": "Cerdanyola del Vallès",
    "state_id": 5102,
    "state_code": "B",
    "country_id": 207,
    "country_code": "ES",
    "latitude": "41.49109000",
    "longitude": "2.14079000",
    "native": null,
    "timezone": null,
    "translations": {}
  },
  {
    "id": 33594,
    "name": "Cervelló",
    "state_id": 5102,
    "state_code": "B",
    "country_id": 207,
    "country_code": "ES",
    "latitude": "41.39587000",
    "longitude": "1.95917000",
    "native": null,
    "timezone": null,
    "translations": {}
  },
  {
    "id": 33738,
    "name": "Collbató",
    "state_id": 5102,
    "state_code": "B",
    "country_id": 207,
    "country_code": "ES",
    "latitude": "41.57009000",
    "longitude": "1.82712000",
    "native": null,
    "timezone": null,
    "translations": {}
  },
  {
    "id": 33740,
    "name": "Collsuspina",
    "state_id": 5102,
    "state_code": "B",
    "country_id": 207,
    "country_code": "ES",
    "latitude": "41.82580000",
    "longitude": "2.17546000",
    "native": null,
    "timezone": null,
    "translations": {}
  },
  {
    "id": 151507,
    "name": "Copons",
    "state_id": 5102,
    "state_code": "B",
    "country_id": 207,
    "country_code": "ES",
    "latitude": "41.64608920",
    "longitude": "1.51602120",
    "native": null,
    "timezone": null,
    "translations": {}
  },
  {
    "id": 33775,
    "name": "Corbera de Llobregat",
    "state_id": 5102,
    "state_code": "B",
    "country_id": 207,
    "country_code": "ES",
    "latitude": "41.41702000",
    "longitude": "1.91970000",
    "native": null,
    "timezone": null,
    "translations": {}
  },
  {
    "id": 33794,
    "name": "Cornellà de Llobregat",
    "state_id": 5102,
    "state_code": "B",
    "country_id": 207,
    "country_code": "ES",
    "latitude": "41.35000000",
    "longitude": "2.08333000",
    "native": null,
    "timezone": null,
    "translations": {}
  },
  {
    "id": 33847,
    "name": "Cubelles",
    "state_id": 5102,
    "state_code": "B",
    "country_id": 207,
    "country_code": "ES",
    "latitude": "41.20772000",
    "longitude": "1.67267000",
    "native": null,
    "timezone": null,
    "translations": {}
  },
  {
    "id": 33952,
    "name": "Dosrius",
    "state_id": 5102,
    "state_code": "B",
    "country_id": 207,
    "country_code": "ES",
    "latitude": "41.58333000",
    "longitude": "2.41667000",
    "native": null,
    "timezone": null,
    "translations": {}
  },
  {
    "id": 34108,
    "name": "Esparreguera",
    "state_id": 5102,
    "state_code": "B",
    "country_id": 207,
    "country_code": "ES",
    "latitude": "41.53809000",
    "longitude": "1.87025000",
    "native": null,
    "timezone": null,
    "translations": {}
  },
  {
    "id": 34127,
    "name": "Esplugues de Llobregat",
    "state_id": 5102,
    "state_code": "B",
    "country_id": 207,
    "country_code": "ES",
    "latitude": "41.37732000",
    "longitude": "2.08809000",
    "native": null,
    "timezone": null,
    "translations": {}
  },
  {
    "id": 151508,
    "name": "Espunyola L",
    "state_id": 5102,
    "state_code": "B",
    "country_id": 207,
    "country_code": "ES",
    "latitude": "42.05356830",
    "longitude": "1.77124450",
    "native": null,
    "timezone": null,
    "translations": {}
  },
  {
    "id": 151509,
    "name": "Estany L",
    "state_id": 5102,
    "state_code": "B",
    "country_id": 207,
    "country_code": "ES",
    "latitude": "41.86897470",
    "longitude": "2.11158180",
    "native": null,
    "timezone": null,
    "translations": {}
  },
  {
    "id": 151539,
    "name": "Figaró-Montmany",
    "state_id": 5102,
    "state_code": "B",
    "country_id": 207,
    "country_code": "ES",
    "latitude": "41.72082040",
    "longitude": "2.27365590",
    "native": null,
    "timezone": null,
    "translations": {}
  },
  {
    "id": 151510,
    "name": "Fígols",
    "state_id": 5102,
    "state_code": "B",
    "country_id": 207,
    "country_code": "ES",
    "latitude": "41.38197400",
    "longitude": "2.13038320",
    "native": null,
    "timezone": null,
    "translations": {}
  },
  {
    "id": 151512,
    "name": "Fogars de la Selva",
    "state_id": 5102,
    "state_code": "B",
    "country_id": 207,
    "country_code": "ES",
    "latitude": "41.72732260",
    "longitude": "2.67861630",
    "native": null,
    "timezone": null,
    "translations": {}
  },
  {
    "id": 151511,
    "name": "Fogars de Montclús",
    "state_id": 5102,
    "state_code": "B",
    "country_id": 207,
    "country_code": "ES",
    "latitude": "41.72749340",
    "longitude": "2.44284240",
    "native": null,
    "timezone": null,
    "translations": {}
  },
  {
    "id": 151513,
    "name": "Folgueroles",
    "state_id": 5102,
    "state_code": "B",
    "country_id": 207,
    "country_code": "ES",
    "latitude": "41.40799640",
    "longitude": "2.13628680",
    "native": null,
    "timezone": null,
    "translations": {}
  },
  {
    "id": 34209,
    "name": "Fonollosa",
    "state_id": 5102,
    "state_code": "B",
    "country_id": 207,
    "country_code": "ES",
    "latitude": "41.76303000",
    "longitude": "1.66867000",
    "native": null,
    "timezone": null,
    "translations": {}
  },
  {
    "id": 151514,
    "name": "Font-rubí",
    "state_id": 5102,
    "state_code": "B",
    "country_id": 207,
    "country_code": "ES",
    "latitude": "41.43470240",
    "longitude": "1.59107010",
    "native": null,
    "timezone": null,
    "translations": {}
  },
  {
    "id": 151515,
    "name": "Franqueses del Vallès Les",
    "state_id": 5102,
    "state_code": "B",
    "country_id": 207,
    "country_code": "ES",
    "latitude": "41.64782750",
    "longitude": "2.31230310",
    "native": null,
    "timezone": null,
    "translations": {}
  },
  {
    "id": 151517,
    "name": "Gaià",
    "state_id": 5102,
    "state_code": "B",
    "country_id": 207,
    "country_code": "ES",
    "latitude": "41.36169170",
    "longitude": "2.14151710",
    "native": null,
    "timezone": null,
    "translations": {}
  },
  {
    "id": 34392,
    "name": "Gallifa",
    "state_id": 5102,
    "state_code": "B",
    "country_id": 207,
    "country_code": "ES",
    "latitude": "41.69243000",
    "longitude": "2.11346000",
    "native": null,
    "timezone": null,
    "translations": {}
  },
  {
    "id": 151516,
    "name": "Garriga La",
    "state_id": 5102,
    "state_code": "B",
    "country_id": 207,
    "country_code": "ES",
    "latitude": "41.68012810",
    "longitude": "2.28323180",
    "native": null,
    "timezone": null,
    "translations": {}
  },
  {
    "id": 34441,
    "name": "Gavà",
    "state_id": 5102,
    "state_code": "B",
    "country_id": 207,
    "country_code": "ES",
    "latitude": "41.30605000",
    "longitude": "2.00123000",
    "native": null,
    "timezone": null,
    "translations": {}
  },
  {
    "id": 34446,
    "name": "Gelida",
    "state_id": 5102,
    "state_code": "B",
    "country_id": 207,
    "country_code": "ES",
    "latitude": "41.43333000",
    "longitude": "1.86667000",
    "native": null,
    "timezone": null,
    "translations": {}
  },
  {
    "id": 34471,
    "name": "Gironella",
    "state_id": 5102,
    "state_code": "B",
    "country_id": 207,
    "country_code": "ES",
    "latitude": "42.03433000",
    "longitude": "1.88019000",
    "native": null,
    "timezone": null,
    "translations": {}
  },
  {
    "id": 151518,
    "name": "Gisclareny",
    "state_id": 5102,
    "state_code": "B",
    "country_id": 207,
    "country_code": "ES",
    "latitude": "42.27172960",
    "longitude": "1.78309730",
    "native": null,
    "timezone": null,
    "translations": {}
  },
  {
    "id": 151519,
    "name": "Granada La",
    "state_id": 5102,
    "state_code": "B",
    "country_id": 207,
    "country_code": "ES",
    "latitude": "41.37583180",
    "longitude": "1.72225350",
    "native": null,
    "timezone": null,
    "translations": {}
  },
  {
    "id": 34499,
    "name": "Granera",
    "state_id": 5102,
    "state_code": "B",
    "country_id": 207,
    "country_code": "ES",
    "latitude": "41.72741000",
    "longitude": "2.05924000",
    "native": null,
    "timezone": null,
    "translations": {}
  },
  {
    "id": 34503,
    "name": "Granollers",
    "state_id": 5102,
    "state_code": "B",
    "country_id": 207,
    "country_code": "ES",
    "latitude": "41.60797000",
    "longitude": "2.28773000",
    "native": null,
    "timezone": null,
    "translations": {}
  },
  {
    "id": 151520,
    "name": "Gualba",
    "state_id": 5102,
    "state_code": "B",
    "country_id": 207,
    "country_code": "ES",
    "latitude": "41.73189920",
    "longitude": "2.50224180",
    "native": null,
    "timezone": null,
    "translations": {}
  },
  {
    "id": 151521,
    "name": "Guardiola de Berguedà",
    "state_id": 5102,
    "state_code": "B",
    "country_id": 207,
    "country_code": "ES",
    "latitude": "42.23260290",
    "longitude": "1.88001350",
    "native": null,
    "timezone": null,
    "translations": {}
  },
  {
    "id": 34553,
    "name": "Gurb",
    "state_id": 5102,
    "state_code": "B",
    "country_id": 207,
    "country_code": "ES",
    "latitude": "41.95419000",
    "longitude": "2.23537000",
    "native": null,
    "timezone": null,
    "translations": {}
  },
  {
    "id": 151522,
    "name": "Hospitalet de Llobregat L",
    "state_id": 5102,
    "state_code": "B",
    "country_id": 207,
    "country_code": "ES",
    "latitude": "41.36618650",
    "longitude": "2.11649420",
    "native": null,
    "timezone": null,
    "translations": {}
  },
  {
    "id": 151549,
    "name": "Hostalets de Pierola Els",
    "state_id": 5102,
    "state_code": "B",
    "country_id": 207,
    "country_code": "ES",
    "latitude": "41.53717590",
    "longitude": "1.80258520",
    "native": null,
    "timezone": null,
    "translations": {}
  },
  {
    "id": 34739,
    "name": "Igualada",
    "state_id": 5102,
    "state_code": "B",
    "country_id": 207,
    "country_code": "ES",
    "latitude": "41.58098000",
    "longitude": "1.61720000",
    "native": null,
    "timezone": null,
    "translations": {}
  },
  {
    "id": 34821,
    "name": "Jorba",
    "state_id": 5102,
    "state_code": "B",
    "country_id": 207,
    "country_code": "ES",
    "latitude": "41.60193000",
    "longitude": "1.54750000",
    "native": null,
    "timezone": null,
    "translations": {}
  },
  {
    "id": 151523,
    "name": "Llacuna La",
    "state_id": 5102,
    "state_code": "B",
    "country_id": 207,
    "country_code": "ES",
    "latitude": "41.47173280",
    "longitude": "1.53236250",
    "native": null,
    "timezone": null,
    "translations": {}
  },
  {
    "id": 151524,
    "name": "Llagosta La",
    "state_id": 5102,
    "state_code": "B",
    "country_id": 207,
    "country_code": "ES",
    "latitude": "41.51276970",
    "longitude": "2.20153470",
    "native": null,
    "timezone": null,
    "translations": {}
  },
  {
    "id": 151525,
    "name": "Lliçà dAmunt",
    "state_id": 5102,
    "state_code": "B",
    "country_id": 207,
    "country_code": "ES",
    "latitude": "41.61457810",
    "longitude": "2.22858640",
    "native": null,
    "timezone": null,
    "translations": {}
  },
  {
    "id": 151526,
    "name": "Lliçà de Vall",
    "state_id": 5102,
    "state_code": "B",
    "country_id": 207,
    "country_code": "ES",
    "latitude": "41.58318640",
    "longitude": "2.23965770",
    "native": null,
    "timezone": null,
    "translations": {}
  },
  {
    "id": 35080,
    "name": "Llinars del Vallès",
    "state_id": 5102,
    "state_code": "B",
    "country_id": 207,
    "country_code": "ES",
    "latitude": "41.63333000",
    "longitude": "2.40000000",
    "native": null,
    "timezone": null,
    "translations": {}
  },
  {
    "id": 151527,
    "name": "Lluçà",
    "state_id": 5102,
    "state_code": "B",
    "country_id": 207,
    "country_code": "ES",
    "latitude": "41.38213490",
    "longitude": "2.13092920",
    "native": null,
    "timezone": null,
    "translations": {}
  },
  {
    "id": 35223,
    "name": "Malgrat de Mar",
    "state_id": 5102,
    "state_code": "B",
    "country_id": 207,
    "country_code": "ES",
    "latitude": "41.64662000",
    "longitude": "2.74135000",
    "native": null,
    "timezone": null,
    "translations": {}
  },
  {
    "id": 151528,
    "name": "Malla",
    "state_id": 5102,
    "state_code": "B",
    "country_id": 207,
    "country_code": "ES",
    "latitude": "41.89640600",
    "longitude": "2.24381010",
    "native": null,
    "timezone": null,
    "translations": {}
  },
  {
    "id": 35254,
    "name": "Manlleu",
    "state_id": 5102,
    "state_code": "B",
    "country_id": 207,
    "country_code": "ES",
    "latitude": "42.00228000",
    "longitude": "2.28476000",
    "native": null,
    "timezone": null,
    "translations": {}
  },
  {
    "id": 35256,
    "name": "Manresa",
    "state_id": 5102,
    "state_code": "B",
    "country_id": 207,
    "country_code": "ES",
    "latitude": "41.72815000",
    "longitude": "1.82399000",
    "native": null,
    "timezone": null,
    "translations": {}
  },
  {
    "id": 151599,
    "name": "Marganell",
    "state_id": 5102,
    "state_code": "B",
    "country_id": 207,
    "country_code": "ES",
    "latitude": "41.64049700",
    "longitude": "1.79031430",
    "native": null,
    "timezone": null,
    "translations": {}
  },
  {
    "id": 35301,
    "name": "Martorell",
    "state_id": 5102,
    "state_code": "B",
    "country_id": 207,
    "country_code": "ES",
    "latitude": "41.47402000",
    "longitude": "1.93062000",
    "native": null,
    "timezone": null,
    "translations": {}
  },
  {
    "id": 151529,
    "name": "Martorelles",
    "state_id": 5102,
    "state_code": "B",
    "country_id": 207,
    "country_code": "ES",
    "latitude": "41.45809220",
    "longitude": "2.18335120",
    "native": null,
    "timezone": null,
    "translations": {}
  },
  {
    "id": 151530,
    "name": "Masies de Roda Les",
    "state_id": 5102,
    "state_code": "B",
    "country_id": 207,
    "country_code": "ES",
    "latitude": "41.98588030",
    "longitude": "2.31120540",
    "native": null,
    "timezone": null,
    "translations": {}
  },
  {
    "id": 151531,
    "name": "Masies de Voltregà Les",
    "state_id": 5102,
    "state_code": "B",
    "country_id": 207,
    "country_code": "ES",
    "latitude": "42.01723120",
    "longitude": "2.24444600",
    "native": null,
    "timezone": null,
    "translations": {}
  },
  {
    "id": 151532,
    "name": "Masnou El",
    "state_id": 5102,
    "state_code": "B",
    "country_id": 207,
    "country_code": "ES",
    "latitude": "41.48056840",
    "longitude": "2.31476770",
    "native": null,
    "timezone": null,
    "translations": {}
  },
  {
    "id": 35325,
    "name": "Masquefa",
    "state_id": 5102,
    "state_code": "B",
    "country_id": 207,
    "country_code": "ES",
    "latitude": "41.50353000",
    "longitude": "1.81136000",
    "native": null,
    "timezone": null,
    "translations": {}
  },
  {
    "id": 35332,
    "name": "Matadepera",
    "state_id": 5102,
    "state_code": "B",
    "country_id": 207,
    "country_code": "ES",
    "latitude": "41.59886000",
    "longitude": "2.02648000",
    "native": null,
    "timezone": null,
    "translations": {}
  },
  {
    "id": 35340,
    "name": "Mataró",
    "state_id": 5102,
    "state_code": "B",
    "country_id": 207,
    "country_code": "ES",
    "latitude": "41.54211000",
    "longitude": "2.44450000",
    "native": null,
    "timezone": null,
    "translations": {}
  },
  {
    "id": 35376,
    "name": "Mediona",
    "state_id": 5102,
    "state_code": "B",
    "country_id": 207,
    "country_code": "ES",
    "latitude": "41.47798000",
    "longitude": "1.61222000",
    "native": null,
    "timezone": null,
    "translations": {}
  },
  {
    "id": 35472,
    "name": "Moià",
    "state_id": 5102,
    "state_code": "B",
    "country_id": 207,
    "country_code": "ES",
    "latitude": "41.81112000",
    "longitude": "2.09839000",
    "native": null,
    "timezone": null,
    "translations": {}
  },
  {
    "id": 35484,
    "name": "Molins de Rei",
    "state_id": 5102,
    "state_code": "B",
    "country_id": 207,
    "country_code": "ES",
    "latitude": "41.41667000",
    "longitude": "2.01667000",
    "native": null,
    "timezone": null,
    "translations": {}
  },
  {
    "id": 35488,
    "name": "Mollet del Vallès",
    "state_id": 5102,
    "state_code": "B",
    "country_id": 207,
    "country_code": "ES",
    "latitude": "41.54026000",
    "longitude": "2.21306000",
    "native": null,
    "timezone": null,
    "translations": {}
  },
  {
    "id": 151533,
    "name": "Monistrol de Calders",
    "state_id": 5102,
    "state_code": "B",
    "country_id": 207,
    "country_code": "ES",
    "latitude": "41.75984090",
    "longitude": "2.01446380",
    "native": null,
    "timezone": null,
    "translations": {}
  },
  {
    "id": 35517,
    "name": "Monistrol de Montserrat",
    "state_id": 5102,
    "state_code": "B",
    "country_id": 207,
    "country_code": "ES",
    "latitude": "41.61667000",
    "longitude": "1.85000000",
    "native": null,
    "timezone": null,
    "translations": {}
  },
  {
    "id": 35540,
    "name": "Montcada i Reixac",
    "state_id": 5102,
    "state_code": "B",
    "country_id": 207,
    "country_code": "ES",
    "latitude": "41.48333000",
    "longitude": "2.18333000",
    "native": null,
    "timezone": null,
    "translations": {}
  },
  {
    "id": 151535,
    "name": "Montclar",
    "state_id": 5102,
    "state_code": "B",
    "country_id": 207,
    "country_code": "ES",
    "latitude": "42.01810680",
    "longitude": "1.76498740",
    "native": null,
    "timezone": null,
    "translations": {}
  },
  {
    "id": 151536,
    "name": "Montesquiu",
    "state_id": 5102,
    "state_code": "B",
    "country_id": 207,
    "country_code": "ES",
    "latitude": "41.40468150",
    "longitude": "2.13256110",
    "native": null,
    "timezone": null,
    "translations": {}
  },
  {
    "id": 35573,
    "name": "Montgat",
    "state_id": 5102,
    "state_code": "B",
    "country_id": 207,
    "country_code": "ES",
    "latitude": "41.46859000",
    "longitude": "2.28001000",
    "native": null,
    "timezone": null,
    "translations": {}
  },
  {
    "id": 151537,
    "name": "Montmajor",
    "state_id": 5102,
    "state_code": "B",
    "country_id": 207,
    "country_code": "ES",
    "latitude": "41.43248270",
    "longitude": "2.17067000",
    "native": null,
    "timezone": null,
    "translations": {}
  },
  {
    "id": 151538,
    "name": "Montmaneu",
    "state_id": 5102,
    "state_code": "B",
    "country_id": 207,
    "country_code": "ES",
    "latitude": "41.62586400",
    "longitude": "1.41538820",
    "native": null,
    "timezone": null,
    "translations": {}
  },
  {
    "id": 35580,
    "name": "Montmeló",
    "state_id": 5102,
    "state_code": "B",
    "country_id": 207,
    "country_code": "ES",
    "latitude": "41.55002000",
    "longitude": "2.24190000",
    "native": null,
    "timezone": null,
    "translations": {}
  },
  {
    "id": 35582,
    "name": "Montornès del Vallès",
    "state_id": 5102,
    "state_code": "B",
    "country_id": 207,
    "country_code": "ES",
    "latitude": "41.54206000",
    "longitude": "2.26748000",
    "native": null,
    "timezone": null,
    "translations": {}
  },
  {
    "id": 151540,
    "name": "Montseny",
    "state_id": 5102,
    "state_code": "B",
    "country_id": 207,
    "country_code": "ES",
    "latitude": "41.78558370",
    "longitude": "2.39123620",
    "native": null,
    "timezone": null,
    "translations": {}
  },
  {
    "id": 151534,
    "name": "Muntanyola",
    "state_id": 5102,
    "state_code": "B",
    "country_id": 207,
    "country_code": "ES",
    "latitude": "41.44101110",
    "longitude": "2.14852830",
    "native": null,
    "timezone": null,
    "translations": {}
  },
  {
    "id": 35668,
    "name": "Mura",
    "state_id": 5102,
    "state_code": "B",
    "country_id": 207,
    "country_code": "ES",
    "latitude": "41.69943000",
    "longitude": "1.97612000",
    "native": null,
    "timezone": null,
    "translations": {}
  },
  {
    "id": 35765,
    "name": "Navarcles",
    "state_id": 5102,
    "state_code": "B",
    "country_id": 207,
    "country_code": "ES",
    "latitude": "41.75171000",
    "longitude": "1.90357000",
    "native": null,
    "timezone": null,
    "translations": {}
  },
  {
    "id": 35776,
    "name": "Navas",
    "state_id": 5102,
    "state_code": "B",
    "country_id": 207,
    "country_code": "ES",
    "latitude": "41.41803000",
    "longitude": "2.18596000",
    "native": null,
    "timezone": null,
    "translations": {}
  },
  {
    "id": 151541,
    "name": "Nou de Berguedà La",
    "state_id": 5102,
    "state_code": "B",
    "country_id": 207,
    "country_code": "ES",
    "latitude": "42.19096050",
    "longitude": "1.90015500",
    "native": null,
    "timezone": null,
    "translations": {}
  },
  {
    "id": 38581,
    "name": "Òdena",
    "state_id": 5102,
    "state_code": "B",
    "country_id": 207,
    "country_code": "ES",
    "latitude": "41.60000000",
    "longitude": "1.65000000",
    "native": null,
    "timezone": null,
    "translations": {}
  },
  {
    "id": 151543,
    "name": "Olèrdola",
    "state_id": 5102,
    "state_code": "B",
    "country_id": 207,
    "country_code": "ES",
    "latitude": "41.31815610",
    "longitude": "1.72468560",
    "native": null,
    "timezone": null,
    "translations": {}
  },
  {
    "id": 35878,
    "name": "Olesa de Bonesvalls",
    "state_id": 5102,
    "state_code": "B",
    "country_id": 207,
    "country_code": "ES",
    "latitude": "41.35435000",
    "longitude": "1.84907000",
    "native": null,
    "timezone": null,
    "translations": {}
  },
  {
    "id": 35879,
    "name": "Olesa de Montserrat",
    "state_id": 5102,
    "state_code": "B",
    "country_id": 207,
    "country_code": "ES",
    "latitude": "41.54372000",
    "longitude": "1.89407000",
    "native": null,
    "timezone": null,
    "translations": {}
  },
  {
    "id": 35891,
    "name": "Olivella",
    "state_id": 5102,
    "state_code": "B",
    "country_id": 207,
    "country_code": "ES",
    "latitude": "41.31667000",
    "longitude": "1.81667000",
    "native": null,
    "timezone": null,
    "translations": {}
  },
  {
    "id": 35911,
    "name": "Olost",
    "state_id": 5102,
    "state_code": "B",
    "country_id": 207,
    "country_code": "ES",
    "latitude": "41.98540000",
    "longitude": "2.09457000",
    "native": null,
    "timezone": null,
    "translations": {}
  },
  {
    "id": 151542,
    "name": "Olvan",
    "state_id": 5102,
    "state_code": "B",
    "country_id": 207,
    "country_code": "ES",
    "latitude": "41.42966570",
    "longitude": "2.13334100",
    "native": null,
    "timezone": null,
    "translations": {}
  },
  {
    "id": 35966,
    "name": "Orís",
    "state_id": 5102,
    "state_code": "B",
    "country_id": 207,
    "country_code": "ES",
    "latitude": "42.05967000",
    "longitude": "2.22066000",
    "native": null,
    "timezone": null,
    "translations": {}
  },
  {
    "id": 35953,
    "name": "Oristà",
    "state_id": 5102,
    "state_code": "B",
    "country_id": 207,
    "country_code": "ES",
    "latitude": "41.93333000",
    "longitude": "2.06667000",
    "native": null,
    "timezone": null,
    "translations": {}
  },
  {
    "id": 35960,
    "name": "Orpí",
    "state_id": 5102,
    "state_code": "B",
    "country_id": 207,
    "country_code": "ES",
    "latitude": "41.51870000",
    "longitude": "1.57536000",
    "native": null,
    "timezone": null,
    "translations": {}
  },
  {
    "id": 38582,
    "name": "Òrrius",
    "state_id": 5102,
    "state_code": "B",
    "country_id": 207,
    "country_code": "ES",
    "latitude": "41.55000000",
    "longitude": "2.35000000",
    "native": null,
    "timezone": null,
    "translations": {}
  },
  {
    "id": 151544,
    "name": "Pacs del Penedès",
    "state_id": 5102,
    "state_code": "B",
    "country_id": 207,
    "country_code": "ES",
    "latitude": "41.36419660",
    "longitude": "1.66149470",
    "native": null,
    "timezone": null,
    "translations": {}
  },
  {
    "id": 151545,
    "name": "Palafolls",
    "state_id": 5102,
    "state_code": "B",
    "country_id": 207,
    "country_code": "ES",
    "latitude": "41.41077540",
    "longitude": "2.11333640",
    "native": null,
    "timezone": null,
    "translations": {}
  },
  {
    "id": 151546,
    "name": "Palau-solità i Plegamans",
    "state_id": 5102,
    "state_code": "B",
    "country_id": 207,
    "country_code": "ES",
    "latitude": "41.58394610",
    "longitude": "2.18041460",
    "native": null,
    "timezone": null,
    "translations": {}
  },
  {
    "id": 36026,
    "name": "Pallejà",
    "state_id": 5102,
    "state_code": "B",
    "country_id": 207,
    "country_code": "ES",
    "latitude": "41.42394000",
    "longitude": "1.99505000",
    "native": null,
    "timezone": null,
    "translations": {}
  },
  {
    "id": 151630,
    "name": "Palma de Cervelló La",
    "state_id": 5102,
    "state_code": "B",
    "country_id": 207,
    "country_code": "ES",
    "latitude": "41.41208110",
    "longitude": "1.96124600",
    "native": null,
    "timezone": null,
    "translations": {}
  },
  {
    "id": 151547,
    "name": "Papiol El",
    "state_id": 5102,
    "state_code": "B",
    "country_id": 207,
    "country_code": "ES",
    "latitude": "41.43872190",
    "longitude": "2.01262760",
    "native": null,
    "timezone": null,
    "translations": {}
  },
  {
    "id": 36069,
    "name": "Parets del Vallès",
    "state_id": 5102,
    "state_code": "B",
    "country_id": 207,
    "country_code": "ES",
    "latitude": "41.57481000",
    "longitude": "2.23306000",
    "native": null,
    "timezone": null,
    "translations": {}
  },
  {
    "id": 151548,
    "name": "Perafita",
    "state_id": 5102,
    "state_code": "B",
    "country_id": 207,
    "country_code": "ES",
    "latitude": "41.45966970",
    "longitude": "2.17059400",
    "native": null,
    "timezone": null,
    "translations": {}
  },
  {
    "id": 36186,
    "name": "Piera",
    "state_id": 5102,
    "state_code": "B",
    "country_id": 207,
    "country_code": "ES",
    "latitude": "41.52232000",
    "longitude": "1.75076000",
    "native": null,
    "timezone": null,
    "translations": {}
  },
  {
    "id": 36197,
    "name": "Pineda de Mar",
    "state_id": 5102,
    "state_code": "B",
    "country_id": 207,
    "country_code": "ES",
    "latitude": "41.62763000",
    "longitude": "2.68890000",
    "native": null,
    "timezone": null,
    "translations": {}
  },
  {
    "id": 151550,
    "name": "Pla del Penedès El",
    "state_id": 5102,
    "state_code": "B",
    "country_id": 207,
    "country_code": "ES",
    "latitude": "41.41777850",
    "longitude": "1.70927100",
    "native": null,
    "timezone": null,
    "translations": {}
  },
  {
    "id": 151551,
    "name": "Pobla de Claramunt La",
    "state_id": 5102,
    "state_code": "B",
    "country_id": 207,
    "country_code": "ES",
    "latitude": "41.55484140",
    "longitude": "1.67557470",
    "native": null,
    "timezone": null,
    "translations": {}
  },
  {
    "id": 151552,
    "name": "Pobla de Lillet La",
    "state_id": 5102,
    "state_code": "B",
    "country_id": 207,
    "country_code": "ES",
    "latitude": "42.24456470",
    "longitude": "1.97530880",
    "native": null,
    "timezone": null,
    "translations": {}
  },
  {
    "id": 36260,
    "name": "Polinyà",
    "state_id": 5102,
    "state_code": "B",
    "country_id": 207,
    "country_code": "ES",
    "latitude": "41.55000000",
    "longitude": "2.15000000",
    "native": null,
    "timezone": null,
    "translations": {}
  },
  {
    "id": 151562,
    "name": "Pont de Vilomara i Rocafort El",
    "state_id": 5102,
    "state_code": "B",
    "country_id": 207,
    "country_code": "ES",
    "latitude": "41.70094790",
    "longitude": "1.87082900",
    "native": null,
    "timezone": null,
    "translations": {}
  },
  {
    "id": 151553,
    "name": "Pontons",
    "state_id": 5102,
    "state_code": "B",
    "country_id": 207,
    "country_code": "ES",
    "latitude": "41.41628250",
    "longitude": "1.51602120",
    "native": null,
    "timezone": null,
    "translations": {}
  },
  {
    "id": 151554,
    "name": "Prat de Llobregat El",
    "state_id": 5102,
    "state_code": "B",
    "country_id": 207,
    "country_code": "ES",
    "latitude": "41.32198200",
    "longitude": "2.09477880",
    "native": null,
    "timezone": null,
    "translations": {}
  },
  {
    "id": 151556,
    "name": "Prats de Lluçanès",
    "state_id": 5102,
    "state_code": "B",
    "country_id": 207,
    "country_code": "ES",
    "latitude": "42.00707020",
    "longitude": "2.03099260",
    "native": null,
    "timezone": null,
    "translations": {}
  },
  {
    "id": 151555,
    "name": "Prats de Rei Els",
    "state_id": 5102,
    "state_code": "B",
    "country_id": 207,
    "country_code": "ES",
    "latitude": "41.70614220",
    "longitude": "1.54326010",
    "native": null,
    "timezone": null,
    "translations": {}
  },
  {
    "id": 151591,
    "name": "Premià de Dalt",
    "state_id": 5102,
    "state_code": "B",
    "country_id": 207,
    "country_code": "ES",
    "latitude": "41.50489540",
    "longitude": "2.34581980",
    "native": null,
    "timezone": null,
    "translations": {}
  },
  {
    "id": 36350,
    "name": "Premià de Mar",
    "state_id": 5102,
    "state_code": "B",
    "country_id": 207,
    "country_code": "ES",
    "latitude": "41.49206000",
    "longitude": "2.36524000",
    "native": null,
    "timezone": null,
    "translations": {}
  },
  {
    "id": 151558,
    "name": "Puig-reig",
    "state_id": 5102,
    "state_code": "B",
    "country_id": 207,
    "country_code": "ES",
    "latitude": "41.97394220",
    "longitude": "1.87909760",
    "native": null,
    "timezone": null,
    "translations": {}
  },
  {
    "id": 151557,
    "name": "Puigdàlber",
    "state_id": 5102,
    "state_code": "B",
    "country_id": 207,
    "country_code": "ES",
    "latitude": "41.40437290",
    "longitude": "1.70071020",
    "native": null,
    "timezone": null,
    "translations": {}
  },
  {
    "id": 36465,
    "name": "Pujalt",
    "state_id": 5102,
    "state_code": "B",
    "country_id": 207,
    "country_code": "ES",
    "latitude": "41.71710000",
    "longitude": "1.42088000",
    "native": null,
    "timezone": null,
    "translations": {}
  },
  {
    "id": 151559,
    "name": "Quar La",
    "state_id": 5102,
    "state_code": "B",
    "country_id": 207,
    "country_code": "ES",
    "latitude": "42.08079810",
    "longitude": "1.96163690",
    "native": null,
    "timezone": null,
    "translations": {}
  },
  {
    "id": 36543,
    "name": "Rajadell",
    "state_id": 5102,
    "state_code": "B",
    "country_id": 207,
    "country_code": "ES",
    "latitude": "41.72802000",
    "longitude": "1.70621000",
    "native": null,
    "timezone": null,
    "translations": {}
  },
  {
    "id": 151560,
    "name": "Rellinars",
    "state_id": 5102,
    "state_code": "B",
    "country_id": 207,
    "country_code": "ES",
    "latitude": "41.63040280",
    "longitude": "1.90351460",
    "native": null,
    "timezone": null,
    "translations": {}
  },
  {
    "id": 36633,
    "name": "Ripollet",
    "state_id": 5102,
    "state_code": "B",
    "country_id": 207,
    "country_code": "ES",
    "latitude": "41.49686000",
    "longitude": "2.15739000",
    "native": null,
    "timezone": null,
    "translations": {}
  },
  {
    "id": 151561,
    "name": "Roca del Vallès La",
    "state_id": 5102,
    "state_code": "B",
    "country_id": 207,
    "country_code": "ES",
    "latitude": "41.58148050",
    "longitude": "2.32586000",
    "native": null,
    "timezone": null,
    "translations": {}
  },
  {
    "id": 151563,
    "name": "Roda de Ter",
    "state_id": 5102,
    "state_code": "B",
    "country_id": 207,
    "country_code": "ES",
    "latitude": "41.98324440",
    "longitude": "2.30983860",
    "native": null,
    "timezone": null,
    "translations": {}
  },
  {
    "id": 36694,
    "name": "Rubí",
    "state_id": 5102,
    "state_code": "B",
    "country_id": 207,
    "country_code": "ES",
    "latitude": "41.49226000",
    "longitude": "2.03305000",
    "native": null,
    "timezone": null,
    "translations": {}
  },
  {
    "id": 151564,
    "name": "Rubió",
    "state_id": 5102,
    "state_code": "B",
    "country_id": 207,
    "country_code": "ES",
    "latitude": "41.64427980",
    "longitude": "1.56975890",
    "native": null,
    "timezone": null,
    "translations": {}
  },
  {
    "id": 151627,
    "name": "Rupit i Pruit",
    "state_id": 5102,
    "state_code": "B",
    "country_id": 207,
    "country_code": "ES",
    "latitude": "42.02199790",
    "longitude": "2.47030570",
    "native": null,
    "timezone": null,
    "translations": {}
  },
  {
    "id": 36722,
    "name": "Sabadell",
    "state_id": 5102,
    "state_code": "B",
    "country_id": 207,
    "country_code": "ES",
    "latitude": "41.54329000",
    "longitude": "2.10942000",
    "native": null,
    "timezone": null,
    "translations": {}
  },
  {
    "id": 36740,
    "name": "Sagàs",
    "state_id": 5102,
    "state_code": "B",
    "country_id": 207,
    "country_code": "ES",
    "latitude": "42.05000000",
    "longitude": "1.96667000",
    "native": null,
    "timezone": null,
    "translations": {}
  },
  {
    "id": 151566,
    "name": "Saldes",
    "state_id": 5102,
    "state_code": "B",
    "country_id": 207,
    "country_code": "ES",
    "latitude": "41.42860360",
    "longitude": "2.13564660",
    "native": null,
    "timezone": null,
    "translations": {}
  },
  {
    "id": 36768,
    "name": "Sallent",
    "state_id": 5102,
    "state_code": "B",
    "country_id": 207,
    "country_code": "ES",
    "latitude": "41.82602000",
    "longitude": "1.89550000",
    "native": null,
    "timezone": null,
    "translations": {}
  },
  {
    "id": 36951,
    "name": "Sant Adrià de Besòs",
    "state_id": 5102,
    "state_code": "B",
    "country_id": 207,
    "country_code": "ES",
    "latitude": "41.43073000",
    "longitude": "2.21855000",
    "native": null,
    "timezone": null,
    "translations": {}
  },
  {
    "id": 151569,
    "name": "Sant Agustí de Lluçanès",
    "state_id": 5102,
    "state_code": "B",
    "country_id": 207,
    "country_code": "ES",
    "latitude": "42.08557530",
    "longitude": "2.12737960",
    "native": null,
    "timezone": null,
    "translations": {}
  },
  {
    "id": 36955,
    "name": "Sant Andreu de la Barca",
    "state_id": 5102,
    "state_code": "B",
    "country_id": 207,
    "country_code": "ES",
    "latitude": "41.44659000",
    "longitude": "1.97187000",
    "native": null,
    "timezone": null,
    "translations": {}
  },
  {
    "id": 36954,
    "name": "Sant Andreu de Llavaneres",
    "state_id": 5102,
    "state_code": "B",
    "country_id": 207,
    "country_code": "ES",
    "latitude": "41.56667000",
    "longitude": "2.48333000",
    "native": null,
    "timezone": null,
    "translations": {}
  },
  {
    "id": 151570,
    "name": "Sant Antoni de Vilamajor",
    "state_id": 5102,
    "state_code": "B",
    "country_id": 207,
    "country_code": "ES",
    "latitude": "41.67239940",
    "longitude": "2.39997990",
    "native": null,
    "timezone": null,
    "translations": {}
  },
  {
    "id": 151571,
    "name": "Sant Bartomeu del Grau",
    "state_id": 5102,
    "state_code": "B",
    "country_id": 207,
    "country_code": "ES",
    "latitude": "41.98111660",
    "longitude": "2.17503190",
    "native": null,
    "timezone": null,
    "translations": {}
  },
  {
    "id": 36958,
    "name": "Sant Boi de Llobregat",
    "state_id": 5102,
    "state_code": "B",
    "country_id": 207,
    "country_code": "ES",
    "latitude": "41.34357000",
    "longitude": "2.03659000",
    "native": null,
    "timezone": null,
    "translations": {}
  },
  {
    "id": 151572,
    "name": "Sant Boi de Lluçanès",
    "state_id": 5102,
    "state_code": "B",
    "country_id": 207,
    "country_code": "ES",
    "latitude": "42.05871900",
    "longitude": "2.15054960",
    "native": null,
    "timezone": null,
    "translations": {}
  },
  {
    "id": 151573,
    "name": "Sant Cebrià de Vallalta",
    "state_id": 5102,
    "state_code": "B",
    "country_id": 207,
    "country_code": "ES",
    "latitude": "41.61989850",
    "longitude": "2.59970350",
    "native": null,
    "timezone": null,
    "translations": {}
  },
  {
    "id": 36960,
    "name": "Sant Celoni",
    "state_id": 5102,
    "state_code": "B",
    "country_id": 207,
    "country_code": "ES",
    "latitude": "41.68921000",
    "longitude": "2.48965000",
    "native": null,
    "timezone": null,
    "translations": {}
  },
  {
    "id": 151574,
    "name": "Sant Climent de Llobregat",
    "state_id": 5102,
    "state_code": "B",
    "country_id": 207,
    "country_code": "ES",
    "latitude": "41.33758820",
    "longitude": "1.99671740",
    "native": null,
    "timezone": null,
    "translations": {}
  },
  {
    "id": 36962,
    "name": "Sant Cugat del Vallès",
    "state_id": 5102,
    "state_code": "B",
    "country_id": 207,
    "country_code": "ES",
    "latitude": "41.47063000",
    "longitude": "2.08611000",
    "native": null,
    "timezone": null,
    "translations": {}
  },
  {
    "id": 151575,
    "name": "Sant Cugat Sesgarrigues",
    "state_id": 5102,
    "state_code": "B",
    "country_id": 207,
    "country_code": "ES",
    "latitude": "41.36346610",
    "longitude": "1.75327320",
    "native": null,
    "timezone": null,
    "translations": {}
  },
  {
    "id": 151576,
    "name": "Sant Esteve de Palautordera",
    "state_id": 5102,
    "state_code": "B",
    "country_id": 207,
    "country_code": "ES",
    "latitude": "41.70628990",
    "longitude": "2.43197940",
    "native": null,
    "timezone": null,
    "translations": {}
  },
  {
    "id": 151577,
    "name": "Sant Esteve Sesrovires",
    "state_id": 5102,
    "state_code": "B",
    "country_id": 207,
    "country_code": "ES",
    "latitude": "41.49777860",
    "longitude": "1.86957870",
    "native": null,
    "timezone": null,
    "translations": {}
  },
  {
    "id": 151579,
    "name": "Sant Feliu de Codines",
    "state_id": 5102,
    "state_code": "B",
    "country_id": 207,
    "country_code": "ES",
    "latitude": "41.69071810",
    "longitude": "2.16539540",
    "native": null,
    "timezone": null,
    "translations": {}
  },
  {
    "id": 36965,
    "name": "Sant Feliu de Llobregat",
    "state_id": 5102,
    "state_code": "B",
    "country_id": 207,
    "country_code": "ES",
    "latitude": "41.38333000",
    "longitude": "2.05000000",
    "native": null,
    "timezone": null,
    "translations": {}
  },
  {
    "id": 151580,
    "name": "Sant Feliu Sasserra",
    "state_id": 5102,
    "state_code": "B",
    "country_id": 207,
    "country_code": "ES",
    "latitude": "41.94444930",
    "longitude": "2.02074620",
    "native": null,
    "timezone": null,
    "translations": {}
  },
  {
    "id": 151578,
    "name": "Sant Fost de Campsentelles",
    "state_id": 5102,
    "state_code": "B",
    "country_id": 207,
    "country_code": "ES",
    "latitude": "41.51908120",
    "longitude": "2.23369170",
    "native": null,
    "timezone": null,
    "translations": {}
  },
  {
    "id": 151581,
    "name": "Sant Fruitós de Bages",
    "state_id": 5102,
    "state_code": "B",
    "country_id": 207,
    "country_code": "ES",
    "latitude": "41.75092620",
    "longitude": "1.87462390",
    "native": null,
    "timezone": null,
    "translations": {}
  },
  {
    "id": 151583,
    "name": "Sant Hipòlit de Voltregà",
    "state_id": 5102,
    "state_code": "B",
    "country_id": 207,
    "country_code": "ES",
    "latitude": "42.01587460",
    "longitude": "2.23817260",
    "native": null,
    "timezone": null,
    "translations": {}
  },
  {
    "id": 151568,
    "name": "Sant Iscle de Vallalta",
    "state_id": 5102,
    "state_code": "B",
    "country_id": 207,
    "country_code": "ES",
    "latitude": "41.62528740",
    "longitude": "2.56778480",
    "native": null,
    "timezone": null,
    "translations": {}
  },
  {
    "id": 151584,
    "name": "Sant Jaume de Frontanyà",
    "state_id": 5102,
    "state_code": "B",
    "country_id": 207,
    "country_code": "ES",
    "latitude": "42.18716570",
    "longitude": "2.02384800",
    "native": null,
    "timezone": null,
    "translations": {}
  },
  {
    "id": 36975,
    "name": "Sant Joan de Vilatorrada",
    "state_id": 5102,
    "state_code": "B",
    "country_id": 207,
    "country_code": "ES",
    "latitude": "41.74549000",
    "longitude": "1.80476000",
    "native": null,
    "timezone": null,
    "translations": {}
  },
  {
    "id": 36972,
    "name": "Sant Joan Despí",
    "state_id": 5102,
    "state_code": "B",
    "country_id": 207,
    "country_code": "ES",
    "latitude": "41.36718000",
    "longitude": "2.05740000",
    "native": null,
    "timezone": null,
    "translations": {}
  },
  {
    "id": 36981,
    "name": "Sant Julià de Cerdanyola",
    "state_id": 5102,
    "state_code": "B",
    "country_id": 207,
    "country_code": "ES",
    "latitude": "42.22350000",
    "longitude": "1.89308000",
    "native": null,
    "timezone": null,
    "translations": {}
  },
  {
    "id": 151585,
    "name": "Sant Julià de Vilatorta",
    "state_id": 5102,
    "state_code": "B",
    "country_id": 207,
    "country_code": "ES",
    "latitude": "41.92462700",
    "longitude": "2.32107360",
    "native": null,
    "timezone": null,
    "translations": {}
  },
  {
    "id": 36982,
    "name": "Sant Just Desvern",
    "state_id": 5102,
    "state_code": "B",
    "country_id": 207,
    "country_code": "ES",
    "latitude": "41.38389000",
    "longitude": "2.06758000",
    "native": null,
    "timezone": null,
    "translations": {}
  },
  {
    "id": 151586,
    "name": "Sant Llorenç dHortons",
    "state_id": 5102,
    "state_code": "B",
    "country_id": 207,
    "country_code": "ES",
    "latitude": "41.46599600",
    "longitude": "1.82306240",
    "native": null,
    "timezone": null,
    "translations": {}
  },
  {
    "id": 151587,
    "name": "Sant Llorenç Savall",
    "state_id": 5102,
    "state_code": "B",
    "country_id": 207,
    "country_code": "ES",
    "latitude": "41.67876330",
    "longitude": "2.05835760",
    "native": null,
    "timezone": null,
    "translations": {}
  },
  {
    "id": 151588,
    "name": "Sant Martí dAlbars",
    "state_id": 5102,
    "state_code": "B",
    "country_id": 207,
    "country_code": "ES",
    "latitude": "42.02844180",
    "longitude": "2.07310760",
    "native": null,
    "timezone": null,
    "translations": {}
  },
  {
    "id": 36988,
    "name": "Sant Martí de Centelles",
    "state_id": 5102,
    "state_code": "B",
    "country_id": 207,
    "country_code": "ES",
    "latitude": "41.76617000",
    "longitude": "2.20566000",
    "native": null,
    "timezone": null,
    "translations": {}
  },
  {
    "id": 36990,
    "name": "Sant Martí de Tous",
    "state_id": 5102,
    "state_code": "B",
    "country_id": 207,
    "country_code": "ES",
    "latitude": "41.55000000",
    "longitude": "1.51667000",
    "native": null,
    "timezone": null,
    "translations": {}
  },
  {
    "id": 36986,
    "name": "Sant Martí Sarroca",
    "state_id": 5102,
    "state_code": "B",
    "country_id": 207,
    "country_code": "ES",
    "latitude": "41.38576000",
    "longitude": "1.61121000",
    "native": null,
    "timezone": null,
    "translations": {}
  },
  {
    "id": 151589,
    "name": "Sant Martí Sesgueioles",
    "state_id": 5102,
    "state_code": "B",
    "country_id": 207,
    "country_code": "ES",
    "latitude": "41.70184680",
    "longitude": "1.49121870",
    "native": null,
    "timezone": null,
    "translations": {}
  },
  {
    "id": 151590,
    "name": "Sant Mateu de Bages",
    "state_id": 5102,
    "state_code": "B",
    "country_id": 207,
    "country_code": "ES",
    "latitude": "41.79671530",
    "longitude": "1.73274070",
    "native": null,
    "timezone": null,
    "translations": {}
  },
  {
    "id": 36993,
    "name": "Sant Pere de Ribes",
    "state_id": 5102,
    "state_code": "B",
    "country_id": 207,
    "country_code": "ES",
    "latitude": "41.26045000",
    "longitude": "1.77391000",
    "native": null,
    "timezone": null,
    "translations": {}
  },
  {
    "id": 36994,
    "name": "Sant Pere de Riudebitlles",
    "state_id": 5102,
    "state_code": "B",
    "country_id": 207,
    "country_code": "ES",
    "latitude": "41.45000000",
    "longitude": "1.70000000",
    "native": null,
    "timezone": null,
    "translations": {}
  },
  {
    "id": 151592,
    "name": "Sant Pere de Torelló",
    "state_id": 5102,
    "state_code": "B",
    "country_id": 207,
    "country_code": "ES",
    "latitude": "42.07635370",
    "longitude": "2.29382290",
    "native": null,
    "timezone": null,
    "translations": {}
  },
  {
    "id": 151593,
    "name": "Sant Pere de Vilamajor",
    "state_id": 5102,
    "state_code": "B",
    "country_id": 207,
    "country_code": "ES",
    "latitude": "41.68318650",
    "longitude": "2.39280020",
    "native": null,
    "timezone": null,
    "translations": {}
  },
  {
    "id": 151565,
    "name": "Sant Pere Sallavinera",
    "state_id": 5102,
    "state_code": "B",
    "country_id": 207,
    "country_code": "ES",
    "latitude": "41.73599570",
    "longitude": "1.57494390",
    "native": null,
    "timezone": null,
    "translations": {}
  },
  {
    "id": 36996,
    "name": "Sant Pol de Mar",
    "state_id": 5102,
    "state_code": "B",
    "country_id": 207,
    "country_code": "ES",
    "latitude": "41.60177000",
    "longitude": "2.61741000",
    "native": null,
    "timezone": null,
    "translations": {}
  },
  {
    "id": 151594,
    "name": "Sant Quintí de Mediona",
    "state_id": 5102,
    "state_code": "B",
    "country_id": 207,
    "country_code": "ES",
    "latitude": "41.46286900",
    "longitude": "1.66356060",
    "native": null,
    "timezone": null,
    "translations": {}
  },
  {
    "id": 151595,
    "name": "Sant Quirze de Besora",
    "state_id": 5102,
    "state_code": "B",
    "country_id": 207,
    "country_code": "ES",
    "latitude": "42.09999950",
    "longitude": "2.22243690",
    "native": null,
    "timezone": null,
    "translations": {}
  },
  {
    "id": 36997,
    "name": "Sant Quirze del Vallès",
    "state_id": 5102,
    "state_code": "B",
    "country_id": 207,
    "country_code": "ES",
    "latitude": "41.53333000",
    "longitude": "2.08333000",
    "native": null,
    "timezone": null,
    "translations": {}
  },
  {
    "id": 151596,
    "name": "Sant Quirze Safaja",
    "state_id": 5102,
    "state_code": "B",
    "country_id": 207,
    "country_code": "ES",
    "latitude": "41.45614850",
    "longitude": "2.17600210",
    "native": null,
    "timezone": null,
    "translations": {}
  },
  {
    "id": 151597,
    "name": "Sant Sadurní dAnoia",
    "state_id": 5102,
    "state_code": "B",
    "country_id": 207,
    "country_code": "ES",
    "latitude": "41.43749180",
    "longitude": "1.78309730",
    "native": null,
    "timezone": null,
    "translations": {}
  },
  {
    "id": 151598,
    "name": "Sant Sadurní dOsormort",
    "state_id": 5102,
    "state_code": "B",
    "country_id": 207,
    "country_code": "ES",
    "latitude": "41.90108920",
    "longitude": "2.38120780",
    "native": null,
    "timezone": null,
    "translations": {}
  },
  {
    "id": 36999,
    "name": "Sant Salvador de Guardiola",
    "state_id": 5102,
    "state_code": "B",
    "country_id": 207,
    "country_code": "ES",
    "latitude": "41.68333000",
    "longitude": "1.76667000",
    "native": null,
    "timezone": null,
    "translations": {}
  },
  {
    "id": 37000,
    "name": "Sant Vicenç de Castellet",
    "state_id": 5102,
    "state_code": "B",
    "country_id": 207,
    "country_code": "ES",
    "latitude": "41.66667000",
    "longitude": "1.86667000",
    "native": null,
    "timezone": null,
    "translations": {}
  },
  {
    "id": 37001,
    "name": "Sant Vicenç de Montalt",
    "state_id": 5102,
    "state_code": "B",
    "country_id": 207,
    "country_code": "ES",
    "latitude": "41.57853000",
    "longitude": "2.50879000",
    "native": null,
    "timezone": null,
    "translations": {}
  },
  {
    "id": 151609,
    "name": "Sant Vicenç de Torelló",
    "state_id": 5102,
    "state_code": "B",
    "country_id": 207,
    "country_code": "ES",
    "latitude": "42.06380030",
    "longitude": "2.27227220",
    "native": null,
    "timezone": null,
    "translations": {}
  },
  {
    "id": 37002,
    "name": "Sant Vicenç dels Horts",
    "state_id": 5102,
    "state_code": "B",
    "country_id": 207,
    "country_code": "ES",
    "latitude": "41.39317000",
    "longitude": "2.00689000",
    "native": null,
    "timezone": null,
    "translations": {}
  },
  {
    "id": 37012,
    "name": "Santa Cecília de Voltregà",
    "state_id": 5102,
    "state_code": "B",
    "country_id": 207,
    "country_code": "ES",
    "latitude": "42.00000000",
    "longitude": "2.23333000",
    "native": null,
    "timezone": null,
    "translations": {}
  },
  {
    "id": 37015,
    "name": "Santa Coloma de Cervelló",
    "state_id": 5102,
    "state_code": "B",
    "country_id": 207,
    "country_code": "ES",
    "latitude": "41.36736000",
    "longitude": "2.01426000",
    "native": null,
    "timezone": null,
    "translations": {}
  },
  {
    "id": 37017,
    "name": "Santa Coloma de Gramenet",
    "state_id": 5102,
    "state_code": "B",
    "country_id": 207,
    "country_code": "ES",
    "latitude": "41.45152000",
    "longitude": "2.20810000",
    "native": null,
    "timezone": null,
    "translations": {}
  },
  {
    "id": 37053,
    "name": "Santa Eugènia de Berga",
    "state_id": 5102,
    "state_code": "B",
    "country_id": 207,
    "country_code": "ES",
    "latitude": "41.90000000",
    "longitude": "2.28333000",
    "native": null,
    "timezone": null,
    "translations": {}
  },
  {
    "id": 151600,
    "name": "Santa Eulàlia de Riuprimer",
    "state_id": 5102,
    "state_code": "B",
    "country_id": 207,
    "country_code": "ES",
    "latitude": "41.91064400",
    "longitude": "2.18862940",
    "native": null,
    "timezone": null,
    "translations": {}
  },
  {
    "id": 37057,
    "name": "Santa Eulàlia de Ronçana",
    "state_id": 5102,
    "state_code": "B",
    "country_id": 207,
    "country_code": "ES",
    "latitude": "41.65000000",
    "longitude": "2.23333000",
    "native": null,
    "timezone": null,
    "translations": {}
  },
  {
    "id": 151601,
    "name": "Santa Fe del Penedès",
    "state_id": 5102,
    "state_code": "B",
    "country_id": 207,
    "country_code": "ES",
    "latitude": "41.38493340",
    "longitude": "1.72073350",
    "native": null,
    "timezone": null,
    "translations": {}
  },
  {
    "id": 151602,
    "name": "Santa Margarida de Montbui",
    "state_id": 5102,
    "state_code": "B",
    "country_id": 207,
    "country_code": "ES",
    "latitude": "41.55686900",
    "longitude": "1.60303480",
    "native": null,
    "timezone": null,
    "translations": {}
  },
  {
    "id": 151603,
    "name": "Santa Margarida i els Monjos",
    "state_id": 5102,
    "state_code": "B",
    "country_id": 207,
    "country_code": "ES",
    "latitude": "41.31406740",
    "longitude": "1.66149470",
    "native": null,
    "timezone": null,
    "translations": {}
  },
  {
    "id": 151604,
    "name": "Santa Maria de Besora",
    "state_id": 5102,
    "state_code": "B",
    "country_id": 207,
    "country_code": "ES",
    "latitude": "42.12740190",
    "longitude": "2.25842350",
    "native": null,
    "timezone": null,
    "translations": {}
  },
  {
    "id": 37066,
    "name": "Santa Maria de Corcó",
    "state_id": 5102,
    "state_code": "B",
    "country_id": 207,
    "country_code": "ES",
    "latitude": "42.03333000",
    "longitude": "2.36667000",
    "native": null,
    "timezone": null,
    "translations": {}
  },
  {
    "id": 151606,
    "name": "Santa Maria de Martorelles",
    "state_id": 5102,
    "state_code": "B",
    "country_id": 207,
    "country_code": "ES",
    "latitude": "41.51892410",
    "longitude": "2.25473130",
    "native": null,
    "timezone": null,
    "translations": {}
  },
  {
    "id": 151605,
    "name": "Santa Maria de Merlès",
    "state_id": 5102,
    "state_code": "B",
    "country_id": 207,
    "country_code": "ES",
    "latitude": "42.00383710",
    "longitude": "1.97668480",
    "native": null,
    "timezone": null,
    "translations": {}
  },
  {
    "id": 151607,
    "name": "Santa Maria de Miralles",
    "state_id": 5102,
    "state_code": "B",
    "country_id": 207,
    "country_code": "ES",
    "latitude": "41.49470860",
    "longitude": "1.52673420",
    "native": null,
    "timezone": null,
    "translations": {}
  },
  {
    "id": 37067,
    "name": "Santa Maria de Palautordera",
    "state_id": 5102,
    "state_code": "B",
    "country_id": 207,
    "country_code": "ES",
    "latitude": "41.69417000",
    "longitude": "2.44566000",
    "native": null,
    "timezone": null,
    "translations": {}
  },
  {
    "id": 151608,
    "name": "Santa Maria dOló",
    "state_id": 5102,
    "state_code": "B",
    "country_id": 207,
    "country_code": "ES",
    "latitude": "41.87500120",
    "longitude": "2.03527890",
    "native": null,
    "timezone": null,
    "translations": {}
  },
  {
    "id": 37097,
    "name": "Santa Perpètua de Mogoda",
    "state_id": 5102,
    "state_code": "B",
    "country_id": 207,
    "country_code": "ES",
    "latitude": "41.53333000",
    "longitude": "2.18333000",
    "native": null,
    "timezone": null,
    "translations": {}
  },
  {
    "id": 37100,
    "name": "Santa Susanna",
    "state_id": 5102,
    "state_code": "B",
    "country_id": 207,
    "country_code": "ES",
    "latitude": "41.63333000",
    "longitude": "2.71667000",
    "native": null,
    "timezone": null,
    "translations": {}
  },
  {
    "id": 151567,
    "name": "Santpedor",
    "state_id": 5102,
    "state_code": "B",
    "country_id": 207,
    "country_code": "ES",
    "latitude": "41.41072110",
    "longitude": "2.11131830",
    "native": null,
    "timezone": null,
    "translations": {}
  },
  {
    "id": 37212,
    "name": "Sentmenat",
    "state_id": 5102,
    "state_code": "B",
    "country_id": 207,
    "country_code": "ES",
    "latitude": "41.60862000",
    "longitude": "2.13532000",
    "native": null,
    "timezone": null,
    "translations": {}
  },
  {
    "id": 37238,
    "name": "Seva",
    "state_id": 5102,
    "state_code": "B",
    "country_id": 207,
    "country_code": "ES",
    "latitude": "41.83831000",
    "longitude": "2.28007000",
    "native": null,
    "timezone": null,
    "translations": {}
  },
  {
    "id": 37267,
    "name": "Sitges",
    "state_id": 5102,
    "state_code": "B",
    "country_id": 207,
    "country_code": "ES",
    "latitude": "41.23506000",
    "longitude": "1.81193000",
    "native": null,
    "timezone": null,
    "translations": {}
  },
  {
    "id": 151611,
    "name": "Sobremunt",
    "state_id": 5102,
    "state_code": "B",
    "country_id": 207,
    "country_code": "ES",
    "latitude": "42.03570970",
    "longitude": "2.16547330",
    "native": null,
    "timezone": null,
    "translations": {}
  },
  {
    "id": 151612,
    "name": "Sora",
    "state_id": 5102,
    "state_code": "B",
    "country_id": 207,
    "country_code": "ES",
    "latitude": "42.11198570",
    "longitude": "2.16068060",
    "native": null,
    "timezone": null,
    "translations": {}
  },
  {
    "id": 37328,
    "name": "Subirats",
    "state_id": 5102,
    "state_code": "B",
    "country_id": 207,
    "country_code": "ES",
    "latitude": "41.40000000",
    "longitude": "1.83333000",
    "native": null,
    "timezone": null,
    "translations": {}
  },
  {
    "id": 37338,
    "name": "Súria",
    "state_id": 5102,
    "state_code": "B",
    "country_id": 207,
    "country_code": "ES",
    "latitude": "41.83333000",
    "longitude": "1.75000000",
    "native": null,
    "timezone": null,
    "translations": {}
  },
  {
    "id": 37349,
    "name": "Tagamanent",
    "state_id": 5102,
    "state_code": "B",
    "country_id": 207,
    "country_code": "ES",
    "latitude": "41.73747000",
    "longitude": "2.26720000",
    "native": null,
    "timezone": null,
    "translations": {}
  },
  {
    "id": 37353,
    "name": "Talamanca",
    "state_id": 5102,
    "state_code": "B",
    "country_id": 207,
    "country_code": "ES",
    "latitude": "41.73740000",
    "longitude": "1.97791000",
    "native": null,
    "timezone": null,
    "translations": {}
  },
  {
    "id": 37370,
    "name": "Taradell",
    "state_id": 5102,
    "state_code": "B",
    "country_id": 207,
    "country_code": "ES",
    "latitude": "41.87495000",
    "longitude": "2.28662000",
    "native": null,
    "timezone": null,
    "translations": {}
  },
  {
    "id": 151613,
    "name": "Tavèrnoles",
    "state_id": 5102,
    "state_code": "B",
    "country_id": 207,
    "country_code": "ES",
    "latitude": "41.95289200",
    "longitude": "2.32555180",
    "native": null,
    "timezone": null,
    "translations": {}
  },
  {
    "id": 37388,
    "name": "Tavertet",
    "state_id": 5102,
    "state_code": "B",
    "country_id": 207,
    "country_code": "ES",
    "latitude": "41.99572000",
    "longitude": "2.41859000",
    "native": null,
    "timezone": null,
    "translations": {}
  },
  {
    "id": 37393,
    "name": "Teià",
    "state_id": 5102,
    "state_code": "B",
    "country_id": 207,
    "country_code": "ES",
    "latitude": "41.49804000",
    "longitude": "2.32206000",
    "native": null,
    "timezone": null,
    "translations": {}
  },
  {
    "id": 37409,
    "name": "Terrassa",
    "state_id": 5102,
    "state_code": "B",
    "country_id": 207,
    "country_code": "ES",
    "latitude": "41.56667000",
    "longitude": "2.01667000",
    "native": null,
    "timezone": null,
    "translations": {}
  },
  {
    "id": 37419,
    "name": "Tiana",
    "state_id": 5102,
    "state_code": "B",
    "country_id": 207,
    "country_code": "ES",
    "latitude": "41.48201000",
    "longitude": "2.26702000",
    "native": null,
    "timezone": null,
    "translations": {}
  },
  {
    "id": 37452,
    "name": "Tona",
    "state_id": 5102,
    "state_code": "B",
    "country_id": 207,
    "country_code": "ES",
    "latitude": "41.84789000",
    "longitude": "2.22808000",
    "native": null,
    "timezone": null,
    "translations": {}
  },
  {
    "id": 37458,
    "name": "Tordera",
    "state_id": 5102,
    "state_code": "B",
    "country_id": 207,
    "country_code": "ES",
    "latitude": "41.69914000",
    "longitude": "2.71888000",
    "native": null,
    "timezone": null,
    "translations": {}
  },
  {
    "id": 37463,
    "name": "Torelló",
    "state_id": 5102,
    "state_code": "B",
    "country_id": 207,
    "country_code": "ES",
    "latitude": "42.04627000",
    "longitude": "2.26679000",
    "native": null,
    "timezone": null,
    "translations": {}
  },
  {
    "id": 151614,
    "name": "Torre de Claramunt La",
    "state_id": 5102,
    "state_code": "B",
    "country_id": 207,
    "country_code": "ES",
    "latitude": "41.52430690",
    "longitude": "1.66149470",
    "native": null,
    "timezone": null,
    "translations": {}
  },
  {
    "id": 151615,
    "name": "Torrelavit",
    "state_id": 5102,
    "state_code": "B",
    "country_id": 207,
    "country_code": "ES",
    "latitude": "41.44646120",
    "longitude": "1.73004620",
    "native": null,
    "timezone": null,
    "translations": {}
  },
  {
    "id": 151616,
    "name": "Torrelles de Foix",
    "state_id": 5102,
    "state_code": "B",
    "country_id": 207,
    "country_code": "ES",
    "latitude": "41.38831460",
    "longitude": "1.56872290",
    "native": null,
    "timezone": null,
    "translations": {}
  },
  {
    "id": 37549,
    "name": "Torrelles de Llobregat",
    "state_id": 5102,
    "state_code": "B",
    "country_id": 207,
    "country_code": "ES",
    "latitude": "41.35000000",
    "longitude": "1.98333000",
    "native": null,
    "timezone": null,
    "translations": {}
  },
  {
    "id": 37680,
    "name": "Ullastrell",
    "state_id": 5102,
    "state_code": "B",
    "country_id": 207,
    "country_code": "ES",
    "latitude": "41.52643000",
    "longitude": "1.95537000",
    "native": null,
    "timezone": null,
    "translations": {}
  },
  {
    "id": 151617,
    "name": "Vacarisses",
    "state_id": 5102,
    "state_code": "B",
    "country_id": 207,
    "country_code": "ES",
    "latitude": "41.45718850",
    "longitude": "2.18063670",
    "native": null,
    "timezone": null,
    "translations": {}
  },
  {
    "id": 151618,
    "name": "Vallbona dAnoia",
    "state_id": 5102,
    "state_code": "B",
    "country_id": 207,
    "country_code": "ES",
    "latitude": "41.51831090",
    "longitude": "1.70755630",
    "native": null,
    "timezone": null,
    "translations": {}
  },
  {
    "id": 151619,
    "name": "Vallcebre",
    "state_id": 5102,
    "state_code": "B",
    "country_id": 207,
    "country_code": "ES",
    "latitude": "42.20355070",
    "longitude": "1.81806080",
    "native": null,
    "timezone": null,
    "translations": {}
  },
  {
    "id": 37859,
    "name": "Vallgorguina",
    "state_id": 5102,
    "state_code": "B",
    "country_id": 207,
    "country_code": "ES",
    "latitude": "41.64822000",
    "longitude": "2.50996000",
    "native": null,
    "timezone": null,
    "translations": {}
  },
  {
    "id": 37861,
    "name": "Vallirana",
    "state_id": 5102,
    "state_code": "B",
    "country_id": 207,
    "country_code": "ES",
    "latitude": "41.38676000",
    "longitude": "1.93205000",
    "native": null,
    "timezone": null,
    "translations": {}
  },
  {
    "id": 151620,
    "name": "Vallromanes",
    "state_id": 5102,
    "state_code": "B",
    "country_id": 207,
    "country_code": "ES",
    "latitude": "41.53574730",
    "longitude": "2.29413120",
    "native": null,
    "timezone": null,
    "translations": {}
  },
  {
    "id": 151621,
    "name": "Veciana",
    "state_id": 5102,
    "state_code": "B",
    "country_id": 207,
    "country_code": "ES",
    "latitude": "41.42012510",
    "longitude": "2.14282860",
    "native": null,
    "timezone": null,
    "translations": {}
  },
  {
    "id": 37962,
    "name": "Vic",
    "state_id": 5102,
    "state_code": "B",
    "country_id": 207,
    "country_code": "ES",
    "latitude": "41.93012000",
    "longitude": "2.25486000",
    "native": null,
    "timezone": null,
    "translations": {}
  },
  {
    "id": 151622,
    "name": "Vilada",
    "state_id": 5102,
    "state_code": "B",
    "country_id": 207,
    "country_code": "ES",
    "latitude": "42.13670980",
    "longitude": "1.93374460",
    "native": null,
    "timezone": null,
    "translations": {}
  },
  {
    "id": 37978,
    "name": "Viladecans",
    "state_id": 5102,
    "state_code": "B",
    "country_id": 207,
    "country_code": "ES",
    "latitude": "41.31405000",
    "longitude": "2.01427000",
    "native": null,
    "timezone": null,
    "translations": {}
  },
  {
    "id": 151623,
    "name": "Viladecavalls",
    "state_id": 5102,
    "state_code": "B",
    "country_id": 207,
    "country_code": "ES",
    "latitude": "41.45433480",
    "longitude": "2.18075970",
    "native": null,
    "timezone": null,
    "translations": {}
  },
  {
    "id": 37984,
    "name": "Vilafranca del Penedès",
    "state_id": 5102,
    "state_code": "B",
    "country_id": 207,
    "country_code": "ES",
    "latitude": "41.34618000",
    "longitude": "1.69713000",
    "native": null,
    "timezone": null,
    "translations": {}
  },
  {
    "id": 151625,
    "name": "Vilalba Sasserra",
    "state_id": 5102,
    "state_code": "B",
    "country_id": 207,
    "country_code": "ES",
    "latitude": "41.65204790",
    "longitude": "2.44002080",
    "native": null,
    "timezone": null,
    "translations": {}
  },
  {
    "id": 37997,
    "name": "Vilanova de Sau",
    "state_id": 5102,
    "state_code": "B",
    "country_id": 207,
    "country_code": "ES",
    "latitude": "41.94700000",
    "longitude": "2.38440000",
    "native": null,
    "timezone": null,
    "translations": {}
  },
  {
    "id": 37998,
    "name": "Vilanova del Camí",
    "state_id": 5102,
    "state_code": "B",
    "country_id": 207,
    "country_code": "ES",
    "latitude": "41.57165000",
    "longitude": "1.63751000",
    "native": null,
    "timezone": null,
    "translations": {}
  },
  {
    "id": 151628,
    "name": "Vilanova del Vallès",
    "state_id": 5102,
    "state_code": "B",
    "country_id": 207,
    "country_code": "ES",
    "latitude": "41.55315320",
    "longitude": "2.30737430",
    "native": null,
    "timezone": null,
    "translations": {}
  },
  {
    "id": 37999,
    "name": "Vilanova i la Geltrú",
    "state_id": 5102,
    "state_code": "B",
    "country_id": 207,
    "country_code": "ES",
    "latitude": "41.22392000",
    "longitude": "1.72511000",
    "native": null,
    "timezone": null,
    "translations": {}
  },
  {
    "id": 151582,
    "name": "Vilassar de Dalt",
    "state_id": 5102,
    "state_code": "B",
    "country_id": 207,
    "country_code": "ES",
    "latitude": "41.51322480",
    "longitude": "2.36225820",
    "native": null,
    "timezone": null,
    "translations": {}
  },
  {
    "id": 38004,
    "name": "Vilassar de Mar",
    "state_id": 5102,
    "state_code": "B",
    "country_id": 207,
    "country_code": "ES",
    "latitude": "41.50507000",
    "longitude": "2.39227000",
    "native": null,
    "timezone": null,
    "translations": {}
  },
  {
    "id": 151624,
    "name": "Vilobí del Penedès",
    "state_id": 5102,
    "state_code": "B",
    "country_id": 207,
    "country_code": "ES",
    "latitude": "41.38881310",
    "longitude": "1.66211640",
    "native": null,
    "timezone": null,
    "translations": {}
  },
  {
    "id": 151626,
    "name": "Viver i Serrateix",
    "state_id": 5102,
    "state_code": "B",
    "country_id": 207,
    "country_code": "ES",
    "latitude": "41.95513820",
    "longitude": "1.80258520",
    "native": null,
    "timezone": null,
    "translations": {}
  }
]