[
  {
    "id": 2540,
    "name": "Andijan",
    "country_id": 236,
    "country_code": "UZ",
    "fips_code": null,
    "iso2": "AN",
    "type": "region",
    "latitude": "40.77277960",
    "longitude": "72.34196600",
    "native": "Andijan",
    "timezone": "Asia/Tashkent",
    "translations": {}
  },
  {
    "id": 2541,
    "name": "Bukhara",
    "country_id": 236,
    "country_code": "UZ",
    "fips_code": null,
    "iso2": "BU",
    "type": "region",
    "latitude": "40.22936600",
    "longitude": "63.54705840",
    "native": "Buxoro",
    "timezone": "Asia/Samarkand",
    "translations": {}
  },
  {
    "id": 2538,
    "name": "Fergana",
    "country_id": 236,
    "country_code": "UZ",
    "fips_code": null,
    "iso2": "FA",
    "type": "region",
    "latitude": "40.50000000",
    "longitude": "71.25000000",
    "native": "Farg'ona",
    "timezone": "Asia/Tashkent",
    "translations": {}
  },
  {
    "id": 2545,
    "name": "Jizzakh",
    "country_id": 236,
    "country_code": "UZ",
    "fips_code": null,
    "iso2": "JI",
    "type": "region",
    "latitude": "40.33190950",
    "longitude": "67.45511980",
    "native": "Jizzakh",
    "timezone": "Asia/Tashkent",
    "translations": {}
  },
  {
    "id": 2548,
    "name": "Karakalpakstan",
    "country_id": 236,
    "country_code": "UZ",
    "fips_code": null,
    "iso2": "QR",
    "type": "republic",
    "latitude": "43.77388410",
    "longitude": "57.62346170",
    "native": "Qoraqalpog'iston",
    "timezone": "Asia/Samarkand",
    "translations": {}
  },
  {
    "id": 2537,
    "name": "Namangan",
    "country_id": 236,
    "country_code": "UZ",
    "fips_code": null,
    "iso2": "NG",
    "type": "region",
    "latitude": "40.95550610",
    "longitude": "71.10977490",
    "native": "Namangan",
    "timezone": "Asia/Tashkent",
    "translations": {}
  },
  {
    "id": 2542,
    "name": "Navoiy",
    "country_id": 236,
    "country_code": "UZ",
    "fips_code": null,
    "iso2": "NW",
    "type": "region",
    "latitude": "42.00000000",
    "longitude": "64.00000000",
    "native": "Navoiy",
    "timezone": "Asia/Samarkand",
    "translations": {}
  },
  {
    "id": 2543,
    "name": "Qashqadaryo",
    "country_id": 236,
    "country_code": "UZ",
    "fips_code": null,
    "iso2": "QA",
    "type": "region",
    "latitude": "39.04249740",
    "longitude": "66.57752760",
    "native": "Qashqadaryo",
    "timezone": "Asia/Samarkand",
    "translations": {}
  },
  {
    "id": 2544,
    "name": "Samarqand",
    "country_id": 236,
    "country_code": "UZ",
    "fips_code": null,
    "iso2": "SA",
    "type": "region",
    "latitude": "39.65500170",
    "longitude": "66.97569540",
    "native": "Samarqand",
    "timezone": "Asia/Samarkand",
    "translations": {}
  },
  {
    "id": 2547,
    "name": "Sirdaryo",
    "country_id": 236,
    "country_code": "UZ",
    "fips_code": null,
    "iso2": "SI",
    "type": "region",
    "latitude": "40.80293260",
    "longitude": "68.82428410",
    "native": "Sirdaryo",
    "timezone": "Asia/Tashkent",
    "translations": {}
  },
  {
    "id": 2546,
    "name": "Surxondaryo",
    "country_id": 236,
    "country_code": "UZ",
    "fips_code": null,
    "iso2": "SU",
    "type": "region",
    "latitude": "37.95208430",
    "longitude": "67.12659960",
    "native": "Surxondaryo",
    "timezone": "Asia/Samarkand",
    "translations": {}
  },
  {
    "id": 2536,
    "name": "Tashkent",
    "country_id": 236,
    "country_code": "UZ",
    "fips_code": null,
    "iso2": "TK",
    "type": "city",
    "latitude": "41.31233630",
    "longitude": "69.27870790",
    "native": "Tashkent",
    "timezone": "Asia/Tashkent",
    "translations": {}
  },
  {
    "id": 2549,
    "name": "Tashkent",
    "country_id": 236,
    "country_code": "UZ",
    "fips_code": null,
    "iso2": "TO",
    "type": "region",
    "latitude": "41.31233630",
    "longitude": "69.27870790",
    "native": "Toshkent",
    "timezone": "Asia/Tashkent",
    "translations": {}
  },
  {
    "id": 2539,
    "name": "Xorazm",
    "country_id": 236,
    "country_code": "UZ",
    "fips_code": null,
    "iso2": "XO",
    "type": "region",
    "latitude": "41.29028350",
    "longitude": "60.54285370",
    "native": "Xorazm",
    "timezone": "Asia/Samarkand",
    "translations": {}
  }
]