[
  {
    "id": 15653,
    "name": "Água Branca",
    "state_id": 2005,
    "state_code": "PB",
    "country_id": 31,
    "country_code": "BR",
    "latitude": "-7.46957000",
    "longitude": "-37.66100000",
    "native": null,
    "timezone": null,
    "translations": {}
  },
  {
    "id": 10100,
    "name": "Aguiar",
    "state_id": 2005,
    "state_code": "PB",
    "country_id": 31,
    "country_code": "BR",
    "latitude": "-7.07620000",
    "longitude": "-38.24255000",
    "native": null,
    "timezone": null,
    "translations": {}
  },
  {
    "id": 10108,
    "name": "Alagoa Grande",
    "state_id": 2005,
    "state_code": "PB",
    "country_id": 31,
    "country_code": "BR",
    "latitude": "-7.07831000",
    "longitude": "-35.59525000",
    "native": null,
    "timezone": null,
    "translations": {}
  },
  {
    "id": 10109,
    "name": "Alagoa Nova",
    "state_id": 2005,
    "state_code": "PB",
    "country_id": 31,
    "country_code": "BR",
    "latitude": "-7.04733000",
    "longitude": "-35.75397000",
    "native": null,
    "timezone": null,
    "translations": {}
  },
  {
    "id": 10110,
    "name": "Alagoinha",
    "state_id": 2005,
    "state_code": "PB",
    "country_id": 31,
    "country_code": "BR",
    "latitude": "-6.96256000",
    "longitude": "-35.51465000",
    "native": null,
    "timezone": null,
    "translations": {}
  },
  {
    "id": 10116,
    "name": "Alcantil",
    "state_id": 2005,
    "state_code": "PB",
    "country_id": 31,
    "country_code": "BR",
    "latitude": "-7.69816000",
    "longitude": "-36.06604000",
    "native": null,
    "timezone": null,
    "translations": {}
  },
  {
    "id": 10135,
    "name": "Algodão de Jandaíra",
    "state_id": 2005,
    "state_code": "PB",
    "country_id": 31,
    "country_code": "BR",
    "latitude": "-6.86987000",
    "longitude": "-35.97724000",
    "native": null,
    "timezone": null,
    "translations": {}
  },
  {
    "id": 10136,
    "name": "Alhandra",
    "state_id": 2005,
    "state_code": "PB",
    "country_id": 31,
    "country_code": "BR",
    "latitude": "-7.35043000",
    "longitude": "-34.92835000",
    "native": null,
    "timezone": null,
    "translations": {}
  },
  {
    "id": 10219,
    "name": "Amparo",
    "state_id": 2005,
    "state_code": "PB",
    "country_id": 31,
    "country_code": "BR",
    "latitude": "-7.55889000",
    "longitude": "-37.03372000",
    "native": null,
    "timezone": null,
    "translations": {}
  },
  {
    "id": 10284,
    "name": "Aparecida",
    "state_id": 2005,
    "state_code": "PB",
    "country_id": 31,
    "country_code": "BR",
    "latitude": "-6.80925000",
    "longitude": "-38.07182000",
    "native": null,
    "timezone": null,
    "translations": {}
  },
  {
    "id": 10366,
    "name": "Araçagi",
    "state_id": 2005,
    "state_code": "PB",
    "country_id": 31,
    "country_code": "BR",
    "latitude": "-6.85419000",
    "longitude": "-35.36047000",
    "native": null,
    "timezone": null,
    "translations": {}
  },
  {
    "id": 10347,
    "name": "Arara",
    "state_id": 2005,
    "state_code": "PB",
    "country_id": 31,
    "country_code": "BR",
    "latitude": "-6.82833000",
    "longitude": "-35.75833000",
    "native": null,
    "timezone": null,
    "translations": {}
  },
  {
    "id": 10357,
    "name": "Araruna",
    "state_id": 2005,
    "state_code": "PB",
    "country_id": 31,
    "country_code": "BR",
    "latitude": "-6.55833000",
    "longitude": "-35.74167000",
    "native": null,
    "timezone": null,
    "translations": {}
  },
  {
    "id": 10383,
    "name": "Areia",
    "state_id": 2005,
    "state_code": "PB",
    "country_id": 31,
    "country_code": "BR",
    "latitude": "-6.94723000",
    "longitude": "-35.66927000",
    "native": null,
    "timezone": null,
    "translations": {}
  },
  {
    "id": 10386,
    "name": "Areia de Baraúnas",
    "state_id": 2005,
    "state_code": "PB",
    "country_id": 31,
    "country_code": "BR",
    "latitude": "-7.11328000",
    "longitude": "-36.97177000",
    "native": null,
    "timezone": null,
    "translations": {}
  },
  {
    "id": 10387,
    "name": "Areial",
    "state_id": 2005,
    "state_code": "PB",
    "country_id": 31,
    "country_code": "BR",
    "latitude": "-7.04397000",
    "longitude": "-35.92622000",
    "native": null,
    "timezone": null,
    "translations": {}
  },
  {
    "id": 10405,
    "name": "Aroeiras",
    "state_id": 2005,
    "state_code": "PB",
    "country_id": 31,
    "country_code": "BR",
    "latitude": "-7.52057000",
    "longitude": "-35.69927000",
    "native": null,
    "timezone": null,
    "translations": {}
  },
  {
    "id": 10430,
    "name": "Assunção",
    "state_id": 2005,
    "state_code": "PB",
    "country_id": 31,
    "country_code": "BR",
    "latitude": "-7.07371000",
    "longitude": "-36.69894000",
    "native": null,
    "timezone": null,
    "translations": {}
  },
  {
    "id": 10589,
    "name": "Baía da Traição",
    "state_id": 2005,
    "state_code": "PB",
    "country_id": 31,
    "country_code": "BR",
    "latitude": "-6.66287000",
    "longitude": "-34.97272000",
    "native": null,
    "timezone": null,
    "translations": {}
  },
  {
    "id": 10496,
    "name": "Bananeiras",
    "state_id": 2005,
    "state_code": "PB",
    "country_id": 31,
    "country_code": "BR",
    "latitude": "-6.75000000",
    "longitude": "-35.63333000",
    "native": null,
    "timezone": null,
    "translations": {}
  },
  {
    "id": 10505,
    "name": "Baraúna",
    "state_id": 2005,
    "state_code": "PB",
    "country_id": 31,
    "country_code": "BR",
    "latitude": "-6.61853000",
    "longitude": "-36.26964000",
    "native": null,
    "timezone": null,
    "translations": {}
  },
  {
    "id": 10525,
    "name": "Barra de Santa Rosa",
    "state_id": 2005,
    "state_code": "PB",
    "country_id": 31,
    "country_code": "BR",
    "latitude": "-6.79042000",
    "longitude": "-36.00175000",
    "native": null,
    "timezone": null,
    "translations": {}
  },
  {
    "id": 10526,
    "name": "Barra de Santana",
    "state_id": 2005,
    "state_code": "PB",
    "country_id": 31,
    "country_code": "BR",
    "latitude": "-7.59054000",
    "longitude": "-35.98824000",
    "native": null,
    "timezone": null,
    "translations": {}
  },
  {
    "id": 10530,
    "name": "Barra de São Miguel",
    "state_id": 2005,
    "state_code": "PB",
    "country_id": 31,
    "country_code": "BR",
    "latitude": "-7.71640000",
    "longitude": "-36.25481000",
    "native": null,
    "timezone": null,
    "translations": {}
  },
  {
    "id": 10587,
    "name": "Bayeux",
    "state_id": 2005,
    "state_code": "PB",
    "country_id": 31,
    "country_code": "BR",
    "latitude": "-7.12136000",
    "longitude": "-34.91725000",
    "native": null,
    "timezone": null,
    "translations": {}
  },
  {
    "id": 10614,
    "name": "Belém",
    "state_id": 2005,
    "state_code": "PB",
    "country_id": 31,
    "country_code": "BR",
    "latitude": "-6.69167000",
    "longitude": "-35.53333000",
    "native": null,
    "timezone": null,
    "translations": {}
  },
  {
    "id": 10619,
    "name": "Belém do Brejo do Cruz",
    "state_id": 2005,
    "state_code": "PB",
    "country_id": 31,
    "country_code": "BR",
    "latitude": "-6.18861000",
    "longitude": "-37.53583000",
    "native": null,
    "timezone": null,
    "translations": {}
  },
  {
    "id": 10634,
    "name": "Bernardino Batista",
    "state_id": 2005,
    "state_code": "PB",
    "country_id": 31,
    "country_code": "BR",
    "latitude": "-6.47656000",
    "longitude": "-38.56998000",
    "native": null,
    "timezone": null,
    "translations": {}
  },
  {
    "id": 10664,
    "name": "Boa Ventura",
    "state_id": 2005,
    "state_code": "PB",
    "country_id": 31,
    "country_code": "BR",
    "latitude": "-7.45676000",
    "longitude": "-38.17678000",
    "native": null,
    "timezone": null,
    "translations": {}
  },
  {
    "id": 10667,
    "name": "Boa Vista",
    "state_id": 2005,
    "state_code": "PB",
    "country_id": 31,
    "country_code": "BR",
    "latitude": "-7.26995000",
    "longitude": "-36.15741000",
    "native": null,
    "timezone": null,
    "translations": {}
  },
  {
    "id": 10700,
    "name": "Bom Jesus",
    "state_id": 2005,
    "state_code": "PB",
    "country_id": 31,
    "country_code": "BR",
    "latitude": "-6.81845000",
    "longitude": "-38.62549000",
    "native": null,
    "timezone": null,
    "translations": {}
  },
  {
    "id": 10725,
    "name": "Bom Sucesso",
    "state_id": 2005,
    "state_code": "PB",
    "country_id": 31,
    "country_code": "BR",
    "latitude": "-6.47349000",
    "longitude": "-37.95770000",
    "native": null,
    "timezone": null,
    "translations": {}
  },
  {
    "id": 10741,
    "name": "Bonito de Santa Fé",
    "state_id": 2005,
    "state_code": "PB",
    "country_id": 31,
    "country_code": "BR",
    "latitude": "-7.28940000",
    "longitude": "-38.47977000",
    "native": null,
    "timezone": null,
    "translations": {}
  },
  {
    "id": 10743,
    "name": "Boqueirão",
    "state_id": 2005,
    "state_code": "PB",
    "country_id": 31,
    "country_code": "BR",
    "latitude": "-7.48237000",
    "longitude": "-36.13422000",
    "native": null,
    "timezone": null,
    "translations": {}
  },
  {
    "id": 10751,
    "name": "Borborema",
    "state_id": 2005,
    "state_code": "PB",
    "country_id": 31,
    "country_code": "BR",
    "latitude": "-6.79913000",
    "longitude": "-35.62094000",
    "native": null,
    "timezone": null,
    "translations": {}
  },
  {
    "id": 10795,
    "name": "Brejo do Cruz",
    "state_id": 2005,
    "state_code": "PB",
    "country_id": 31,
    "country_code": "BR",
    "latitude": "-6.32578000",
    "longitude": "-37.49716000",
    "native": null,
    "timezone": null,
    "translations": {}
  },
  {
    "id": 10797,
    "name": "Brejo dos Santos",
    "state_id": 2005,
    "state_code": "PB",
    "country_id": 31,
    "country_code": "BR",
    "latitude": "-6.39546000",
    "longitude": "-37.86070000",
    "native": null,
    "timezone": null,
    "translations": {}
  },
  {
    "id": 10842,
    "name": "Caaporã",
    "state_id": 2005,
    "state_code": "PB",
    "country_id": 31,
    "country_code": "BR",
    "latitude": "-7.51556000",
    "longitude": "-34.90833000",
    "native": null,
    "timezone": null,
    "translations": {}
  },
  {
    "id": 10845,
    "name": "Cabaceiras",
    "state_id": 2005,
    "state_code": "PB",
    "country_id": 31,
    "country_code": "BR",
    "latitude": "-7.50856000",
    "longitude": "-36.33351000",
    "native": null,
    "timezone": null,
    "translations": {}
  },
  {
    "id": 10850,
    "name": "Cabedelo",
    "state_id": 2005,
    "state_code": "PB",
    "country_id": 31,
    "country_code": "BR",
    "latitude": "-6.98111000",
    "longitude": "-34.83389000",
    "native": null,
    "timezone": null,
    "translations": {}
  },
  {
    "id": 10874,
    "name": "Cachoeira dos Índios",
    "state_id": 2005,
    "state_code": "PB",
    "country_id": 31,
    "country_code": "BR",
    "latitude": "-6.94486000",
    "longitude": "-38.69902000",
    "native": null,
    "timezone": null,
    "translations": {}
  },
  {
    "id": 10880,
    "name": "Cacimba de Areia",
    "state_id": 2005,
    "state_code": "PB",
    "country_id": 31,
    "country_code": "BR",
    "latitude": "-7.13451000",
    "longitude": "-37.15370000",
    "native": null,
    "timezone": null,
    "translations": {}
  },
  {
    "id": 10881,
    "name": "Cacimba de Dentro",
    "state_id": 2005,
    "state_code": "PB",
    "country_id": 31,
    "country_code": "BR",
    "latitude": "-6.64167000",
    "longitude": "-35.79000000",
    "native": null,
    "timezone": null,
    "translations": {}
  },
  {
    "id": 10882,
    "name": "Cacimbas",
    "state_id": 2005,
    "state_code": "PB",
    "country_id": 31,
    "country_code": "BR",
    "latitude": "-7.23180000",
    "longitude": "-37.09984000",
    "native": null,
    "timezone": null,
    "translations": {}
  },
  {
    "id": 10907,
    "name": "Caiçara",
    "state_id": 2005,
    "state_code": "PB",
    "country_id": 31,
    "country_code": "BR",
    "latitude": "-6.59631000",
    "longitude": "-35.39497000",
    "native": null,
    "timezone": null,
    "translations": {}
  },
  {
    "id": 10915,
    "name": "Cajazeiras",
    "state_id": 2005,
    "state_code": "PB",
    "country_id": 31,
    "country_code": "BR",
    "latitude": "-6.89028000",
    "longitude": "-38.55528000",
    "native": null,
    "timezone": null,
    "translations": {}
  },
  {
    "id": 10917,
    "name": "Cajazeirinhas",
    "state_id": 2005,
    "state_code": "PB",
    "country_id": 31,
    "country_code": "BR",
    "latitude": "-6.94633000",
    "longitude": "-37.81454000",
    "native": null,
    "timezone": null,
    "translations": {}
  },
  {
    "id": 10924,
    "name": "Caldas Brandão",
    "state_id": 2005,
    "state_code": "PB",
    "country_id": 31,
    "country_code": "BR",
    "latitude": "-7.15105000",
    "longitude": "-35.34870000",
    "native": null,
    "timezone": null,
    "translations": {}
  },
  {
    "id": 10936,
    "name": "Camalaú",
    "state_id": 2005,
    "state_code": "PB",
    "country_id": 31,
    "country_code": "BR",
    "latitude": "-7.92695000",
    "longitude": "-36.74211000",
    "native": null,
    "timezone": null,
    "translations": {}
  },
  {
    "id": 10962,
    "name": "Campina Grande",
    "state_id": 2005,
    "state_code": "PB",
    "country_id": 31,
    "country_code": "BR",
    "latitude": "-7.23056000",
    "longitude": "-35.88111000",
    "native": null,
    "timezone": null,
    "translations": {}
  },
  {
    "id": 11073,
    "name": "Capim",
    "state_id": 2005,
    "state_code": "PB",
    "country_id": 31,
    "country_code": "BR",
    "latitude": "-6.89150000",
    "longitude": "-35.18300000",
    "native": null,
    "timezone": null,
    "translations": {}
  },
  {
    "id": 11118,
    "name": "Caraúbas",
    "state_id": 2005,
    "state_code": "PB",
    "country_id": 31,
    "country_code": "BR",
    "latitude": "-7.79092000",
    "longitude": "-36.50278000",
    "native": null,
    "timezone": null,
    "translations": {}
  },
  {
    "id": 11164,
    "name": "Carrapateira",
    "state_id": 2005,
    "state_code": "PB",
    "country_id": 31,
    "country_code": "BR",
    "latitude": "-7.02919000",
    "longitude": "-38.32951000",
    "native": null,
    "timezone": null,
    "translations": {}
  },
  {
    "id": 11182,
    "name": "Casserengue",
    "state_id": 2005,
    "state_code": "PB",
    "country_id": 31,
    "country_code": "BR",
    "latitude": "-6.78130000",
    "longitude": "-35.81676000",
    "native": null,
    "timezone": null,
    "translations": {}
  },
  {
    "id": 11203,
    "name": "Catingueira",
    "state_id": 2005,
    "state_code": "PB",
    "country_id": 31,
    "country_code": "BR",
    "latitude": "-7.13699000",
    "longitude": "-37.59654000",
    "native": null,
    "timezone": null,
    "translations": {}
  },
  {
    "id": 11205,
    "name": "Catolé do Rocha",
    "state_id": 2005,
    "state_code": "PB",
    "country_id": 31,
    "country_code": "BR",
    "latitude": "-6.34389000",
    "longitude": "-37.74667000",
    "native": null,
    "timezone": null,
    "translations": {}
  },
  {
    "id": 11211,
    "name": "Caturité",
    "state_id": 2005,
    "state_code": "PB",
    "country_id": 31,
    "country_code": "BR",
    "latitude": "-7.41991000",
    "longitude": "-36.04194000",
    "native": null,
    "timezone": null,
    "translations": {}
  },
  {
    "id": 11344,
    "name": "Conceição",
    "state_id": 2005,
    "state_code": "PB",
    "country_id": 31,
    "country_code": "BR",
    "latitude": "-7.49917000",
    "longitude": "-38.51375000",
    "native": null,
    "timezone": null,
    "translations": {}
  },
  {
    "id": 11370,
    "name": "Condado",
    "state_id": 2005,
    "state_code": "PB",
    "country_id": 31,
    "country_code": "BR",
    "latitude": "-6.85244000",
    "longitude": "-37.61864000",
    "native": null,
    "timezone": null,
    "translations": {}
  },
  {
    "id": 11371,
    "name": "Conde",
    "state_id": 2005,
    "state_code": "PB",
    "country_id": 31,
    "country_code": "BR",
    "latitude": "-7.25972000",
    "longitude": "-34.90750000",
    "native": null,
    "timezone": null,
    "translations": {}
  },
  {
    "id": 11377,
    "name": "Congo",
    "state_id": 2005,
    "state_code": "PB",
    "country_id": 31,
    "country_code": "BR",
    "latitude": "-7.79578000",
    "longitude": "-36.63487000",
    "native": null,
    "timezone": null,
    "translations": {}
  },
  {
    "id": 11406,
    "name": "Coremas",
    "state_id": 2005,
    "state_code": "PB",
    "country_id": 31,
    "country_code": "BR",
    "latitude": "-7.01444000",
    "longitude": "-37.94583000",
    "native": null,
    "timezone": null,
    "translations": {}
  },
  {
    "id": 11459,
    "name": "Coxixola",
    "state_id": 2005,
    "state_code": "PB",
    "country_id": 31,
    "country_code": "BR",
    "latitude": "-7.66749000",
    "longitude": "-36.61824000",
    "native": null,
    "timezone": null,
    "translations": {}
  },
  {
    "id": 11492,
    "name": "Cruz do Espírito Santo",
    "state_id": 2005,
    "state_code": "PB",
    "country_id": 31,
    "country_code": "BR",
    "latitude": "-7.14000000",
    "longitude": "-35.08639000",
    "native": null,
    "timezone": null,
    "translations": {}
  },
  {
    "id": 11505,
    "name": "Cubati",
    "state_id": 2005,
    "state_code": "PB",
    "country_id": 31,
    "country_code": "BR",
    "latitude": "-6.86116000",
    "longitude": "-36.33415000",
    "native": null,
    "timezone": null,
    "translations": {}
  },
  {
    "id": 11509,
    "name": "Cuité",
    "state_id": 2005,
    "state_code": "PB",
    "country_id": 31,
    "country_code": "BR",
    "latitude": "-6.48361000",
    "longitude": "-36.15361000",
    "native": null,
    "timezone": null,
    "translations": {}
  },
  {
    "id": 11510,
    "name": "Cuité de Mamanguape",
    "state_id": 2005,
    "state_code": "PB",
    "country_id": 31,
    "country_code": "BR",
    "latitude": "-6.89788000",
    "longitude": "-35.26042000",
    "native": null,
    "timezone": null,
    "translations": {}
  },
  {
    "id": 11508,
    "name": "Cuitegi",
    "state_id": 2005,
    "state_code": "PB",
    "country_id": 31,
    "country_code": "BR",
    "latitude": "-6.90639000",
    "longitude": "-35.53423000",
    "native": null,
    "timezone": null,
    "translations": {}
  },
  {
    "id": 11531,
    "name": "Curral de Cima",
    "state_id": 2005,
    "state_code": "PB",
    "country_id": 31,
    "country_code": "BR",
    "latitude": "-6.72359000",
    "longitude": "-35.28596000",
    "native": null,
    "timezone": null,
    "translations": {}
  },
  {
    "id": 11530,
    "name": "Curral Velho",
    "state_id": 2005,
    "state_code": "PB",
    "country_id": 31,
    "country_code": "BR",
    "latitude": "-7.55796000",
    "longitude": "-38.19847000",
    "native": null,
    "timezone": null,
    "translations": {}
  },
  {
    "id": 11560,
    "name": "Damião",
    "state_id": 2005,
    "state_code": "PB",
    "country_id": 31,
    "country_code": "BR",
    "latitude": "-6.67843000",
    "longitude": "-35.92205000",
    "native": null,
    "timezone": null,
    "translations": {}
  },
  {
    "id": 11579,
    "name": "Desterro",
    "state_id": 2005,
    "state_code": "PB",
    "country_id": 31,
    "country_code": "BR",
    "latitude": "-7.29056000",
    "longitude": "-37.09389000",
    "native": null,
    "timezone": null,
    "translations": {}
  },
  {
    "id": 11584,
    "name": "Diamante",
    "state_id": 2005,
    "state_code": "PB",
    "country_id": 31,
    "country_code": "BR",
    "latitude": "-7.41004000",
    "longitude": "-38.30873000",
    "native": null,
    "timezone": null,
    "translations": {}
  },
  {
    "id": 11642,
    "name": "Dona Inês",
    "state_id": 2005,
    "state_code": "PB",
    "country_id": 31,
    "country_code": "BR",
    "latitude": "-6.61354000",
    "longitude": "-35.62654000",
    "native": null,
    "timezone": null,
    "translations": {}
  },
  {
    "id": 11665,
    "name": "Duas Estradas",
    "state_id": 2005,
    "state_code": "PB",
    "country_id": 31,
    "country_code": "BR",
    "latitude": "-6.71946000",
    "longitude": "-35.39737000",
    "native": null,
    "timezone": null,
    "translations": {}
  },
  {
    "id": 11687,
    "name": "Emas",
    "state_id": 2005,
    "state_code": "PB",
    "country_id": 31,
    "country_code": "BR",
    "latitude": "-7.12680000",
    "longitude": "-37.73881000",
    "native": null,
    "timezone": null,
    "translations": {}
  },
  {
    "id": 11731,
    "name": "Esperança",
    "state_id": 2005,
    "state_code": "PB",
    "country_id": 31,
    "country_code": "BR",
    "latitude": "-6.99864000",
    "longitude": "-35.90777000",
    "native": null,
    "timezone": null,
    "translations": {}
  },
  {
    "id": 11770,
    "name": "Fagundes",
    "state_id": 2005,
    "state_code": "PB",
    "country_id": 31,
    "country_code": "BR",
    "latitude": "-7.35500000",
    "longitude": "-35.77500000",
    "native": null,
    "timezone": null,
    "translations": {}
  },
  {
    "id": 11894,
    "name": "Frei Martinho",
    "state_id": 2005,
    "state_code": "PB",
    "country_id": 31,
    "country_code": "BR",
    "latitude": "-6.44605000",
    "longitude": "-36.48061000",
    "native": null,
    "timezone": null,
    "translations": {}
  },
  {
    "id": 11911,
    "name": "Gado Bravo",
    "state_id": 2005,
    "state_code": "PB",
    "country_id": 31,
    "country_code": "BR",
    "latitude": "-7.59984000",
    "longitude": "-35.81967000",
    "native": null,
    "timezone": null,
    "translations": {}
  },
  {
    "id": 12034,
    "name": "Guarabira",
    "state_id": 2005,
    "state_code": "PB",
    "country_id": 31,
    "country_code": "BR",
    "latitude": "-6.85472000",
    "longitude": "-35.49000000",
    "native": null,
    "timezone": null,
    "translations": {}
  },
  {
    "id": 12086,
    "name": "Gurinhém",
    "state_id": 2005,
    "state_code": "PB",
    "country_id": 31,
    "country_code": "BR",
    "latitude": "-7.12389000",
    "longitude": "-35.42444000",
    "native": null,
    "timezone": null,
    "translations": {}
  },
  {
    "id": 12087,
    "name": "Gurjão",
    "state_id": 2005,
    "state_code": "PB",
    "country_id": 31,
    "country_code": "BR",
    "latitude": "-7.26100000",
    "longitude": "-36.50008000",
    "native": null,
    "timezone": null,
    "translations": {}
  },
  {
    "id": 12130,
    "name": "Ibiara",
    "state_id": 2005,
    "state_code": "PB",
    "country_id": 31,
    "country_code": "BR",
    "latitude": "-7.48251000",
    "longitude": "-38.38051000",
    "native": null,
    "timezone": null,
    "translations": {}
  },
  {
    "id": 12179,
    "name": "Igaracy",
    "state_id": 2005,
    "state_code": "PB",
    "country_id": 31,
    "country_code": "BR",
    "latitude": "-7.13856000",
    "longitude": "-38.13526000",
    "native": null,
    "timezone": null,
    "translations": {}
  },
  {
    "id": 12217,
    "name": "Imaculada",
    "state_id": 2005,
    "state_code": "PB",
    "country_id": 31,
    "country_code": "BR",
    "latitude": "-7.38972000",
    "longitude": "-37.50917000",
    "native": null,
    "timezone": null,
    "translations": {}
  },
  {
    "id": 12245,
    "name": "Ingá",
    "state_id": 2005,
    "state_code": "PB",
    "country_id": 31,
    "country_code": "BR",
    "latitude": "-7.25441000",
    "longitude": "-35.62897000",
    "native": null,
    "timezone": null,
    "translations": {}
  },
  {
    "id": 12325,
    "name": "Itabaiana",
    "state_id": 2005,
    "state_code": "PB",
    "country_id": 31,
    "country_code": "BR",
    "latitude": "-7.32861000",
    "longitude": "-35.33250000",
    "native": null,
    "timezone": null,
    "translations": {}
  },
  {
    "id": 12430,
    "name": "Itaporanga",
    "state_id": 2005,
    "state_code": "PB",
    "country_id": 31,
    "country_code": "BR",
    "latitude": "-7.30035000",
    "longitude": "-38.25159000",
    "native": null,
    "timezone": null,
    "translations": {}
  },
  {
    "id": 12432,
    "name": "Itapororoca",
    "state_id": 2005,
    "state_code": "PB",
    "country_id": 31,
    "country_code": "BR",
    "latitude": "-6.81152000",
    "longitude": "-35.24478000",
    "native": null,
    "timezone": null,
    "translations": {}
  },
  {
    "id": 12461,
    "name": "Itatuba",
    "state_id": 2005,
    "state_code": "PB",
    "country_id": 31,
    "country_code": "BR",
    "latitude": "-7.37500000",
    "longitude": "-35.62833000",
    "native": null,
    "timezone": null,
    "translations": {}
  },
  {
    "id": 12518,
    "name": "Jacaraú",
    "state_id": 2005,
    "state_code": "PB",
    "country_id": 31,
    "country_code": "BR",
    "latitude": "-6.61222000",
    "longitude": "-35.29278000",
    "native": null,
    "timezone": null,
    "translations": {}
  },
  {
    "id": 12621,
    "name": "Jericó",
    "state_id": 2005,
    "state_code": "PB",
    "country_id": 31,
    "country_code": "BR",
    "latitude": "-6.50746000",
    "longitude": "-37.80665000",
    "native": null,
    "timezone": null,
    "translations": {}
  },
  {
    "id": 12665,
    "name": "João Pessoa",
    "state_id": 2005,
    "state_code": "PB",
    "country_id": 31,
    "country_code": "BR",
    "latitude": "-7.11500000",
    "longitude": "-34.86306000",
    "native": null,
    "timezone": null,
    "translations": {}
  },
  {
    "id": 12643,
    "name": "Joca Claudino",
    "state_id": 2005,
    "state_code": "PB",
    "country_id": 31,
    "country_code": "BR",
    "latitude": "-6.48432000",
    "longitude": "-38.46407000",
    "native": null,
    "timezone": null,
    "translations": {}
  },
  {
    "id": 12669,
    "name": "Juarez Távora",
    "state_id": 2005,
    "state_code": "PB",
    "country_id": 31,
    "country_code": "BR",
    "latitude": "-7.15975000",
    "longitude": "-35.57160000",
    "native": null,
    "timezone": null,
    "translations": {}
  },
  {
    "id": 12672,
    "name": "Juazeirinho",
    "state_id": 2005,
    "state_code": "PB",
    "country_id": 31,
    "country_code": "BR",
    "latitude": "-6.99463000",
    "longitude": "-36.60213000",
    "native": null,
    "timezone": null,
    "translations": {}
  },
  {
    "id": 12683,
    "name": "Junco do Seridó",
    "state_id": 2005,
    "state_code": "PB",
    "country_id": 31,
    "country_code": "BR",
    "latitude": "-6.97843000",
    "longitude": "-36.72769000",
    "native": null,
    "timezone": null,
    "translations": {}
  },
  {
    "id": 12698,
    "name": "Juripiranga",
    "state_id": 2005,
    "state_code": "PB",
    "country_id": 31,
    "country_code": "BR",
    "latitude": "-7.35000000",
    "longitude": "-35.22087000",
    "native": null,
    "timezone": null,
    "translations": {}
  },
  {
    "id": 12699,
    "name": "Juru",
    "state_id": 2005,
    "state_code": "PB",
    "country_id": 31,
    "country_code": "BR",
    "latitude": "-7.49131000",
    "longitude": "-37.78854000",
    "native": null,
    "timezone": null,
    "translations": {}
  },
  {
    "id": 12733,
    "name": "Lagoa",
    "state_id": 2005,
    "state_code": "PB",
    "country_id": 31,
    "country_code": "BR",
    "latitude": "-6.59521000",
    "longitude": "-37.84991000",
    "native": null,
    "timezone": null,
    "translations": {}
  },
  {
    "id": 12752,
    "name": "Lagoa de Dentro",
    "state_id": 2005,
    "state_code": "PB",
    "country_id": 31,
    "country_code": "BR",
    "latitude": "-6.68308000",
    "longitude": "-35.35907000",
    "native": null,
    "timezone": null,
    "translations": {}
  },
  {
    "id": 12746,
    "name": "Lagoa Seca",
    "state_id": 2005,
    "state_code": "PB",
    "country_id": 31,
    "country_code": "BR",
    "latitude": "-7.17083000",
    "longitude": "-35.85361000",
    "native": null,
    "timezone": null,
    "translations": {}
  },
  {
    "id": 12802,
    "name": "Lastro",
    "state_id": 2005,
    "state_code": "PB",
    "country_id": 31,
    "country_code": "BR",
    "latitude": "-6.53740000",
    "longitude": "-38.18946000",
    "native": null,
    "timezone": null,
    "translations": {}
  },
  {
    "id": 12842,
    "name": "Livramento",
    "state_id": 2005,
    "state_code": "PB",
    "country_id": 31,
    "country_code": "BR",
    "latitude": "-7.34008000",
    "longitude": "-36.93209000",
    "native": null,
    "timezone": null,
    "translations": {}
  },
  {
    "id": 12848,
    "name": "Logradouro",
    "state_id": 2005,
    "state_code": "PB",
    "country_id": 31,
    "country_code": "BR",
    "latitude": "-6.55268000",
    "longitude": "-35.42864000",
    "native": null,
    "timezone": null,
    "translations": {}
  },
  {
    "id": 12858,
    "name": "Lucena",
    "state_id": 2005,
    "state_code": "PB",
    "country_id": 31,
    "country_code": "BR",
    "latitude": "-6.92461000",
    "longitude": "-34.90267000",
    "native": null,
    "timezone": null,
    "translations": {}
  },
  {
    "id": 13292,
    "name": "Mãe d'Água",
    "state_id": 2005,
    "state_code": "PB",
    "country_id": 31,
    "country_code": "BR",
    "latitude": "-7.21990000",
    "longitude": "-37.45284000",
    "native": null,
    "timezone": null,
    "translations": {}
  },
  {
    "id": 12930,
    "name": "Malta",
    "state_id": 2005,
    "state_code": "PB",
    "country_id": 31,
    "country_code": "BR",
    "latitude": "-6.90400000",
    "longitude": "-37.51251000",
    "native": null,
    "timezone": null,
    "translations": {}
  },
  {
    "id": 12931,
    "name": "Mamanguape",
    "state_id": 2005,
    "state_code": "PB",
    "country_id": 31,
    "country_code": "BR",
    "latitude": "-6.83861000",
    "longitude": "-35.12611000",
    "native": null,
    "timezone": null,
    "translations": {}
  },
  {
    "id": 12940,
    "name": "Manaíra",
    "state_id": 2005,
    "state_code": "PB",
    "country_id": 31,
    "country_code": "BR",
    "latitude": "-7.70611000",
    "longitude": "-38.15444000",
    "native": null,
    "timezone": null,
    "translations": {}
  },
  {
    "id": 12990,
    "name": "Marcação",
    "state_id": 2005,
    "state_code": "PB",
    "country_id": 31,
    "country_code": "BR",
    "latitude": "-6.74717000",
    "longitude": "-34.99103000",
    "native": null,
    "timezone": null,
    "translations": {}
  },
  {
    "id": 13003,
    "name": "Mari",
    "state_id": 2005,
    "state_code": "PB",
    "country_id": 31,
    "country_code": "BR",
    "latitude": "-7.07138000",
    "longitude": "-35.30258000",
    "native": null,
    "timezone": null,
    "translations": {}
  },
  {
    "id": 13023,
    "name": "Marizópolis",
    "state_id": 2005,
    "state_code": "PB",
    "country_id": 31,
    "country_code": "BR",
    "latitude": "-6.82133000",
    "longitude": "-38.33496000",
    "native": null,
    "timezone": null,
    "translations": {}
  },
  {
    "id": 13043,
    "name": "Massaranduba",
    "state_id": 2005,
    "state_code": "PB",
    "country_id": 31,
    "country_code": "BR",
    "latitude": "-7.20476000",
    "longitude": "-35.78379000",
    "native": null,
    "timezone": null,
    "translations": {}
  },
  {
    "id": 13050,
    "name": "Mataraca",
    "state_id": 2005,
    "state_code": "PB",
    "country_id": 31,
    "country_code": "BR",
    "latitude": "-6.55476000",
    "longitude": "-35.03690000",
    "native": null,
    "timezone": null,
    "translations": {}
  },
  {
    "id": 13061,
    "name": "Matinhas",
    "state_id": 2005,
    "state_code": "PB",
    "country_id": 31,
    "country_code": "BR",
    "latitude": "-7.12428000",
    "longitude": "-35.76070000",
    "native": null,
    "timezone": null,
    "translations": {}
  },
  {
    "id": 13065,
    "name": "Mato Grosso",
    "state_id": 2005,
    "state_code": "PB",
    "country_id": 31,
    "country_code": "BR",
    "latitude": "-6.54728000",
    "longitude": "-37.75067000",
    "native": null,
    "timezone": null,
    "translations": {}
  },
  {
    "id": 13075,
    "name": "Maturéia",
    "state_id": 2005,
    "state_code": "PB",
    "country_id": 31,
    "country_code": "BR",
    "latitude": "-7.27175000",
    "longitude": "-37.33940000",
    "native": null,
    "timezone": null,
    "translations": {}
  },
  {
    "id": 13164,
    "name": "Mogeiro",
    "state_id": 2005,
    "state_code": "PB",
    "country_id": 31,
    "country_code": "BR",
    "latitude": "-7.29944000",
    "longitude": "-35.47944000",
    "native": null,
    "timezone": null,
    "translations": {}
  },
  {
    "id": 13181,
    "name": "Montadas",
    "state_id": 2005,
    "state_code": "PB",
    "country_id": 31,
    "country_code": "BR",
    "latitude": "-7.08947000",
    "longitude": "-35.90300000",
    "native": null,
    "timezone": null,
    "translations": {}
  },
  {
    "id": 13205,
    "name": "Monte Horebe",
    "state_id": 2005,
    "state_code": "PB",
    "country_id": 31,
    "country_code": "BR",
    "latitude": "-7.20792000",
    "longitude": "-38.52503000",
    "native": null,
    "timezone": null,
    "translations": {}
  },
  {
    "id": 13215,
    "name": "Monteiro",
    "state_id": 2005,
    "state_code": "PB",
    "country_id": 31,
    "country_code": "BR",
    "latitude": "-7.91637000",
    "longitude": "-37.17496000",
    "native": null,
    "timezone": null,
    "translations": {}
  },
  {
    "id": 13266,
    "name": "Mulungu",
    "state_id": 2005,
    "state_code": "PB",
    "country_id": 31,
    "country_code": "BR",
    "latitude": "-7.02444000",
    "longitude": "-35.46194000",
    "native": null,
    "timezone": null,
    "translations": {}
  },
  {
    "id": 13304,
    "name": "Natuba",
    "state_id": 2005,
    "state_code": "PB",
    "country_id": 31,
    "country_code": "BR",
    "latitude": "-7.64139000",
    "longitude": "-35.55000000",
    "native": null,
    "timezone": null,
    "translations": {}
  },
  {
    "id": 13309,
    "name": "Nazarezinho",
    "state_id": 2005,
    "state_code": "PB",
    "country_id": 31,
    "country_code": "BR",
    "latitude": "-6.91991000",
    "longitude": "-38.32592000",
    "native": null,
    "timezone": null,
    "translations": {}
  },
  {
    "id": 13379,
    "name": "Nova Floresta",
    "state_id": 2005,
    "state_code": "PB",
    "country_id": 31,
    "country_code": "BR",
    "latitude": "-6.48792000",
    "longitude": "-36.20101000",
    "native": null,
    "timezone": null,
    "translations": {}
  },
  {
    "id": 13410,
    "name": "Nova Olinda",
    "state_id": 2005,
    "state_code": "PB",
    "country_id": 31,
    "country_code": "BR",
    "latitude": "-7.45231000",
    "longitude": "-38.01122000",
    "native": null,
    "timezone": null,
    "translations": {}
  },
  {
    "id": 13417,
    "name": "Nova Palmeira",
    "state_id": 2005,
    "state_code": "PB",
    "country_id": 31,
    "country_code": "BR",
    "latitude": "-6.67346000",
    "longitude": "-36.44186000",
    "native": null,
    "timezone": null,
    "translations": {}
  },
  {
    "id": 13494,
    "name": "Olho d'Água",
    "state_id": 2005,
    "state_code": "PB",
    "country_id": 31,
    "country_code": "BR",
    "latitude": "-7.26106000",
    "longitude": "-37.73242000",
    "native": null,
    "timezone": null,
    "translations": {}
  },
  {
    "id": 13505,
    "name": "Olivedos",
    "state_id": 2005,
    "state_code": "PB",
    "country_id": 31,
    "country_code": "BR",
    "latitude": "-6.99403000",
    "longitude": "-36.23822000",
    "native": null,
    "timezone": null,
    "translations": {}
  },
  {
    "id": 13544,
    "name": "Ouro Velho",
    "state_id": 2005,
    "state_code": "PB",
    "country_id": 31,
    "country_code": "BR",
    "latitude": "-7.60554000",
    "longitude": "-37.13565000",
    "native": null,
    "timezone": null,
    "translations": {}
  },
  {
    "id": 13652,
    "name": "Parari",
    "state_id": 2005,
    "state_code": "PB",
    "country_id": 31,
    "country_code": "BR",
    "latitude": "-7.31136000",
    "longitude": "-36.67699000",
    "native": null,
    "timezone": null,
    "translations": {}
  },
  {
    "id": 13692,
    "name": "Passagem",
    "state_id": 2005,
    "state_code": "PB",
    "country_id": 31,
    "country_code": "BR",
    "latitude": "-7.11889000",
    "longitude": "-37.03671000",
    "native": null,
    "timezone": null,
    "translations": {}
  },
  {
    "id": 13706,
    "name": "Patos",
    "state_id": 2005,
    "state_code": "PB",
    "country_id": 31,
    "country_code": "BR",
    "latitude": "-7.02444000",
    "longitude": "-37.28000000",
    "native": null,
    "timezone": null,
    "translations": {}
  },
  {
    "id": 13726,
    "name": "Paulista",
    "state_id": 2005,
    "state_code": "PB",
    "country_id": 31,
    "country_code": "BR",
    "latitude": "-6.59504000",
    "longitude": "-37.60966000",
    "native": null,
    "timezone": null,
    "translations": {}
  },
  {
    "id": 13750,
    "name": "Pedra Branca",
    "state_id": 2005,
    "state_code": "PB",
    "country_id": 31,
    "country_code": "BR",
    "latitude": "-7.46068000",
    "longitude": "-38.07996000",
    "native": null,
    "timezone": null,
    "translations": {}
  },
  {
    "id": 13754,
    "name": "Pedra Lavrada",
    "state_id": 2005,
    "state_code": "PB",
    "country_id": 31,
    "country_code": "BR",
    "latitude": "-6.78024000",
    "longitude": "-36.44200000",
    "native": null,
    "timezone": null,
    "translations": {}
  },
  {
    "id": 13764,
    "name": "Pedras de Fogo",
    "state_id": 2005,
    "state_code": "PB",
    "country_id": 31,
    "country_code": "BR",
    "latitude": "-7.40194000",
    "longitude": "-35.11639000",
    "native": null,
    "timezone": null,
    "translations": {}
  },
  {
    "id": 13781,
    "name": "Pedro Régis",
    "state_id": 2005,
    "state_code": "PB",
    "country_id": 31,
    "country_code": "BR",
    "latitude": "-6.67047000",
    "longitude": "-35.31031000",
    "native": null,
    "timezone": null,
    "translations": {}
  },
  {
    "id": 13824,
    "name": "Piancó",
    "state_id": 2005,
    "state_code": "PB",
    "country_id": 31,
    "country_code": "BR",
    "latitude": "-7.19806000",
    "longitude": "-37.92917000",
    "native": null,
    "timezone": null,
    "translations": {}
  },
  {
    "id": 13830,
    "name": "Picuí",
    "state_id": 2005,
    "state_code": "PB",
    "country_id": 31,
    "country_code": "BR",
    "latitude": "-6.51056000",
    "longitude": "-36.34694000",
    "native": null,
    "timezone": null,
    "translations": {}
  },
  {
    "id": 13836,
    "name": "Pilar",
    "state_id": 2005,
    "state_code": "PB",
    "country_id": 31,
    "country_code": "BR",
    "latitude": "-7.25739000",
    "longitude": "-35.26971000",
    "native": null,
    "timezone": null,
    "translations": {}
  },
  {
    "id": 13841,
    "name": "Pilões",
    "state_id": 2005,
    "state_code": "PB",
    "country_id": 31,
    "country_code": "BR",
    "latitude": "-6.89446000",
    "longitude": "-35.59432000",
    "native": null,
    "timezone": null,
    "translations": {}
  },
  {
    "id": 13843,
    "name": "Pilõezinhos",
    "state_id": 2005,
    "state_code": "PB",
    "country_id": 31,
    "country_code": "BR",
    "latitude": "-6.85269000",
    "longitude": "-35.54455000",
    "native": null,
    "timezone": null,
    "translations": {}
  },
  {
    "id": 13920,
    "name": "Pirpirituba",
    "state_id": 2005,
    "state_code": "PB",
    "country_id": 31,
    "country_code": "BR",
    "latitude": "-6.78000000",
    "longitude": "-35.49861000",
    "native": null,
    "timezone": null,
    "translations": {}
  },
  {
    "id": 13925,
    "name": "Pitimbu",
    "state_id": 2005,
    "state_code": "PB",
    "country_id": 31,
    "country_code": "BR",
    "latitude": "-7.41381000",
    "longitude": "-34.83686000",
    "native": null,
    "timezone": null,
    "translations": {}
  },
  {
    "id": 13946,
    "name": "Pocinhos",
    "state_id": 2005,
    "state_code": "PB",
    "country_id": 31,
    "country_code": "BR",
    "latitude": "-7.07667000",
    "longitude": "-36.06111000",
    "native": null,
    "timezone": null,
    "translations": {}
  },
  {
    "id": 14046,
    "name": "Poço Dantas",
    "state_id": 2005,
    "state_code": "PB",
    "country_id": 31,
    "country_code": "BR",
    "latitude": "-6.38792000",
    "longitude": "-38.53359000",
    "native": null,
    "timezone": null,
    "translations": {}
  },
  {
    "id": 14052,
    "name": "Poço de José de Moura",
    "state_id": 2005,
    "state_code": "PB",
    "country_id": 31,
    "country_code": "BR",
    "latitude": "-6.59957000",
    "longitude": "-38.50574000",
    "native": null,
    "timezone": null,
    "translations": {}
  },
  {
    "id": 13951,
    "name": "Pombal",
    "state_id": 2005,
    "state_code": "PB",
    "country_id": 31,
    "country_code": "BR",
    "latitude": "-6.77028000",
    "longitude": "-37.80167000",
    "native": null,
    "timezone": null,
    "translations": {}
  },
  {
    "id": 14068,
    "name": "Prata",
    "state_id": 2005,
    "state_code": "PB",
    "country_id": 31,
    "country_code": "BR",
    "latitude": "-7.71250000",
    "longitude": "-37.09411000",
    "native": null,
    "timezone": null,
    "translations": {}
  },
  {
    "id": 14107,
    "name": "Princesa Isabel",
    "state_id": 2005,
    "state_code": "PB",
    "country_id": 31,
    "country_code": "BR",
    "latitude": "-7.73667000",
    "longitude": "-37.99333000",
    "native": null,
    "timezone": null,
    "translations": {}
  },
  {
    "id": 14118,
    "name": "Puxinanã",
    "state_id": 2005,
    "state_code": "PB",
    "country_id": 31,
    "country_code": "BR",
    "latitude": "-7.16111000",
    "longitude": "-35.96056000",
    "native": null,
    "timezone": null,
    "translations": {}
  },
  {
    "id": 14140,
    "name": "Queimadas",
    "state_id": 2005,
    "state_code": "PB",
    "country_id": 31,
    "country_code": "BR",
    "latitude": "-7.42696000",
    "longitude": "-35.89774000",
    "native": null,
    "timezone": null,
    "translations": {}
  },
  {
    "id": 14158,
    "name": "Quixaba",
    "state_id": 2005,
    "state_code": "PB",
    "country_id": 31,
    "country_code": "BR",
    "latitude": "-7.05081000",
    "longitude": "-37.11783000",
    "native": null,
    "timezone": null,
    "translations": {}
  },
  {
    "id": 14194,
    "name": "Remígio",
    "state_id": 2005,
    "state_code": "PB",
    "country_id": 31,
    "country_code": "BR",
    "latitude": "-6.94646000",
    "longitude": "-35.78039000",
    "native": null,
    "timezone": null,
    "translations": {}
  },
  {
    "id": 14221,
    "name": "Riachão",
    "state_id": 2005,
    "state_code": "PB",
    "country_id": 31,
    "country_code": "BR",
    "latitude": "-6.55515000",
    "longitude": "-35.62324000",
    "native": null,
    "timezone": null,
    "translations": {}
  },
  {
    "id": 14223,
    "name": "Riachão do Bacamarte",
    "state_id": 2005,
    "state_code": "PB",
    "country_id": 31,
    "country_code": "BR",
    "latitude": "-7.26337000",
    "longitude": "-35.67518000",
    "native": null,
    "timezone": null,
    "translations": {}
  },
  {
    "id": 14226,
    "name": "Riachão do Poço",
    "state_id": 2005,
    "state_code": "PB",
    "country_id": 31,
    "country_code": "BR",
    "latitude": "-7.17041000",
    "longitude": "-35.30300000",
    "native": null,
    "timezone": null,
    "translations": {}
  },
  {
    "id": 14215,
    "name": "Riacho de Santo Antônio",
    "state_id": 2005,
    "state_code": "PB",
    "country_id": 31,
    "country_code": "BR",
    "latitude": "-7.66143000",
    "longitude": "-36.13551000",
    "native": null,
    "timezone": null,
    "translations": {}
  },
  {
    "id": 14216,
    "name": "Riacho dos Cavalos",
    "state_id": 2005,
    "state_code": "PB",
    "country_id": 31,
    "country_code": "BR",
    "latitude": "-6.47140000",
    "longitude": "-37.64024000",
    "native": null,
    "timezone": null,
    "translations": {}
  },
  {
    "id": 14299,
    "name": "Rio Tinto",
    "state_id": 2005,
    "state_code": "PB",
    "country_id": 31,
    "country_code": "BR",
    "latitude": "-6.79673000",
    "longitude": "-35.03715000",
    "native": null,
    "timezone": null,
    "translations": {}
  },
  {
    "id": 14382,
    "name": "Salgadinho",
    "state_id": 2005,
    "state_code": "PB",
    "country_id": 31,
    "country_code": "BR",
    "latitude": "-7.08934000",
    "longitude": "-36.86318000",
    "native": null,
    "timezone": null,
    "translations": {}
  },
  {
    "id": 14385,
    "name": "Salgado de São Félix",
    "state_id": 2005,
    "state_code": "PB",
    "country_id": 31,
    "country_code": "BR",
    "latitude": "-7.35694000",
    "longitude": "-35.44056000",
    "native": null,
    "timezone": null,
    "translations": {}
  },
  {
    "id": 14433,
    "name": "Santa Cecília",
    "state_id": 2005,
    "state_code": "PB",
    "country_id": 31,
    "country_code": "BR",
    "latitude": "-7.72027000",
    "longitude": "-35.93681000",
    "native": null,
    "timezone": null,
    "translations": {}
  },
  {
    "id": 14440,
    "name": "Santa Cruz",
    "state_id": 2005,
    "state_code": "PB",
    "country_id": 31,
    "country_code": "BR",
    "latitude": "-6.54542000",
    "longitude": "-38.04968000",
    "native": null,
    "timezone": null,
    "translations": {}
  },
  {
    "id": 14471,
    "name": "Santa Helena",
    "state_id": 2005,
    "state_code": "PB",
    "country_id": 31,
    "country_code": "BR",
    "latitude": "-6.72745000",
    "longitude": "-38.59506000",
    "native": null,
    "timezone": null,
    "translations": {}
  },
  {
    "id": 14478,
    "name": "Santa Inês",
    "state_id": 2005,
    "state_code": "PB",
    "country_id": 31,
    "country_code": "BR",
    "latitude": "-7.68334000",
    "longitude": "-38.59346000",
    "native": null,
    "timezone": null,
    "translations": {}
  },
  {
    "id": 14489,
    "name": "Santa Luzia",
    "state_id": 2005,
    "state_code": "PB",
    "country_id": 31,
    "country_code": "BR",
    "latitude": "-6.87222000",
    "longitude": "-36.91861000",
    "native": null,
    "timezone": null,
    "translations": {}
  },
  {
    "id": 14525,
    "name": "Santa Rita",
    "state_id": 2005,
    "state_code": "PB",
    "country_id": 31,
    "country_code": "BR",
    "latitude": "-7.10437000",
    "longitude": "-34.97387000",
    "native": null,
    "timezone": null,
    "translations": {}
  },
  {
    "id": 14552,
    "name": "Santa Teresinha",
    "state_id": 2005,
    "state_code": "PB",
    "country_id": 31,
    "country_code": "BR",
    "latitude": "-7.12089000",
    "longitude": "-37.49654000",
    "native": null,
    "timezone": null,
    "translations": {}
  },
  {
    "id": 14574,
    "name": "Santana de Mangueira",
    "state_id": 2005,
    "state_code": "PB",
    "country_id": 31,
    "country_code": "BR",
    "latitude": "-7.66593000",
    "longitude": "-38.35848000",
    "native": null,
    "timezone": null,
    "translations": {}
  },
  {
    "id": 14595,
    "name": "Santana dos Garrotes",
    "state_id": 2005,
    "state_code": "PB",
    "country_id": 31,
    "country_code": "BR",
    "latitude": "-7.38163000",
    "longitude": "-37.95386000",
    "native": null,
    "timezone": null,
    "translations": {}
  },
  {
    "id": 14608,
    "name": "Santo André",
    "state_id": 2005,
    "state_code": "PB",
    "country_id": 31,
    "country_code": "BR",
    "latitude": "-7.24178000",
    "longitude": "-36.61460000",
    "native": null,
    "timezone": null,
    "translations": {}
  },
  {
    "id": 14834,
    "name": "São Bentinho",
    "state_id": 2005,
    "state_code": "PB",
    "country_id": 31,
    "country_code": "BR",
    "latitude": "-6.88452000",
    "longitude": "-37.75898000",
    "native": null,
    "timezone": null,
    "translations": {}
  },
  {
    "id": 14836,
    "name": "São Bento",
    "state_id": 2005,
    "state_code": "PB",
    "country_id": 31,
    "country_code": "BR",
    "latitude": "-6.47344000",
    "longitude": "-37.47144000",
    "native": null,
    "timezone": null,
    "translations": {}
  },
  {
    "id": 14862,
    "name": "São Domingos",
    "state_id": 2005,
    "state_code": "PB",
    "country_id": 31,
    "country_code": "BR",
    "latitude": "-6.80733000",
    "longitude": "-37.91657000",
    "native": null,
    "timezone": null,
    "translations": {}
  },
  {
    "id": 14870,
    "name": "São Domingos do Cariri",
    "state_id": 2005,
    "state_code": "PB",
    "country_id": 31,
    "country_code": "BR",
    "latitude": "-7.56749000",
    "longitude": "-36.36393000",
    "native": null,
    "timezone": null,
    "translations": {}
  },
  {
    "id": 14879,
    "name": "São Francisco",
    "state_id": 2005,
    "state_code": "PB",
    "country_id": 31,
    "country_code": "BR",
    "latitude": "-6.63302000",
    "longitude": "-38.03780000",
    "native": null,
    "timezone": null,
    "translations": {}
  },
  {
    "id": 15027,
    "name": "São João do Cariri",
    "state_id": 2005,
    "state_code": "PB",
    "country_id": 31,
    "country_code": "BR",
    "latitude": "-7.48465000",
    "longitude": "-36.48602000",
    "native": null,
    "timezone": null,
    "translations": {}
  },
  {
    "id": 15042,
    "name": "São João do Rio do Peixe",
    "state_id": 2005,
    "state_code": "PB",
    "country_id": 31,
    "country_code": "BR",
    "latitude": "-6.71851000",
    "longitude": "-38.42942000",
    "native": null,
    "timezone": null,
    "translations": {}
  },
  {
    "id": 15046,
    "name": "São João do Tigre",
    "state_id": 2005,
    "state_code": "PB",
    "country_id": 31,
    "country_code": "BR",
    "latitude": "-8.10906000",
    "longitude": "-36.79766000",
    "native": null,
    "timezone": null,
    "translations": {}
  },
  {
    "id": 14943,
    "name": "São José da Lagoa Tapada",
    "state_id": 2005,
    "state_code": "PB",
    "country_id": 31,
    "country_code": "BR",
    "latitude": "-6.94245000",
    "longitude": "-38.09393000",
    "native": null,
    "timezone": null,
    "translations": {}
  },
  {
    "id": 14952,
    "name": "São José de Caiana",
    "state_id": 2005,
    "state_code": "PB",
    "country_id": 31,
    "country_code": "BR",
    "latitude": "-7.25916000",
    "longitude": "-38.34483000",
    "native": null,
    "timezone": null,
    "translations": {}
  },
  {
    "id": 14953,
    "name": "São José de Espinharas",
    "state_id": 2005,
    "state_code": "PB",
    "country_id": 31,
    "country_code": "BR",
    "latitude": "-6.80244000",
    "longitude": "-37.38224000",
    "native": null,
    "timezone": null,
    "translations": {}
  },
  {
    "id": 14955,
    "name": "São José de Piranhas",
    "state_id": 2005,
    "state_code": "PB",
    "country_id": 31,
    "country_code": "BR",
    "latitude": "-7.12056000",
    "longitude": "-38.50194000",
    "native": null,
    "timezone": null,
    "translations": {}
  },
  {
    "id": 14956,
    "name": "São José de Princesa",
    "state_id": 2005,
    "state_code": "PB",
    "country_id": 31,
    "country_code": "BR",
    "latitude": "-7.70649000",
    "longitude": "-38.08465000",
    "native": null,
    "timezone": null,
    "translations": {}
  },
  {
    "id": 14962,
    "name": "São José do Bonfim",
    "state_id": 2005,
    "state_code": "PB",
    "country_id": 31,
    "country_code": "BR",
    "latitude": "-7.13715000",
    "longitude": "-37.31607000",
    "native": null,
    "timezone": null,
    "translations": {}
  },
  {
    "id": 14963,
    "name": "São José do Brejo do Cruz",
    "state_id": 2005,
    "state_code": "PB",
    "country_id": 31,
    "country_code": "BR",
    "latitude": "-6.23731000",
    "longitude": "-37.37932000",
    "native": null,
    "timezone": null,
    "translations": {}
  },
  {
    "id": 14986,
    "name": "São José do Sabugi",
    "state_id": 2005,
    "state_code": "PB",
    "country_id": 31,
    "country_code": "BR",
    "latitude": "-6.82784000",
    "longitude": "-36.80335000",
    "native": null,
    "timezone": null,
    "translations": {}
  },
  {
    "id": 14994,
    "name": "São José dos Cordeiros",
    "state_id": 2005,
    "state_code": "PB",
    "country_id": 31,
    "country_code": "BR",
    "latitude": "-7.41638000",
    "longitude": "-36.84773000",
    "native": null,
    "timezone": null,
    "translations": {}
  },
  {
    "id": 14997,
    "name": "São José dos Ramos",
    "state_id": 2005,
    "state_code": "PB",
    "country_id": 31,
    "country_code": "BR",
    "latitude": "-7.25103000",
    "longitude": "-35.37410000",
    "native": null,
    "timezone": null,
    "translations": {}
  },
  {
    "id": 15068,
    "name": "São Mamede",
    "state_id": 2005,
    "state_code": "PB",
    "country_id": 31,
    "country_code": "BR",
    "latitude": "-6.92111000",
    "longitude": "-37.09131000",
    "native": null,
    "timezone": null,
    "translations": {}
  },
  {
    "id": 15084,
    "name": "São Miguel de Taipu",
    "state_id": 2005,
    "state_code": "PB",
    "country_id": 31,
    "country_code": "BR",
    "latitude": "-7.21706000",
    "longitude": "-35.20175000",
    "native": null,
    "timezone": null,
    "translations": {}
  },
  {
    "id": 15142,
    "name": "São Sebastião de Lagoa de Roça",
    "state_id": 2005,
    "state_code": "PB",
    "country_id": 31,
    "country_code": "BR",
    "latitude": "-7.08497000",
    "longitude": "-35.84445000",
    "native": null,
    "timezone": null,
    "translations": {}
  },
  {
    "id": 15154,
    "name": "São Sebastião do Umbuzeiro",
    "state_id": 2005,
    "state_code": "PB",
    "country_id": 31,
    "country_code": "BR",
    "latitude": "-8.15690000",
    "longitude": "-37.02220000",
    "native": null,
    "timezone": null,
    "translations": {}
  },
  {
    "id": 15173,
    "name": "São Vicente do Seridó",
    "state_id": 2005,
    "state_code": "PB",
    "country_id": 31,
    "country_code": "BR",
    "latitude": "-6.88683000",
    "longitude": "-36.42652000",
    "native": null,
    "timezone": null,
    "translations": {}
  },
  {
    "id": 14665,
    "name": "Sapé",
    "state_id": 2005,
    "state_code": "PB",
    "country_id": 31,
    "country_code": "BR",
    "latitude": "-7.07937000",
    "longitude": "-35.21734000",
    "native": null,
    "timezone": null,
    "translations": {}
  },
  {
    "id": 14725,
    "name": "Serra Branca",
    "state_id": 2005,
    "state_code": "PB",
    "country_id": 31,
    "country_code": "BR",
    "latitude": "-6.53333000",
    "longitude": "-38.26667000",
    "native": null,
    "timezone": null,
    "translations": {}
  },
  {
    "id": 14735,
    "name": "Serra da Raiz",
    "state_id": 2005,
    "state_code": "PB",
    "country_id": 31,
    "country_code": "BR",
    "latitude": "-6.69703000",
    "longitude": "-35.43579000",
    "native": null,
    "timezone": null,
    "translations": {}
  },
  {
    "id": 14728,
    "name": "Serra Grande",
    "state_id": 2005,
    "state_code": "PB",
    "country_id": 31,
    "country_code": "BR",
    "latitude": "-7.25090000",
    "longitude": "-38.39588000",
    "native": null,
    "timezone": null,
    "translations": {}
  },
  {
    "id": 14733,
    "name": "Serra Redonda",
    "state_id": 2005,
    "state_code": "PB",
    "country_id": 31,
    "country_code": "BR",
    "latitude": "-7.15665000",
    "longitude": "-35.67628000",
    "native": null,
    "timezone": null,
    "translations": {}
  },
  {
    "id": 14750,
    "name": "Serraria",
    "state_id": 2005,
    "state_code": "PB",
    "country_id": 31,
    "country_code": "BR",
    "latitude": "-6.86365000",
    "longitude": "-35.66926000",
    "native": null,
    "timezone": null,
    "translations": {}
  },
  {
    "id": 14763,
    "name": "Sertãozinho",
    "state_id": 2005,
    "state_code": "PB",
    "country_id": 31,
    "country_code": "BR",
    "latitude": "-6.73939000",
    "longitude": "-35.41628000",
    "native": null,
    "timezone": null,
    "translations": {}
  },
  {
    "id": 14797,
    "name": "Sobrado",
    "state_id": 2005,
    "state_code": "PB",
    "country_id": 31,
    "country_code": "BR",
    "latitude": "-7.16887000",
    "longitude": "-35.23251000",
    "native": null,
    "timezone": null,
    "translations": {}
  },
  {
    "id": 14807,
    "name": "Solânea",
    "state_id": 2005,
    "state_code": "PB",
    "country_id": 31,
    "country_code": "BR",
    "latitude": "-6.73321000",
    "longitude": "-35.69495000",
    "native": null,
    "timezone": null,
    "translations": {}
  },
  {
    "id": 14802,
    "name": "Soledade",
    "state_id": 2005,
    "state_code": "PB",
    "country_id": 31,
    "country_code": "BR",
    "latitude": "-7.05722000",
    "longitude": "-36.36278000",
    "native": null,
    "timezone": null,
    "translations": {}
  },
  {
    "id": 14813,
    "name": "Sossêgo",
    "state_id": 2005,
    "state_code": "PB",
    "country_id": 31,
    "country_code": "BR",
    "latitude": "-6.67592000",
    "longitude": "-36.17875000",
    "native": null,
    "timezone": null,
    "translations": {}
  },
  {
    "id": 14815,
    "name": "Sousa",
    "state_id": 2005,
    "state_code": "PB",
    "country_id": 31,
    "country_code": "BR",
    "latitude": "-6.73098000",
    "longitude": "-38.18614000",
    "native": null,
    "timezone": null,
    "translations": {}
  },
  {
    "id": 14825,
    "name": "Sumé",
    "state_id": 2005,
    "state_code": "PB",
    "country_id": 31,
    "country_code": "BR",
    "latitude": "-7.67167000",
    "longitude": "-36.88000000",
    "native": null,
    "timezone": null,
    "translations": {}
  },
  {
    "id": 15196,
    "name": "Tacima",
    "state_id": 2005,
    "state_code": "PB",
    "country_id": 31,
    "country_code": "BR",
    "latitude": "-6.53805000",
    "longitude": "-35.52277000",
    "native": null,
    "timezone": null,
    "translations": {}
  },
  {
    "id": 15230,
    "name": "Taperoá",
    "state_id": 2005,
    "state_code": "PB",
    "country_id": 31,
    "country_code": "BR",
    "latitude": "-7.16870000",
    "longitude": "-36.79197000",
    "native": null,
    "timezone": null,
    "translations": {}
  },
  {
    "id": 15262,
    "name": "Tavares",
    "state_id": 2005,
    "state_code": "PB",
    "country_id": 31,
    "country_code": "BR",
    "latitude": "-7.61418000",
    "longitude": "-37.87959000",
    "native": null,
    "timezone": null,
    "translations": {}
  },
  {
    "id": 15265,
    "name": "Teixeira",
    "state_id": 2005,
    "state_code": "PB",
    "country_id": 31,
    "country_code": "BR",
    "latitude": "-7.24821000",
    "longitude": "-37.27523000",
    "native": null,
    "timezone": null,
    "translations": {}
  },
  {
    "id": 15277,
    "name": "Tenório",
    "state_id": 2005,
    "state_code": "PB",
    "country_id": 31,
    "country_code": "BR",
    "latitude": "-6.97568000",
    "longitude": "-36.62216000",
    "native": null,
    "timezone": null,
    "translations": {}
  },
  {
    "id": 15362,
    "name": "Triunfo",
    "state_id": 2005,
    "state_code": "PB",
    "country_id": 31,
    "country_code": "BR",
    "latitude": "-6.58475000",
    "longitude": "-38.57827000",
    "native": null,
    "timezone": null,
    "translations": {}
  },
  {
    "id": 15442,
    "name": "Uiraúna",
    "state_id": 2005,
    "state_code": "PB",
    "country_id": 31,
    "country_code": "BR",
    "latitude": "-6.49650000",
    "longitude": "-38.38015000",
    "native": null,
    "timezone": null,
    "translations": {}
  },
  {
    "id": 15449,
    "name": "Umbuzeiro",
    "state_id": 2005,
    "state_code": "PB",
    "country_id": 31,
    "country_code": "BR",
    "latitude": "-7.67111000",
    "longitude": "-35.73927000",
    "native": null,
    "timezone": null,
    "translations": {}
  },
  {
    "id": 15613,
    "name": "Várzea",
    "state_id": 2005,
    "state_code": "PB",
    "country_id": 31,
    "country_code": "BR",
    "latitude": "-6.80276000",
    "longitude": "-37.03707000",
    "native": null,
    "timezone": null,
    "translations": {}
  },
  {
    "id": 15563,
    "name": "Vieirópolis",
    "state_id": 2005,
    "state_code": "PB",
    "country_id": 31,
    "country_code": "BR",
    "latitude": "-6.55838000",
    "longitude": "-38.27091000",
    "native": null,
    "timezone": null,
    "translations": {}
  },
  {
    "id": 15593,
    "name": "Vista Serrana",
    "state_id": 2005,
    "state_code": "PB",
    "country_id": 31,
    "country_code": "BR",
    "latitude": "-6.74167000",
    "longitude": "-37.57597000",
    "native": null,
    "timezone": null,
    "translations": {}
  },
  {
    "id": 15644,
    "name": "Zabelê",
    "state_id": 2005,
    "state_code": "PB",
    "country_id": 31,
    "country_code": "BR",
    "latitude": "-8.07634000",
    "longitude": "-37.05635000",
    "native": null,
    "timezone": null,
    "translations": {}
  }
]