[
  {
    "id": 63320,
    "name": "Daitō Shi",
    "state_id": 859,
    "state_code": "27",
    "country_id": 109,
    "country_code": "JP",
    "latitude": "34.71284000",
    "longitude": "135.63576000",
    "native": null,
    "timezone": null,
    "translations": {}
  },
  {
    "id": 63321,
    "name": "Daitōchō",
    "state_id": 859,
    "state_code": "27",
    "country_id": 109,
    "country_code": "JP",
    "latitude": "34.71378000",
    "longitude": "135.62033000",
    "native": null,
    "timezone": null,
    "translations": {}
  },
  {
    "id": 63343,
    "name": "Fujiidera-shi",
    "state_id": 859,
    "state_code": "27",
    "country_id": 109,
    "country_code": "JP",
    "latitude": "34.57422000",
    "longitude": "135.59730000",
    "native": null,
    "timezone": null,
    "translations": {}
  },
  {
    "id": 63405,
    "name": "Habikino-shi",
    "state_id": 859,
    "state_code": "27",
    "country_id": 109,
    "country_code": "JP",
    "latitude": "34.55775000",
    "longitude": "135.60631000",
    "native": null,
    "timezone": null,
    "translations": {}
  },
  {
    "id": 63435,
    "name": "Hannan",
    "state_id": 859,
    "state_code": "27",
    "country_id": 109,
    "country_code": "JP",
    "latitude": "34.33333000",
    "longitude": "135.25000000",
    "native": null,
    "timezone": null,
    "translations": {}
  },
  {
    "id": 63436,
    "name": "Hannan Shi",
    "state_id": 859,
    "state_code": "27",
    "country_id": 109,
    "country_code": "JP",
    "latitude": "34.33115000",
    "longitude": "135.23521000",
    "native": null,
    "timezone": null,
    "translations": {}
  },
  {
    "id": 63471,
    "name": "Higashiōsaka Shi",
    "state_id": 859,
    "state_code": "27",
    "country_id": 109,
    "country_code": "JP",
    "latitude": "34.67112000",
    "longitude": "135.61760000",
    "native": null,
    "timezone": null,
    "translations": {}
  },
  {
    "id": 63489,
    "name": "Hirakata",
    "state_id": 859,
    "state_code": "27",
    "country_id": 109,
    "country_code": "JP",
    "latitude": "34.81352000",
    "longitude": "135.64914000",
    "native": null,
    "timezone": null,
    "translations": {}
  },
  {
    "id": 63490,
    "name": "Hirakata Shi",
    "state_id": 859,
    "state_code": "27",
    "country_id": 109,
    "country_code": "JP",
    "latitude": "34.81762000",
    "longitude": "135.68171000",
    "native": null,
    "timezone": null,
    "translations": {}
  },
  {
    "id": 63533,
    "name": "Ibaraki",
    "state_id": 859,
    "state_code": "27",
    "country_id": 109,
    "country_code": "JP",
    "latitude": "34.81641000",
    "longitude": "135.56828000",
    "native": null,
    "timezone": null,
    "translations": {}
  },
  {
    "id": 63534,
    "name": "Ibaraki Shi",
    "state_id": 859,
    "state_code": "27",
    "country_id": 109,
    "country_code": "JP",
    "latitude": "34.85588000",
    "longitude": "135.54998000",
    "native": null,
    "timezone": null,
    "translations": {}
  },
  {
    "id": 63554,
    "name": "Ikeda",
    "state_id": 859,
    "state_code": "27",
    "country_id": 109,
    "country_code": "JP",
    "latitude": "34.82208000",
    "longitude": "135.42980000",
    "native": null,
    "timezone": null,
    "translations": {}
  },
  {
    "id": 63555,
    "name": "Ikeda Shi",
    "state_id": 859,
    "state_code": "27",
    "country_id": 109,
    "country_code": "JP",
    "latitude": "34.83443000",
    "longitude": "135.43825000",
    "native": null,
    "timezone": null,
    "translations": {}
  },
  {
    "id": 63640,
    "name": "Izumi",
    "state_id": 859,
    "state_code": "27",
    "country_id": 109,
    "country_code": "JP",
    "latitude": "34.48333000",
    "longitude": "135.43333000",
    "native": null,
    "timezone": null,
    "translations": {}
  },
  {
    "id": 63643,
    "name": "Izumi Shi",
    "state_id": 859,
    "state_code": "27",
    "country_id": 109,
    "country_code": "JP",
    "latitude": "34.43135000",
    "longitude": "135.47164000",
    "native": null,
    "timezone": null,
    "translations": {}
  },
  {
    "id": 63646,
    "name": "Izumiōtsu",
    "state_id": 859,
    "state_code": "27",
    "country_id": 109,
    "country_code": "JP",
    "latitude": "34.50000000",
    "longitude": "135.40000000",
    "native": null,
    "timezone": null,
    "translations": {}
  },
  {
    "id": 63647,
    "name": "Izumiōtsu Shi",
    "state_id": 859,
    "state_code": "27",
    "country_id": 109,
    "country_code": "JP",
    "latitude": "34.50647000",
    "longitude": "135.40462000",
    "native": null,
    "timezone": null,
    "translations": {}
  },
  {
    "id": 63644,
    "name": "Izumisano",
    "state_id": 859,
    "state_code": "27",
    "country_id": 109,
    "country_code": "JP",
    "latitude": "34.41667000",
    "longitude": "135.31667000",
    "native": null,
    "timezone": null,
    "translations": {}
  },
  {
    "id": 63645,
    "name": "Izumisano Shi",
    "state_id": 859,
    "state_code": "27",
    "country_id": 109,
    "country_code": "JP",
    "latitude": "34.37398000",
    "longitude": "135.33682000",
    "native": null,
    "timezone": null,
    "translations": {}
  },
  {
    "id": 63655,
    "name": "Kadoma",
    "state_id": 859,
    "state_code": "27",
    "country_id": 109,
    "country_code": "JP",
    "latitude": "34.73810000",
    "longitude": "135.57442000",
    "native": null,
    "timezone": null,
    "translations": {}
  },
  {
    "id": 63656,
    "name": "Kadoma Shi",
    "state_id": 859,
    "state_code": "27",
    "country_id": 109,
    "country_code": "JP",
    "latitude": "34.73215000",
    "longitude": "135.59935000",
    "native": null,
    "timezone": null,
    "translations": {}
  },
  {
    "id": 63665,
    "name": "Kaizuka",
    "state_id": 859,
    "state_code": "27",
    "country_id": 109,
    "country_code": "JP",
    "latitude": "34.45000000",
    "longitude": "135.35000000",
    "native": null,
    "timezone": null,
    "translations": {}
  },
  {
    "id": 63666,
    "name": "Kaizuka Shi",
    "state_id": 859,
    "state_code": "27",
    "country_id": 109,
    "country_code": "JP",
    "latitude": "34.40105000",
    "longitude": "135.38510000",
    "native": null,
    "timezone": null,
    "translations": {}
  },
  {
    "id": 63734,
    "name": "Kashihara",
    "state_id": 859,
    "state_code": "27",
    "country_id": 109,
    "country_code": "JP",
    "latitude": "34.58333000",
    "longitude": "135.61667000",
    "native": null,
    "timezone": null,
    "translations": {}
  },
  {
    "id": 63741,
    "name": "Kashiwara-shi",
    "state_id": 859,
    "state_code": "27",
    "country_id": 109,
    "country_code": "JP",
    "latitude": "34.57920000",
    "longitude": "135.62867000",
    "native": null,
    "timezone": null,
    "translations": {}
  },
  {
    "id": 63753,
    "name": "Katano Shi",
    "state_id": 859,
    "state_code": "27",
    "country_id": 109,
    "country_code": "JP",
    "latitude": "34.77215000",
    "longitude": "135.68693000",
    "native": null,
    "timezone": null,
    "translations": {}
  },
  {
    "id": 63766,
    "name": "Kawachi-nagano Shi",
    "state_id": 859,
    "state_code": "27",
    "country_id": 109,
    "country_code": "JP",
    "latitude": "34.40547000",
    "longitude": "135.56692000",
    "native": null,
    "timezone": null,
    "translations": {}
  },
  {
    "id": 63795,
    "name": "Kishiwada",
    "state_id": 859,
    "state_code": "27",
    "country_id": 109,
    "country_code": "JP",
    "latitude": "34.46667000",
    "longitude": "135.36667000",
    "native": null,
    "timezone": null,
    "translations": {}
  },
  {
    "id": 63796,
    "name": "Kishiwada Shi",
    "state_id": 859,
    "state_code": "27",
    "country_id": 109,
    "country_code": "JP",
    "latitude": "34.42747000",
    "longitude": "135.41605000",
    "native": null,
    "timezone": null,
    "translations": {}
  },
  {
    "id": 63929,
    "name": "Matsubara",
    "state_id": 859,
    "state_code": "27",
    "country_id": 109,
    "country_code": "JP",
    "latitude": "34.56667000",
    "longitude": "135.55000000",
    "native": null,
    "timezone": null,
    "translations": {}
  },
  {
    "id": 63930,
    "name": "Matsubara-shi",
    "state_id": 859,
    "state_code": "27",
    "country_id": 109,
    "country_code": "JP",
    "latitude": "34.57726000",
    "longitude": "135.55206000",
    "native": null,
    "timezone": null,
    "translations": {}
  },
  {
    "id": 63976,
    "name": "Mino",
    "state_id": 859,
    "state_code": "27",
    "country_id": 109,
    "country_code": "JP",
    "latitude": "34.82691000",
    "longitude": "135.47057000",
    "native": null,
    "timezone": null,
    "translations": {}
  },
  {
    "id": 63981,
    "name": "Minoo Shi",
    "state_id": 859,
    "state_code": "27",
    "country_id": 109,
    "country_code": "JP",
    "latitude": "34.85590000",
    "longitude": "135.47926000",
    "native": null,
    "timezone": null,
    "translations": {}
  },
  {
    "id": 63987,
    "name": "Mishima-gun",
    "state_id": 859,
    "state_code": "27",
    "country_id": 109,
    "country_code": "JP",
    "latitude": "34.89887000",
    "longitude": "135.65325000",
    "native": null,
    "timezone": null,
    "translations": {}
  },
  {
    "id": 64029,
    "name": "Moriguchi",
    "state_id": 859,
    "state_code": "27",
    "country_id": 109,
    "country_code": "JP",
    "latitude": "34.73333000",
    "longitude": "135.56667000",
    "native": null,
    "timezone": null,
    "translations": {}
  },
  {
    "id": 64123,
    "name": "Neyagawa",
    "state_id": 859,
    "state_code": "27",
    "country_id": 109,
    "country_code": "JP",
    "latitude": "34.76615000",
    "longitude": "135.62759000",
    "native": null,
    "timezone": null,
    "translations": {}
  },
  {
    "id": 64124,
    "name": "Neyagawa Shi",
    "state_id": 859,
    "state_code": "27",
    "country_id": 109,
    "country_code": "JP",
    "latitude": "34.76539000",
    "longitude": "135.62696000",
    "native": null,
    "timezone": null,
    "translations": {}
  },
  {
    "id": 64214,
    "name": "Osaka",
    "state_id": 859,
    "state_code": "27",
    "country_id": 109,
    "country_code": "JP",
    "latitude": "34.69374000",
    "longitude": "135.50218000",
    "native": null,
    "timezone": null,
    "translations": {}
  },
  {
    "id": 64751,
    "name": "Ōsaka-sayama Shi",
    "state_id": 859,
    "state_code": "27",
    "country_id": 109,
    "country_code": "JP",
    "latitude": "34.49645000",
    "longitude": "135.54894000",
    "native": null,
    "timezone": null,
    "translations": {}
  },
  {
    "id": 64256,
    "name": "Sakai",
    "state_id": 859,
    "state_code": "27",
    "country_id": 109,
    "country_code": "JP",
    "latitude": "34.58333000",
    "longitude": "135.46667000",
    "native": null,
    "timezone": null,
    "translations": {}
  },
  {
    "id": 64257,
    "name": "Sakai Shi",
    "state_id": 859,
    "state_code": "27",
    "country_id": 109,
    "country_code": "JP",
    "latitude": "34.53166000",
    "longitude": "135.49460000",
    "native": null,
    "timezone": null,
    "translations": {}
  },
  {
    "id": 64301,
    "name": "Sennan Shi",
    "state_id": 859,
    "state_code": "27",
    "country_id": 109,
    "country_code": "JP",
    "latitude": "34.35164000",
    "longitude": "135.29176000",
    "native": null,
    "timezone": null,
    "translations": {}
  },
  {
    "id": 64307,
    "name": "Settsu Shi",
    "state_id": 859,
    "state_code": "27",
    "country_id": 109,
    "country_code": "JP",
    "latitude": "34.77220000",
    "longitude": "135.56824000",
    "native": null,
    "timezone": null,
    "translations": {}
  },
  {
    "id": 64319,
    "name": "Shijonawate Shi",
    "state_id": 859,
    "state_code": "27",
    "country_id": 109,
    "country_code": "JP",
    "latitude": "34.73242000",
    "longitude": "135.66784000",
    "native": null,
    "timezone": null,
    "translations": {}
  },
  {
    "id": 64379,
    "name": "Suita",
    "state_id": 859,
    "state_code": "27",
    "country_id": 109,
    "country_code": "JP",
    "latitude": "34.76143000",
    "longitude": "135.51567000",
    "native": null,
    "timezone": null,
    "translations": {}
  },
  {
    "id": 64380,
    "name": "Suita Shi",
    "state_id": 859,
    "state_code": "27",
    "country_id": 109,
    "country_code": "JP",
    "latitude": "34.78556000",
    "longitude": "135.51909000",
    "native": null,
    "timezone": null,
    "translations": {}
  },
  {
    "id": 64417,
    "name": "Tajiri",
    "state_id": 859,
    "state_code": "27",
    "country_id": 109,
    "country_code": "JP",
    "latitude": "34.42695000",
    "longitude": "135.24552000",
    "native": null,
    "timezone": null,
    "translations": {}
  },
  {
    "id": 64425,
    "name": "Takaishi",
    "state_id": 859,
    "state_code": "27",
    "country_id": 109,
    "country_code": "JP",
    "latitude": "34.51667000",
    "longitude": "135.43333000",
    "native": null,
    "timezone": null,
    "translations": {}
  },
  {
    "id": 64426,
    "name": "Takaishi Shi",
    "state_id": 859,
    "state_code": "27",
    "country_id": 109,
    "country_code": "JP",
    "latitude": "34.52868000",
    "longitude": "135.42958000",
    "native": null,
    "timezone": null,
    "translations": {}
  },
  {
    "id": 64440,
    "name": "Takatsuki",
    "state_id": 859,
    "state_code": "27",
    "country_id": 109,
    "country_code": "JP",
    "latitude": "34.84833000",
    "longitude": "135.61678000",
    "native": null,
    "timezone": null,
    "translations": {}
  },
  {
    "id": 64441,
    "name": "Takatsuki Shi",
    "state_id": 859,
    "state_code": "27",
    "country_id": 109,
    "country_code": "JP",
    "latitude": "34.88079000",
    "longitude": "135.60792000",
    "native": null,
    "timezone": null,
    "translations": {}
  },
  {
    "id": 64512,
    "name": "Tondabayashi Shi",
    "state_id": 859,
    "state_code": "27",
    "country_id": 109,
    "country_code": "JP",
    "latitude": "34.48882000",
    "longitude": "135.59431000",
    "native": null,
    "timezone": null,
    "translations": {}
  },
  {
    "id": 64513,
    "name": "Tondabayashichō",
    "state_id": 859,
    "state_code": "27",
    "country_id": 109,
    "country_code": "JP",
    "latitude": "34.50065000",
    "longitude": "135.60211000",
    "native": null,
    "timezone": null,
    "translations": {}
  },
  {
    "id": 64529,
    "name": "Toyonaka",
    "state_id": 859,
    "state_code": "27",
    "country_id": 109,
    "country_code": "JP",
    "latitude": "34.78244000",
    "longitude": "135.46932000",
    "native": null,
    "timezone": null,
    "translations": {}
  },
  {
    "id": 64530,
    "name": "Toyonaka Shi",
    "state_id": 859,
    "state_code": "27",
    "country_id": 109,
    "country_code": "JP",
    "latitude": "34.78191000",
    "longitude": "135.47276000",
    "native": null,
    "timezone": null,
    "translations": {}
  },
  {
    "id": 64654,
    "name": "Yao",
    "state_id": 859,
    "state_code": "27",
    "country_id": 109,
    "country_code": "JP",
    "latitude": "34.61667000",
    "longitude": "135.60000000",
    "native": null,
    "timezone": null,
    "translations": {}
  },
  {
    "id": 64655,
    "name": "Yao-shi",
    "state_id": 859,
    "state_code": "27",
    "country_id": 109,
    "country_code": "JP",
    "latitude": "34.62629000",
    "longitude": "135.60099000",
    "native": null,
    "timezone": null,
    "translations": {}
  }
]