[
  {
    "id": 130192,
    "name": "Cẩm Phả",
    "state_id": 3814,
    "state_code": "13",
    "country_id": 240,
    "country_code": "VN",
    "latitude": "21.01004000",
    "longitude": "107.27345000",
    "native": null,
    "timezone": null,
    "translations": {}
  },
  {
    "id": 130193,
    "name": "Cẩm Phả Mines",
    "state_id": 3814,
    "state_code": "13",
    "country_id": 240,
    "country_code": "VN",
    "latitude": "21.01667000",
    "longitude": "107.30000000",
    "native": null,
    "timezone": null,
    "translations": {}
  },
  {
    "id": 130561,
    "name": "Hạ Long",
    "state_id": 3814,
    "state_code": "13",
    "country_id": 240,
    "country_code": "VN",
    "latitude": "20.95045000",
    "longitude": "107.07336000",
    "native": null,
    "timezone": null,
    "translations": {}
  },
  {
    "id": 130214,
    "name": "Huyện Ba Chẽ",
    "state_id": 3814,
    "state_code": "13",
    "country_id": 240,
    "country_code": "VN",
    "latitude": "21.29503000",
    "longitude": "107.19298000",
    "native": null,
    "timezone": null,
    "translations": {}
  },
  {
    "id": 130222,
    "name": "Huyện Bình Liêu",
    "state_id": 3814,
    "state_code": "13",
    "country_id": 240,
    "country_code": "VN",
    "latitude": "21.54389000",
    "longitude": "107.44047000",
    "native": null,
    "timezone": null,
    "translations": {}
  },
  {
    "id": 130268,
    "name": "Huyện Cô Tô",
    "state_id": 3814,
    "state_code": "13",
    "country_id": 240,
    "country_code": "VN",
    "latitude": "21.05418000",
    "longitude": "107.80698000",
    "native": null,
    "timezone": null,
    "translations": {}
  },
  {
    "id": 130541,
    "name": "Huyện Đầm Hà",
    "state_id": 3814,
    "state_code": "13",
    "country_id": 240,
    "country_code": "VN",
    "latitude": "21.39689000",
    "longitude": "107.56175000",
    "native": null,
    "timezone": null,
    "translations": {}
  },
  {
    "id": 130534,
    "name": "Huyện Đông Triều",
    "state_id": 3814,
    "state_code": "13",
    "country_id": 240,
    "country_code": "VN",
    "latitude": "21.11043000",
    "longitude": "106.59662000",
    "native": null,
    "timezone": null,
    "translations": {}
  },
  {
    "id": 130314,
    "name": "Huyện Hải Hà",
    "state_id": 3814,
    "state_code": "13",
    "country_id": 240,
    "country_code": "VN",
    "latitude": "21.49537000",
    "longitude": "107.66790000",
    "native": null,
    "timezone": null,
    "translations": {}
  },
  {
    "id": 130299,
    "name": "Huyện Hoành Bồ",
    "state_id": 3814,
    "state_code": "13",
    "country_id": 240,
    "country_code": "VN",
    "latitude": "21.11888000",
    "longitude": "107.03149000",
    "native": null,
    "timezone": null,
    "translations": {}
  },
  {
    "id": 130458,
    "name": "Huyện Tiên Yên",
    "state_id": 3814,
    "state_code": "13",
    "country_id": 240,
    "country_code": "VN",
    "latitude": "21.37571000",
    "longitude": "107.37468000",
    "native": null,
    "timezone": null,
    "translations": {}
  },
  {
    "id": 130494,
    "name": "Huyện Vân Đồn",
    "state_id": 3814,
    "state_code": "13",
    "country_id": 240,
    "country_code": "VN",
    "latitude": "21.04921000",
    "longitude": "107.50971000",
    "native": null,
    "timezone": null,
    "translations": {}
  },
  {
    "id": 130573,
    "name": "Móng Cái",
    "state_id": 3814,
    "state_code": "13",
    "country_id": 240,
    "country_code": "VN",
    "latitude": "21.52471000",
    "longitude": "107.96619000",
    "native": null,
    "timezone": null,
    "translations": {}
  },
  {
    "id": 130602,
    "name": "Thành Phố Uông Bí",
    "state_id": 3814,
    "state_code": "13",
    "country_id": 240,
    "country_code": "VN",
    "latitude": "21.03433000",
    "longitude": "106.77049000",
    "native": null,
    "timezone": null,
    "translations": {}
  }
]