[
  {
    "id": 57585,
    "name": "Abhayapuri",
    "state_id": 4027,
    "state_code": "AS",
    "country_id": 101,
    "country_code": "IN",
    "latitude": "26.32255000",
    "longitude": "90.68526000",
    "native": null,
    "timezone": null,
    "translations": {}
  },
  {
    "id": 57679,
    "name": "Amguri",
    "state_id": 4027,
    "state_code": "AS",
    "country_id": 101,
    "country_code": "IN",
    "latitude": "26.81482000",
    "longitude": "94.52614000",
    "native": null,
    "timezone": null,
    "translations": {}
  },
  {
    "id": 57787,
    "name": "Badarpur",
    "state_id": 4027,
    "state_code": "AS",
    "country_id": 101,
    "country_code": "IN",
    "latitude": "24.86852000",
    "longitude": "92.59606000",
    "native": null,
    "timezone": null,
    "translations": {}
  },
  {
    "id": 57820,
    "name": "Baksa",
    "state_id": 4027,
    "state_code": "AS",
    "country_id": 101,
    "country_code": "IN",
    "latitude": "26.69804000",
    "longitude": "91.15142000",
    "native": null,
    "timezone": null,
    "translations": {}
  },
  {
    "id": 57883,
    "name": "Barpathar",
    "state_id": 4027,
    "state_code": "AS",
    "country_id": 101,
    "country_code": "IN",
    "latitude": "26.28709000",
    "longitude": "93.88844000",
    "native": null,
    "timezone": null,
    "translations": {}
  },
  {
    "id": 57884,
    "name": "Barpeta",
    "state_id": 4027,
    "state_code": "AS",
    "country_id": 101,
    "country_code": "IN",
    "latitude": "26.47104000",
    "longitude": "91.03080000",
    "native": null,
    "timezone": null,
    "translations": {}
  },
  {
    "id": 57885,
    "name": "Barpeta Road",
    "state_id": 4027,
    "state_code": "AS",
    "country_id": 101,
    "country_code": "IN",
    "latitude": "26.50284000",
    "longitude": "90.96937000",
    "native": null,
    "timezone": null,
    "translations": {}
  },
  {
    "id": 58150,
    "name": "Basugaon",
    "state_id": 4027,
    "state_code": "AS",
    "country_id": 101,
    "country_code": "IN",
    "latitude": "26.46742000",
    "longitude": "90.41951000",
    "native": null,
    "timezone": null,
    "translations": {}
  },
  {
    "id": 58028,
    "name": "Bihpuriagaon",
    "state_id": 4027,
    "state_code": "AS",
    "country_id": 101,
    "country_code": "IN",
    "latitude": "27.01718000",
    "longitude": "93.91673000",
    "native": null,
    "timezone": null,
    "translations": {}
  },
  {
    "id": 58034,
    "name": "Bijni",
    "state_id": 4027,
    "state_code": "AS",
    "country_id": 101,
    "country_code": "IN",
    "latitude": "26.49588000",
    "longitude": "90.70298000",
    "native": null,
    "timezone": null,
    "translations": {}
  },
  {
    "id": 58053,
    "name": "Bilasipara",
    "state_id": 4027,
    "state_code": "AS",
    "country_id": 101,
    "country_code": "IN",
    "latitude": "26.23285000",
    "longitude": "90.23410000",
    "native": null,
    "timezone": null,
    "translations": {}
  },
  {
    "id": 58075,
    "name": "Bokajan",
    "state_id": 4027,
    "state_code": "AS",
    "country_id": 101,
    "country_code": "IN",
    "latitude": "26.02131000",
    "longitude": "93.77945000",
    "native": null,
    "timezone": null,
    "translations": {}
  },
  {
    "id": 58077,
    "name": "Bokakhat",
    "state_id": 4027,
    "state_code": "AS",
    "country_id": 101,
    "country_code": "IN",
    "latitude": "26.64018000",
    "longitude": "93.60052000",
    "native": null,
    "timezone": null,
    "translations": {}
  },
  {
    "id": 58081,
    "name": "Bongaigaon",
    "state_id": 4027,
    "state_code": "AS",
    "country_id": 101,
    "country_code": "IN",
    "latitude": "26.46030000",
    "longitude": "90.64640000",
    "native": null,
    "timezone": null,
    "translations": {}
  },
  {
    "id": 131634,
    "name": "Cachar",
    "state_id": 4027,
    "state_code": "AS",
    "country_id": 101,
    "country_code": "IN",
    "latitude": "24.78213000",
    "longitude": "92.85771000",
    "native": null,
    "timezone": null,
    "translations": {}
  },
  {
    "id": 131588,
    "name": "Chabua",
    "state_id": 4027,
    "state_code": "AS",
    "country_id": 101,
    "country_code": "IN",
    "latitude": "27.48253000",
    "longitude": "95.17451000",
    "native": null,
    "timezone": null,
    "translations": {}
  },
  {
    "id": 131604,
    "name": "Chapar",
    "state_id": 4027,
    "state_code": "AS",
    "country_id": 101,
    "country_code": "IN",
    "latitude": "26.27266000",
    "longitude": "90.44556000",
    "native": null,
    "timezone": null,
    "translations": {}
  },
  {
    "id": 131568,
    "name": "Chirang",
    "state_id": 4027,
    "state_code": "AS",
    "country_id": 101,
    "country_code": "IN",
    "latitude": "26.52527000",
    "longitude": "90.49066000",
    "native": null,
    "timezone": null,
    "translations": {}
  },
  {
    "id": 131657,
    "name": "Darrang",
    "state_id": 4027,
    "state_code": "AS",
    "country_id": 101,
    "country_code": "IN",
    "latitude": "26.51195000",
    "longitude": "92.16843000",
    "native": null,
    "timezone": null,
    "translations": {}
  },
  {
    "id": 131695,
    "name": "Dergaon",
    "state_id": 4027,
    "state_code": "AS",
    "country_id": 101,
    "country_code": "IN",
    "latitude": "26.70000000",
    "longitude": "93.96667000",
    "native": null,
    "timezone": null,
    "translations": {}
  },
  {
    "id": 131732,
    "name": "Dhekiajuli",
    "state_id": 4027,
    "state_code": "AS",
    "country_id": 101,
    "country_code": "IN",
    "latitude": "26.70367000",
    "longitude": "92.47808000",
    "native": null,
    "timezone": null,
    "translations": {}
  },
  {
    "id": 131733,
    "name": "Dhemaji",
    "state_id": 4027,
    "state_code": "AS",
    "country_id": 101,
    "country_code": "IN",
    "latitude": "27.60910000",
    "longitude": "94.79420000",
    "native": null,
    "timezone": null,
    "translations": {}
  },
  {
    "id": 131737,
    "name": "Dhing",
    "state_id": 4027,
    "state_code": "AS",
    "country_id": 101,
    "country_code": "IN",
    "latitude": "26.46793000",
    "longitude": "92.47336000",
    "native": null,
    "timezone": null,
    "translations": {}
  },
  {
    "id": 131744,
    "name": "Dhubri",
    "state_id": 4027,
    "state_code": "AS",
    "country_id": 101,
    "country_code": "IN",
    "latitude": "26.06749000",
    "longitude": "90.02238000",
    "native": null,
    "timezone": null,
    "translations": {}
  },
  {
    "id": 131762,
    "name": "Dibrugarh",
    "state_id": 4027,
    "state_code": "AS",
    "country_id": 101,
    "country_code": "IN",
    "latitude": "27.50000000",
    "longitude": "95.00000000",
    "native": null,
    "timezone": null,
    "translations": {}
  },
  {
    "id": 131766,
    "name": "Digboi",
    "state_id": 4027,
    "state_code": "AS",
    "country_id": 101,
    "country_code": "IN",
    "latitude": "27.39321000",
    "longitude": "95.61839000",
    "native": null,
    "timezone": null,
    "translations": {}
  },
  {
    "id": 131770,
    "name": "Dima Hasao District",
    "state_id": 4027,
    "state_code": "AS",
    "country_id": 101,
    "country_code": "IN",
    "latitude": "25.50000000",
    "longitude": "93.00000000",
    "native": null,
    "timezone": null,
    "translations": {}
  },
  {
    "id": 131776,
    "name": "Diphu",
    "state_id": 4027,
    "state_code": "AS",
    "country_id": 101,
    "country_code": "IN",
    "latitude": "25.84341000",
    "longitude": "93.43116000",
    "native": null,
    "timezone": null,
    "translations": {}
  },
  {
    "id": 131778,
    "name": "Dispur",
    "state_id": 4027,
    "state_code": "AS",
    "country_id": 101,
    "country_code": "IN",
    "latitude": "26.13564000",
    "longitude": "91.80069000",
    "native": null,
    "timezone": null,
    "translations": {}
  },
  {
    "id": 131795,
    "name": "Duliagaon",
    "state_id": 4027,
    "state_code": "AS",
    "country_id": 101,
    "country_code": "IN",
    "latitude": "27.37227000",
    "longitude": "95.30754000",
    "native": null,
    "timezone": null,
    "translations": {}
  },
  {
    "id": 131796,
    "name": "Dum Duma",
    "state_id": 4027,
    "state_code": "AS",
    "country_id": 101,
    "country_code": "IN",
    "latitude": "27.56884000",
    "longitude": "95.55664000",
    "native": null,
    "timezone": null,
    "translations": {}
  },
  {
    "id": 131928,
    "name": "Gauripur",
    "state_id": 4027,
    "state_code": "AS",
    "country_id": 101,
    "country_code": "IN",
    "latitude": "26.08334000",
    "longitude": "89.96118000",
    "native": null,
    "timezone": null,
    "translations": {}
  },
  {
    "id": 132004,
    "name": "Goalpara",
    "state_id": 4027,
    "state_code": "AS",
    "country_id": 101,
    "country_code": "IN",
    "latitude": "26.12791000",
    "longitude": "90.60974000",
    "native": null,
    "timezone": null,
    "translations": {}
  },
  {
    "id": 131967,
    "name": "Gohpur",
    "state_id": 4027,
    "state_code": "AS",
    "country_id": 101,
    "country_code": "IN",
    "latitude": "26.88184000",
    "longitude": "93.61560000",
    "native": null,
    "timezone": null,
    "translations": {}
  },
  {
    "id": 131976,
    "name": "Golaghat",
    "state_id": 4027,
    "state_code": "AS",
    "country_id": 101,
    "country_code": "IN",
    "latitude": "26.40920000",
    "longitude": "93.91193000",
    "native": null,
    "timezone": null,
    "translations": {}
  },
  {
    "id": 131977,
    "name": "Golakganj",
    "state_id": 4027,
    "state_code": "AS",
    "country_id": 101,
    "country_code": "IN",
    "latitude": "26.10216000",
    "longitude": "89.82275000",
    "native": null,
    "timezone": null,
    "translations": {}
  },
  {
    "id": 131997,
    "name": "Goshaingaon",
    "state_id": 4027,
    "state_code": "AS",
    "country_id": 101,
    "country_code": "IN",
    "latitude": "26.43946000",
    "longitude": "89.96307000",
    "native": null,
    "timezone": null,
    "translations": {}
  },
  {
    "id": 132039,
    "name": "Guwahati",
    "state_id": 4027,
    "state_code": "AS",
    "country_id": 101,
    "country_code": "IN",
    "latitude": "26.18440000",
    "longitude": "91.74580000",
    "native": null,
    "timezone": null,
    "translations": {}
  },
  {
    "id": 132134,
    "name": "Haflong",
    "state_id": 4027,
    "state_code": "AS",
    "country_id": 101,
    "country_code": "IN",
    "latitude": "25.16478000",
    "longitude": "93.01744000",
    "native": null,
    "timezone": null,
    "translations": {}
  },
  {
    "id": 132055,
    "name": "Hailakandi",
    "state_id": 4027,
    "state_code": "AS",
    "country_id": 101,
    "country_code": "IN",
    "latitude": "24.50170000",
    "longitude": "92.60069000",
    "native": null,
    "timezone": null,
    "translations": {}
  },
  {
    "id": 132137,
    "name": "Hajo",
    "state_id": 4027,
    "state_code": "AS",
    "country_id": 101,
    "country_code": "IN",
    "latitude": "26.24520000",
    "longitude": "91.52525000",
    "native": null,
    "timezone": null,
    "translations": {}
  },
  {
    "id": 132110,
    "name": "Hojai",
    "state_id": 4027,
    "state_code": "AS",
    "country_id": 101,
    "country_code": "IN",
    "latitude": "26.00281000",
    "longitude": "92.85605000",
    "native": null,
    "timezone": null,
    "translations": {}
  },
  {
    "id": 132126,
    "name": "Howli",
    "state_id": 4027,
    "state_code": "AS",
    "country_id": 101,
    "country_code": "IN",
    "latitude": "26.42237000",
    "longitude": "90.98004000",
    "native": null,
    "timezone": null,
    "translations": {}
  },
  {
    "id": 132291,
    "name": "Jogighopa",
    "state_id": 4027,
    "state_code": "AS",
    "country_id": 101,
    "country_code": "IN",
    "latitude": "26.22646000",
    "longitude": "90.57247000",
    "native": null,
    "timezone": null,
    "translations": {}
  },
  {
    "id": 132294,
    "name": "Jorhat",
    "state_id": 4027,
    "state_code": "AS",
    "country_id": 101,
    "country_code": "IN",
    "latitude": "26.80000000",
    "longitude": "94.26000000",
    "native": null,
    "timezone": null,
    "translations": {}
  },
  {
    "id": 132693,
    "name": "Kamrup",
    "state_id": 4027,
    "state_code": "AS",
    "country_id": 101,
    "country_code": "IN",
    "latitude": "26.22322000",
    "longitude": "91.65344000",
    "native": null,
    "timezone": null,
    "translations": {}
  },
  {
    "id": 132366,
    "name": "Kamrup Metropolitan",
    "state_id": 4027,
    "state_code": "AS",
    "country_id": 101,
    "country_code": "IN",
    "latitude": "26.05375000",
    "longitude": "92.00763000",
    "native": null,
    "timezone": null,
    "translations": {}
  },
  {
    "id": 132718,
    "name": "Karbi Anglong",
    "state_id": 4027,
    "state_code": "AS",
    "country_id": 101,
    "country_code": "IN",
    "latitude": "26.00000000",
    "longitude": "93.50000000",
    "native": null,
    "timezone": null,
    "translations": {}
  },
  {
    "id": 132402,
    "name": "Karimganj",
    "state_id": 4027,
    "state_code": "AS",
    "country_id": 101,
    "country_code": "IN",
    "latitude": "24.60000000",
    "longitude": "92.40000000",
    "native": null,
    "timezone": null,
    "translations": {}
  },
  {
    "id": 132518,
    "name": "Kharupatia",
    "state_id": 4027,
    "state_code": "AS",
    "country_id": 101,
    "country_code": "IN",
    "latitude": "26.51839000",
    "longitude": "92.14722000",
    "native": null,
    "timezone": null,
    "translations": {}
  },
  {
    "id": 132551,
    "name": "Kokrajhar",
    "state_id": 4027,
    "state_code": "AS",
    "country_id": 101,
    "country_code": "IN",
    "latitude": "26.60000000",
    "longitude": "90.20000000",
    "native": null,
    "timezone": null,
    "translations": {}
  },
  {
    "id": 132742,
    "name": "Lakhimpur",
    "state_id": 4027,
    "state_code": "AS",
    "country_id": 101,
    "country_code": "IN",
    "latitude": "27.35000000",
    "longitude": "94.25000000",
    "native": null,
    "timezone": null,
    "translations": {}
  },
  {
    "id": 132743,
    "name": "Lakhipur",
    "state_id": 4027,
    "state_code": "AS",
    "country_id": 101,
    "country_code": "IN",
    "latitude": "24.79281000",
    "longitude": "93.00910000",
    "native": null,
    "timezone": null,
    "translations": {}
  },
  {
    "id": 132793,
    "name": "Lala",
    "state_id": 4027,
    "state_code": "AS",
    "country_id": 101,
    "country_code": "IN",
    "latitude": "24.55418000",
    "longitude": "92.61592000",
    "native": null,
    "timezone": null,
    "translations": {}
  },
  {
    "id": 132786,
    "name": "Lumding Railway Colony",
    "state_id": 4027,
    "state_code": "AS",
    "country_id": 101,
    "country_code": "IN",
    "latitude": "25.74903000",
    "longitude": "93.16998000",
    "native": null,
    "timezone": null,
    "translations": {}
  },
  {
    "id": 132842,
    "name": "Mahur",
    "state_id": 4027,
    "state_code": "AS",
    "country_id": 101,
    "country_code": "IN",
    "latitude": "25.18305000",
    "longitude": "93.11342000",
    "native": null,
    "timezone": null,
    "translations": {}
  },
  {
    "id": 132853,
    "name": "Maibong",
    "state_id": 4027,
    "state_code": "AS",
    "country_id": 101,
    "country_code": "IN",
    "latitude": "25.30125000",
    "longitude": "93.13811000",
    "native": null,
    "timezone": null,
    "translations": {}
  },
  {
    "id": 133064,
    "name": "Makum",
    "state_id": 4027,
    "state_code": "AS",
    "country_id": 101,
    "country_code": "IN",
    "latitude": "27.48652000",
    "longitude": "95.43646000",
    "native": null,
    "timezone": null,
    "translations": {}
  },
  {
    "id": 132904,
    "name": "Mangaldai",
    "state_id": 4027,
    "state_code": "AS",
    "country_id": 101,
    "country_code": "IN",
    "latitude": "26.44212000",
    "longitude": "92.03047000",
    "native": null,
    "timezone": null,
    "translations": {}
  },
  {
    "id": 132937,
    "name": "Mariani",
    "state_id": 4027,
    "state_code": "AS",
    "country_id": 101,
    "country_code": "IN",
    "latitude": "26.65725000",
    "longitude": "94.31529000",
    "native": null,
    "timezone": null,
    "translations": {}
  },
  {
    "id": 133002,
    "name": "Moranha",
    "state_id": 4027,
    "state_code": "AS",
    "country_id": 101,
    "country_code": "IN",
    "latitude": "27.18735000",
    "longitude": "94.91557000",
    "native": null,
    "timezone": null,
    "translations": {}
  },
  {
    "id": 132995,
    "name": "Morigaon",
    "state_id": 4027,
    "state_code": "AS",
    "country_id": 101,
    "country_code": "IN",
    "latitude": "26.25213000",
    "longitude": "92.34238000",
    "native": null,
    "timezone": null,
    "translations": {}
  },
  {
    "id": 133110,
    "name": "Nagaon",
    "state_id": 4027,
    "state_code": "AS",
    "country_id": 101,
    "country_code": "IN",
    "latitude": "26.35037000",
    "longitude": "92.69225000",
    "native": null,
    "timezone": null,
    "translations": {}
  },
  {
    "id": 133122,
    "name": "Nahorkatiya",
    "state_id": 4027,
    "state_code": "AS",
    "country_id": 101,
    "country_code": "IN",
    "latitude": "27.28912000",
    "longitude": "95.34180000",
    "native": null,
    "timezone": null,
    "translations": {}
  },
  {
    "id": 133130,
    "name": "Nalbari",
    "state_id": 4027,
    "state_code": "AS",
    "country_id": 101,
    "country_code": "IN",
    "latitude": "26.50000000",
    "longitude": "91.40000000",
    "native": null,
    "timezone": null,
    "translations": {}
  },
  {
    "id": 133266,
    "name": "Namrup",
    "state_id": 4027,
    "state_code": "AS",
    "country_id": 101,
    "country_code": "IN",
    "latitude": "27.19395000",
    "longitude": "95.31929000",
    "native": null,
    "timezone": null,
    "translations": {}
  },
  {
    "id": 133284,
    "name": "Nazira",
    "state_id": 4027,
    "state_code": "AS",
    "country_id": 101,
    "country_code": "IN",
    "latitude": "26.91649000",
    "longitude": "94.73611000",
    "native": null,
    "timezone": null,
    "translations": {}
  },
  {
    "id": 133239,
    "name": "North Guwahati",
    "state_id": 4027,
    "state_code": "AS",
    "country_id": 101,
    "country_code": "IN",
    "latitude": "26.19749000",
    "longitude": "91.72020000",
    "native": null,
    "timezone": null,
    "translations": {}
  },
  {
    "id": 133240,
    "name": "North Lakhimpur",
    "state_id": 4027,
    "state_code": "AS",
    "country_id": 101,
    "country_code": "IN",
    "latitude": "27.23517000",
    "longitude": "94.10357000",
    "native": null,
    "timezone": null,
    "translations": {}
  },
  {
    "id": 133248,
    "name": "Numaligarh",
    "state_id": 4027,
    "state_code": "AS",
    "country_id": 101,
    "country_code": "IN",
    "latitude": "26.62249000",
    "longitude": "93.72225000",
    "native": null,
    "timezone": null,
    "translations": {}
  },
  {
    "id": 133341,
    "name": "Palasbari",
    "state_id": 4027,
    "state_code": "AS",
    "country_id": 101,
    "country_code": "IN",
    "latitude": "26.12388000",
    "longitude": "91.53974000",
    "native": null,
    "timezone": null,
    "translations": {}
  },
  {
    "id": 133584,
    "name": "Raha",
    "state_id": 4027,
    "state_code": "AS",
    "country_id": 101,
    "country_code": "IN",
    "latitude": "26.23333000",
    "longitude": "92.51667000",
    "native": null,
    "timezone": null,
    "translations": {}
  },
  {
    "id": 133610,
    "name": "Rangapara",
    "state_id": 4027,
    "state_code": "AS",
    "country_id": 101,
    "country_code": "IN",
    "latitude": "26.83772000",
    "longitude": "92.66876000",
    "native": null,
    "timezone": null,
    "translations": {}
  },
  {
    "id": 133608,
    "name": "Rangia",
    "state_id": 4027,
    "state_code": "AS",
    "country_id": 101,
    "country_code": "IN",
    "latitude": "26.44931000",
    "longitude": "91.61356000",
    "native": null,
    "timezone": null,
    "translations": {}
  },
  {
    "id": 133798,
    "name": "Sapatgram",
    "state_id": 4027,
    "state_code": "AS",
    "country_id": 101,
    "country_code": "IN",
    "latitude": "26.33732000",
    "longitude": "90.12360000",
    "native": null,
    "timezone": null,
    "translations": {}
  },
  {
    "id": 133809,
    "name": "Sarupathar",
    "state_id": 4027,
    "state_code": "AS",
    "country_id": 101,
    "country_code": "IN",
    "latitude": "26.20600000",
    "longitude": "96.81000000",
    "native": null,
    "timezone": null,
    "translations": {}
  },
  {
    "id": 133916,
    "name": "Sibsagar",
    "state_id": 4027,
    "state_code": "AS",
    "country_id": 101,
    "country_code": "IN",
    "latitude": "26.98427000",
    "longitude": "94.63784000",
    "native": null,
    "timezone": null,
    "translations": {}
  },
  {
    "id": 133934,
    "name": "Silapathar",
    "state_id": 4027,
    "state_code": "AS",
    "country_id": 101,
    "country_code": "IN",
    "latitude": "27.59441000",
    "longitude": "94.72402000",
    "native": null,
    "timezone": null,
    "translations": {}
  },
  {
    "id": 133935,
    "name": "Silchar",
    "state_id": 4027,
    "state_code": "AS",
    "country_id": 101,
    "country_code": "IN",
    "latitude": "24.82733000",
    "longitude": "92.79787000",
    "native": null,
    "timezone": null,
    "translations": {}
  },
  {
    "id": 133979,
    "name": "Soalkuchi",
    "state_id": 4027,
    "state_code": "AS",
    "country_id": 101,
    "country_code": "IN",
    "latitude": "26.16806000",
    "longitude": "91.57111000",
    "native": null,
    "timezone": null,
    "translations": {}
  },
  {
    "id": 133998,
    "name": "Sonari",
    "state_id": 4027,
    "state_code": "AS",
    "country_id": 101,
    "country_code": "IN",
    "latitude": "27.02462000",
    "longitude": "95.01629000",
    "native": null,
    "timezone": null,
    "translations": {}
  },
  {
    "id": 133996,
    "name": "Sonitpur",
    "state_id": 4027,
    "state_code": "AS",
    "country_id": 101,
    "country_code": "IN",
    "latitude": "26.76748000",
    "longitude": "92.96425000",
    "native": null,
    "timezone": null,
    "translations": {}
  },
  {
    "id": 134003,
    "name": "Sorbhog",
    "state_id": 4027,
    "state_code": "AS",
    "country_id": 101,
    "country_code": "IN",
    "latitude": "26.48612000",
    "longitude": "90.88590000",
    "native": null,
    "timezone": null,
    "translations": {}
  },
  {
    "id": 134134,
    "name": "Tezpur",
    "state_id": 4027,
    "state_code": "AS",
    "country_id": 101,
    "country_code": "IN",
    "latitude": "26.63333000",
    "longitude": "92.80000000",
    "native": null,
    "timezone": null,
    "translations": {}
  },
  {
    "id": 134175,
    "name": "Tinsukia",
    "state_id": 4027,
    "state_code": "AS",
    "country_id": 101,
    "country_code": "IN",
    "latitude": "27.60000000",
    "longitude": "95.60000000",
    "native": null,
    "timezone": null,
    "translations": {}
  },
  {
    "id": 134203,
    "name": "Titabar",
    "state_id": 4027,
    "state_code": "AS",
    "country_id": 101,
    "country_code": "IN",
    "latitude": "26.60140000",
    "longitude": "94.20386000",
    "native": null,
    "timezone": null,
    "translations": {}
  },
  {
    "id": 134252,
    "name": "Udalguri",
    "state_id": 4027,
    "state_code": "AS",
    "country_id": 101,
    "country_code": "IN",
    "latitude": "26.75367000",
    "longitude": "92.10215000",
    "native": null,
    "timezone": null,
    "translations": {}
  }
]