[
  {
    "id": 39243,
    "name": "Abondance",
    "state_id": 4798,
    "state_code": "ARA",
    "country_id": 75,
    "country_code": "FR",
    "latitude": "46.27874000",
    "longitude": "6.72105000",
    "native": null,
    "timezone": null,
    "translations": {}
  },
  {
    "id": 39246,
    "name": "Abrest",
    "state_id": 4798,
    "state_code": "ARA",
    "country_id": 75,
    "country_code": "FR",
    "latitude": "46.09859000",
    "longitude": "3.44461000",
    "native": null,
    "timezone": null,
    "translations": {}
  },
  {
    "id": 39273,
    "name": "Aigueblanche",
    "state_id": 4798,
    "state_code": "ARA",
    "country_id": 75,
    "country_code": "FR",
    "latitude": "45.50455000",
    "longitude": "6.50184000",
    "native": null,
    "timezone": null,
    "translations": {}
  },
  {
    "id": 39275,
    "name": "Aigueperse",
    "state_id": 4798,
    "state_code": "ARA",
    "country_id": 75,
    "country_code": "FR",
    "latitude": "46.02255000",
    "longitude": "3.20228000",
    "native": null,
    "timezone": null,
    "translations": {}
  },
  {
    "id": 39285,
    "name": "Aime",
    "state_id": 4798,
    "state_code": "ARA",
    "country_id": 75,
    "country_code": "FR",
    "latitude": "45.55559000",
    "longitude": "6.65042000",
    "native": null,
    "timezone": null,
    "translations": {}
  },
  {
    "id": 39286,
    "name": "Ainay-le-Château",
    "state_id": 4798,
    "state_code": "ARA",
    "country_id": 75,
    "country_code": "FR",
    "latitude": "46.71125000",
    "longitude": "2.69238000",
    "native": null,
    "timezone": null,
    "translations": {}
  },
  {
    "id": 39291,
    "name": "Aiton",
    "state_id": 4798,
    "state_code": "ARA",
    "country_id": 75,
    "country_code": "FR",
    "latitude": "45.56123000",
    "longitude": "6.25955000",
    "native": null,
    "timezone": null,
    "translations": {}
  },
  {
    "id": 39295,
    "name": "Aix-les-Bains",
    "state_id": 4798,
    "state_code": "ARA",
    "country_id": 75,
    "country_code": "FR",
    "latitude": "45.69173000",
    "longitude": "5.90863000",
    "native": null,
    "timezone": null,
    "translations": {}
  },
  {
    "id": 39301,
    "name": "Alba-la-Romaine",
    "state_id": 4798,
    "state_code": "ARA",
    "country_id": 75,
    "country_code": "FR",
    "latitude": "44.55537000",
    "longitude": "4.59846000",
    "native": null,
    "timezone": null,
    "translations": {}
  },
  {
    "id": 39302,
    "name": "Albens",
    "state_id": 4798,
    "state_code": "ARA",
    "country_id": 75,
    "country_code": "FR",
    "latitude": "45.78786000",
    "longitude": "5.94528000",
    "native": null,
    "timezone": null,
    "translations": {}
  },
  {
    "id": 39304,
    "name": "Albertville",
    "state_id": 4798,
    "state_code": "ARA",
    "country_id": 75,
    "country_code": "FR",
    "latitude": "45.67452000",
    "longitude": "6.39061000",
    "native": null,
    "timezone": null,
    "translations": {}
  },
  {
    "id": 39307,
    "name": "Albigny-sur-Saône",
    "state_id": 4798,
    "state_code": "ARA",
    "country_id": 75,
    "country_code": "FR",
    "latitude": "45.86667000",
    "longitude": "4.83333000",
    "native": null,
    "timezone": null,
    "translations": {}
  },
  {
    "id": 39309,
    "name": "Alby-sur-Chéran",
    "state_id": 4798,
    "state_code": "ARA",
    "country_id": 75,
    "country_code": "FR",
    "latitude": "45.81667000",
    "longitude": "6.01667000",
    "native": null,
    "timezone": null,
    "translations": {}
  },
  {
    "id": 39315,
    "name": "Alissas",
    "state_id": 4798,
    "state_code": "ARA",
    "country_id": 75,
    "country_code": "FR",
    "latitude": "44.71253000",
    "longitude": "4.62936000",
    "native": null,
    "timezone": null,
    "translations": {}
  },
  {
    "id": 39316,
    "name": "Alixan",
    "state_id": 4798,
    "state_code": "ARA",
    "country_id": 75,
    "country_code": "FR",
    "latitude": "44.97426000",
    "longitude": "5.02850000",
    "native": null,
    "timezone": null,
    "translations": {}
  },
  {
    "id": 39319,
    "name": "Allan",
    "state_id": 4798,
    "state_code": "ARA",
    "country_id": 75,
    "country_code": "FR",
    "latitude": "44.49713000",
    "longitude": "4.79068000",
    "native": null,
    "timezone": null,
    "translations": {}
  },
  {
    "id": 39320,
    "name": "Allanche",
    "state_id": 4798,
    "state_code": "ARA",
    "country_id": 75,
    "country_code": "FR",
    "latitude": "45.22907000",
    "longitude": "2.93449000",
    "native": null,
    "timezone": null,
    "translations": {}
  },
  {
    "id": 39333,
    "name": "Allègre",
    "state_id": 4798,
    "state_code": "ARA",
    "country_id": 75,
    "country_code": "FR",
    "latitude": "45.19959000",
    "longitude": "3.71174000",
    "native": null,
    "timezone": null,
    "translations": {}
  },
  {
    "id": 39325,
    "name": "Allevard",
    "state_id": 4798,
    "state_code": "ARA",
    "country_id": 75,
    "country_code": "FR",
    "latitude": "45.39449000",
    "longitude": "6.07519000",
    "native": null,
    "timezone": null,
    "translations": {}
  },
  {
    "id": 39326,
    "name": "Allex",
    "state_id": 4798,
    "state_code": "ARA",
    "country_id": 75,
    "country_code": "FR",
    "latitude": "44.76765000",
    "longitude": "4.89837000",
    "native": null,
    "timezone": null,
    "translations": {}
  },
  {
    "id": 39328,
    "name": "Allières-et-Risset",
    "state_id": 4798,
    "state_code": "ARA",
    "country_id": 75,
    "country_code": "FR",
    "latitude": "45.09934000",
    "longitude": "5.67924000",
    "native": null,
    "timezone": null,
    "translations": {}
  },
  {
    "id": 39327,
    "name": "Allinges",
    "state_id": 4798,
    "state_code": "ARA",
    "country_id": 75,
    "country_code": "FR",
    "latitude": "46.33547000",
    "longitude": "6.46350000",
    "native": null,
    "timezone": null,
    "translations": {}
  },
  {
    "id": 39331,
    "name": "Allonzier-la-Caille",
    "state_id": 4798,
    "state_code": "ARA",
    "country_id": 75,
    "country_code": "FR",
    "latitude": "46.00117000",
    "longitude": "6.11865000",
    "native": null,
    "timezone": null,
    "translations": {}
  },
  {
    "id": 39344,
    "name": "Amancy",
    "state_id": 4798,
    "state_code": "ARA",
    "country_id": 75,
    "country_code": "FR",
    "latitude": "46.07294000",
    "longitude": "6.32890000",
    "native": null,
    "timezone": null,
    "translations": {}
  },
  {
    "id": 39360,
    "name": "Ambérieu-en-Bugey",
    "state_id": 4798,
    "state_code": "ARA",
    "country_id": 75,
    "country_code": "FR",
    "latitude": "45.95932000",
    "longitude": "5.35160000",
    "native": null,
    "timezone": null,
    "translations": {}
  },
  {
    "id": 39361,
    "name": "Ambérieux-en-Dombes",
    "state_id": 4798,
    "state_code": "ARA",
    "country_id": 75,
    "country_code": "FR",
    "latitude": "45.99894000",
    "longitude": "4.90126000",
    "native": null,
    "timezone": null,
    "translations": {}
  },
  {
    "id": 39349,
    "name": "Ambert",
    "state_id": 4798,
    "state_code": "ARA",
    "country_id": 75,
    "country_code": "FR",
    "latitude": "45.54944000",
    "longitude": "3.74164000",
    "native": null,
    "timezone": null,
    "translations": {}
  },
  {
    "id": 39350,
    "name": "Ambierle",
    "state_id": 4798,
    "state_code": "ARA",
    "country_id": 75,
    "country_code": "FR",
    "latitude": "46.10558000",
    "longitude": "3.89323000",
    "native": null,
    "timezone": null,
    "translations": {}
  },
  {
    "id": 39358,
    "name": "Ambronay",
    "state_id": 4798,
    "state_code": "ARA",
    "country_id": 75,
    "country_code": "FR",
    "latitude": "46.00467000",
    "longitude": "5.36273000",
    "native": null,
    "timezone": null,
    "translations": {}
  },
  {
    "id": 39369,
    "name": "Amplepuis",
    "state_id": 4798,
    "state_code": "ARA",
    "country_id": 75,
    "country_code": "FR",
    "latitude": "45.97260000",
    "longitude": "4.33030000",
    "native": null,
    "timezone": null,
    "translations": {}
  },
  {
    "id": 39370,
    "name": "Ampuis",
    "state_id": 4798,
    "state_code": "ARA",
    "country_id": 75,
    "country_code": "FR",
    "latitude": "45.48925000",
    "longitude": "4.81001000",
    "native": null,
    "timezone": null,
    "translations": {}
  },
  {
    "id": 39375,
    "name": "Ancône",
    "state_id": 4798,
    "state_code": "ARA",
    "country_id": 75,
    "country_code": "FR",
    "latitude": "44.58107000",
    "longitude": "4.72711000",
    "native": null,
    "timezone": null,
    "translations": {}
  },
  {
    "id": 39376,
    "name": "Andance",
    "state_id": 4798,
    "state_code": "ARA",
    "country_id": 75,
    "country_code": "FR",
    "latitude": "45.24059000",
    "longitude": "4.79916000",
    "native": null,
    "timezone": null,
    "translations": {}
  },
  {
    "id": 39377,
    "name": "Andancette",
    "state_id": 4798,
    "state_code": "ARA",
    "country_id": 75,
    "country_code": "FR",
    "latitude": "45.24858000",
    "longitude": "4.80860000",
    "native": null,
    "timezone": null,
    "translations": {}
  },
  {
    "id": 39391,
    "name": "Andrézieux-Bouthéon",
    "state_id": 4798,
    "state_code": "ARA",
    "country_id": 75,
    "country_code": "FR",
    "latitude": "45.52625000",
    "longitude": "4.26021000",
    "native": null,
    "timezone": null,
    "translations": {}
  },
  {
    "id": 39414,
    "name": "Annecy",
    "state_id": 4798,
    "state_code": "ARA",
    "country_id": 75,
    "country_code": "FR",
    "latitude": "45.90878000",
    "longitude": "6.12565000",
    "native": null,
    "timezone": null,
    "translations": {}
  },
  {
    "id": 39415,
    "name": "Annecy-le-Vieux",
    "state_id": 4798,
    "state_code": "ARA",
    "country_id": 75,
    "country_code": "FR",
    "latitude": "45.91971000",
    "longitude": "6.14393000",
    "native": null,
    "timezone": null,
    "translations": {}
  },
  {
    "id": 39416,
    "name": "Annemasse",
    "state_id": 4798,
    "state_code": "ARA",
    "country_id": 75,
    "country_code": "FR",
    "latitude": "46.19439000",
    "longitude": "6.23775000",
    "native": null,
    "timezone": null,
    "translations": {}
  },
  {
    "id": 39420,
    "name": "Anneyron",
    "state_id": 4798,
    "state_code": "ARA",
    "country_id": 75,
    "country_code": "FR",
    "latitude": "45.27220000",
    "longitude": "4.88626000",
    "native": null,
    "timezone": null,
    "translations": {}
  },
  {
    "id": 39423,
    "name": "Annonay",
    "state_id": 4798,
    "state_code": "ARA",
    "country_id": 75,
    "country_code": "FR",
    "latitude": "45.23992000",
    "longitude": "4.67070000",
    "native": null,
    "timezone": null,
    "translations": {}
  },
  {
    "id": 39428,
    "name": "Anse",
    "state_id": 4798,
    "state_code": "ARA",
    "country_id": 75,
    "country_code": "FR",
    "latitude": "45.93553000",
    "longitude": "4.71933000",
    "native": null,
    "timezone": null,
    "translations": {}
  },
  {
    "id": 39431,
    "name": "Anthy-sur-Léman",
    "state_id": 4798,
    "state_code": "ARA",
    "country_id": 75,
    "country_code": "FR",
    "latitude": "46.35534000",
    "longitude": "6.42735000",
    "native": null,
    "timezone": null,
    "translations": {}
  },
  {
    "id": 39440,
    "name": "Aoste",
    "state_id": 4798,
    "state_code": "ARA",
    "country_id": 75,
    "country_code": "FR",
    "latitude": "45.59423000",
    "longitude": "5.60712000",
    "native": null,
    "timezone": null,
    "translations": {}
  },
  {
    "id": 39441,
    "name": "Aouste-sur-Sye",
    "state_id": 4798,
    "state_code": "ARA",
    "country_id": 75,
    "country_code": "FR",
    "latitude": "44.71813000",
    "longitude": "5.05422000",
    "native": null,
    "timezone": null,
    "translations": {}
  },
  {
    "id": 39444,
    "name": "Apprieu",
    "state_id": 4798,
    "state_code": "ARA",
    "country_id": 75,
    "country_code": "FR",
    "latitude": "45.39591000",
    "longitude": "5.49993000",
    "native": null,
    "timezone": null,
    "translations": {}
  },
  {
    "id": 39537,
    "name": "Arâches-la-Frasse",
    "state_id": 4798,
    "state_code": "ARA",
    "country_id": 75,
    "country_code": "FR",
    "latitude": "46.04297000",
    "longitude": "6.63145000",
    "native": null,
    "timezone": null,
    "translations": {}
  },
  {
    "id": 39448,
    "name": "Arbent",
    "state_id": 4798,
    "state_code": "ARA",
    "country_id": 75,
    "country_code": "FR",
    "latitude": "46.29221000",
    "longitude": "5.67890000",
    "native": null,
    "timezone": null,
    "translations": {}
  },
  {
    "id": 39460,
    "name": "Archamps",
    "state_id": 4798,
    "state_code": "ARA",
    "country_id": 75,
    "country_code": "FR",
    "latitude": "46.13195000",
    "longitude": "6.12551000",
    "native": null,
    "timezone": null,
    "translations": {}
  },
  {
    "id": 39471,
    "name": "Arenthon",
    "state_id": 4798,
    "state_code": "ARA",
    "country_id": 75,
    "country_code": "FR",
    "latitude": "46.10697000",
    "longitude": "6.33316000",
    "native": null,
    "timezone": null,
    "translations": {}
  },
  {
    "id": 39487,
    "name": "Arlanc",
    "state_id": 4798,
    "state_code": "ARA",
    "country_id": 75,
    "country_code": "FR",
    "latitude": "45.41389000",
    "longitude": "3.72528000",
    "native": null,
    "timezone": null,
    "translations": {}
  },
  {
    "id": 39496,
    "name": "Armoy",
    "state_id": 4798,
    "state_code": "ARA",
    "country_id": 75,
    "country_code": "FR",
    "latitude": "46.35079000",
    "longitude": "6.51703000",
    "native": null,
    "timezone": null,
    "translations": {}
  },
  {
    "id": 39500,
    "name": "Arnas",
    "state_id": 4798,
    "state_code": "ARA",
    "country_id": 75,
    "country_code": "FR",
    "latitude": "46.02361000",
    "longitude": "4.70830000",
    "native": null,
    "timezone": null,
    "translations": {}
  },
  {
    "id": 39507,
    "name": "Arpajon-sur-Cère",
    "state_id": 4798,
    "state_code": "ARA",
    "country_id": 75,
    "country_code": "FR",
    "latitude": "44.90391000",
    "longitude": "2.45664000",
    "native": null,
    "timezone": null,
    "translations": {}
  },
  {
    "id": 39514,
    "name": "Ars-sur-Formans",
    "state_id": 4798,
    "state_code": "ARA",
    "country_id": 75,
    "country_code": "FR",
    "latitude": "45.99491000",
    "longitude": "4.81986000",
    "native": null,
    "timezone": null,
    "translations": {}
  },
  {
    "id": 39519,
    "name": "Artas",
    "state_id": 4798,
    "state_code": "ARA",
    "country_id": 75,
    "country_code": "FR",
    "latitude": "45.53717000",
    "longitude": "5.16352000",
    "native": null,
    "timezone": null,
    "translations": {}
  },
  {
    "id": 39520,
    "name": "Artemare",
    "state_id": 4798,
    "state_code": "ARA",
    "country_id": 75,
    "country_code": "FR",
    "latitude": "45.87441000",
    "longitude": "5.69366000",
    "native": null,
    "timezone": null,
    "translations": {}
  },
  {
    "id": 39522,
    "name": "Arthaz-Pont-Notre-Dame",
    "state_id": 4798,
    "state_code": "ARA",
    "country_id": 75,
    "country_code": "FR",
    "latitude": "46.15941000",
    "longitude": "6.26598000",
    "native": null,
    "timezone": null,
    "translations": {}
  },
  {
    "id": 39563,
    "name": "Attignat",
    "state_id": 4798,
    "state_code": "ARA",
    "country_id": 75,
    "country_code": "FR",
    "latitude": "46.28562000",
    "longitude": "5.16164000",
    "native": null,
    "timezone": null,
    "translations": {}
  },
  {
    "id": 39569,
    "name": "Aubenas",
    "state_id": 4798,
    "state_code": "ARA",
    "country_id": 75,
    "country_code": "FR",
    "latitude": "44.61975000",
    "longitude": "4.39033000",
    "native": null,
    "timezone": null,
    "translations": {}
  },
  {
    "id": 39572,
    "name": "Auberives-sur-Varèze",
    "state_id": 4798,
    "state_code": "ARA",
    "country_id": 75,
    "country_code": "FR",
    "latitude": "45.42080000",
    "longitude": "4.81914000",
    "native": null,
    "timezone": null,
    "translations": {}
  },
  {
    "id": 39585,
    "name": "Aubière",
    "state_id": 4798,
    "state_code": "ARA",
    "country_id": 75,
    "country_code": "FR",
    "latitude": "45.75082000",
    "longitude": "3.11078000",
    "native": null,
    "timezone": null,
    "translations": {}
  },
  {
    "id": 39607,
    "name": "Aulnat",
    "state_id": 4798,
    "state_code": "ARA",
    "country_id": 75,
    "country_code": "FR",
    "latitude": "45.79929000",
    "longitude": "3.16743000",
    "native": null,
    "timezone": null,
    "translations": {}
  },
  {
    "id": 39624,
    "name": "Aurec-sur-Loire",
    "state_id": 4798,
    "state_code": "ARA",
    "country_id": 75,
    "country_code": "FR",
    "latitude": "45.36908000",
    "longitude": "4.20161000",
    "native": null,
    "timezone": null,
    "translations": {}
  },
  {
    "id": 39630,
    "name": "Aurillac",
    "state_id": 4798,
    "state_code": "ARA",
    "country_id": 75,
    "country_code": "FR",
    "latitude": "44.92539000",
    "longitude": "2.43983000",
    "native": null,
    "timezone": null,
    "translations": {}
  },
  {
    "id": 39637,
    "name": "Autrans",
    "state_id": 4798,
    "state_code": "ARA",
    "country_id": 75,
    "country_code": "FR",
    "latitude": "45.17605000",
    "longitude": "5.54271000",
    "native": null,
    "timezone": null,
    "translations": {}
  },
  {
    "id": 39650,
    "name": "Auzat-la-Combelle",
    "state_id": 4798,
    "state_code": "ARA",
    "country_id": 75,
    "country_code": "FR",
    "latitude": "45.45224000",
    "longitude": "3.31825000",
    "native": null,
    "timezone": null,
    "translations": {}
  },
  {
    "id": 39659,
    "name": "Aveize",
    "state_id": 4798,
    "state_code": "ARA",
    "country_id": 75,
    "country_code": "FR",
    "latitude": "45.68243000",
    "longitude": "4.47786000",
    "native": null,
    "timezone": null,
    "translations": {}
  },
  {
    "id": 39660,
    "name": "Aveizieux",
    "state_id": 4798,
    "state_code": "ARA",
    "country_id": 75,
    "country_code": "FR",
    "latitude": "45.56500000",
    "longitude": "4.37071000",
    "native": null,
    "timezone": null,
    "translations": {}
  },
  {
    "id": 39663,
    "name": "Avermes",
    "state_id": 4798,
    "state_code": "ARA",
    "country_id": 75,
    "country_code": "FR",
    "latitude": "46.58774000",
    "longitude": "3.30720000",
    "native": null,
    "timezone": null,
    "translations": {}
  },
  {
    "id": 39685,
    "name": "Aydat",
    "state_id": 4798,
    "state_code": "ARA",
    "country_id": 75,
    "country_code": "FR",
    "latitude": "45.66022000",
    "longitude": "2.97316000",
    "native": null,
    "timezone": null,
    "translations": {}
  },
  {
    "id": 39690,
    "name": "Ayse",
    "state_id": 4798,
    "state_code": "ARA",
    "country_id": 75,
    "country_code": "FR",
    "latitude": "46.08135000",
    "longitude": "6.44550000",
    "native": null,
    "timezone": null,
    "translations": {}
  },
  {
    "id": 40409,
    "name": "Bâgé-la-Ville",
    "state_id": 4798,
    "state_code": "ARA",
    "country_id": 75,
    "country_code": "FR",
    "latitude": "46.31567000",
    "longitude": "4.94086000",
    "native": null,
    "timezone": null,
    "translations": {}
  },
  {
    "id": 39734,
    "name": "Bains",
    "state_id": 4798,
    "state_code": "ARA",
    "country_id": 75,
    "country_code": "FR",
    "latitude": "45.00956000",
    "longitude": "3.77503000",
    "native": null,
    "timezone": null,
    "translations": {}
  },
  {
    "id": 39744,
    "name": "Balan",
    "state_id": 4798,
    "state_code": "ARA",
    "country_id": 75,
    "country_code": "FR",
    "latitude": "45.83416000",
    "longitude": "5.09930000",
    "native": null,
    "timezone": null,
    "translations": {}
  },
  {
    "id": 39748,
    "name": "Balbigny",
    "state_id": 4798,
    "state_code": "ARA",
    "country_id": 75,
    "country_code": "FR",
    "latitude": "45.81913000",
    "longitude": "4.19030000",
    "native": null,
    "timezone": null,
    "translations": {}
  },
  {
    "id": 39751,
    "name": "Ballaison",
    "state_id": 4798,
    "state_code": "ARA",
    "country_id": 75,
    "country_code": "FR",
    "latitude": "46.29842000",
    "longitude": "6.32765000",
    "native": null,
    "timezone": null,
    "translations": {}
  },
  {
    "id": 39773,
    "name": "Barberaz",
    "state_id": 4798,
    "state_code": "ARA",
    "country_id": 75,
    "country_code": "FR",
    "latitude": "45.56179000",
    "longitude": "5.94306000",
    "native": null,
    "timezone": null,
    "translations": {}
  },
  {
    "id": 39776,
    "name": "Barby",
    "state_id": 4798,
    "state_code": "ARA",
    "country_id": 75,
    "country_code": "FR",
    "latitude": "45.56810000",
    "longitude": "5.97966000",
    "native": null,
    "timezone": null,
    "translations": {}
  },
  {
    "id": 39791,
    "name": "Barraux",
    "state_id": 4798,
    "state_code": "ARA",
    "country_id": 75,
    "country_code": "FR",
    "latitude": "45.43176000",
    "longitude": "5.97964000",
    "native": null,
    "timezone": null,
    "translations": {}
  },
  {
    "id": 39796,
    "name": "Bas-en-Basset",
    "state_id": 4798,
    "state_code": "ARA",
    "country_id": 75,
    "country_code": "FR",
    "latitude": "45.30599000",
    "longitude": "4.10912000",
    "native": null,
    "timezone": null,
    "translations": {}
  },
  {
    "id": 39800,
    "name": "Bassens",
    "state_id": 4798,
    "state_code": "ARA",
    "country_id": 75,
    "country_code": "FR",
    "latitude": "45.57555000",
    "longitude": "5.93900000",
    "native": null,
    "timezone": null,
    "translations": {}
  },
  {
    "id": 39840,
    "name": "Beauchastel",
    "state_id": 4798,
    "state_code": "ARA",
    "country_id": 75,
    "country_code": "FR",
    "latitude": "44.82587000",
    "longitude": "4.80305000",
    "native": null,
    "timezone": null,
    "translations": {}
  },
  {
    "id": 39843,
    "name": "Beaucroissant",
    "state_id": 4798,
    "state_code": "ARA",
    "country_id": 75,
    "country_code": "FR",
    "latitude": "45.34276000",
    "longitude": "5.47102000",
    "native": null,
    "timezone": null,
    "translations": {}
  },
  {
    "id": 39846,
    "name": "Beaufort",
    "state_id": 4798,
    "state_code": "ARA",
    "country_id": 75,
    "country_code": "FR",
    "latitude": "45.71915000",
    "longitude": "6.57331000",
    "native": null,
    "timezone": null,
    "translations": {}
  },
  {
    "id": 39849,
    "name": "Beaujeu",
    "state_id": 4798,
    "state_code": "ARA",
    "country_id": 75,
    "country_code": "FR",
    "latitude": "46.15428000",
    "longitude": "4.58826000",
    "native": null,
    "timezone": null,
    "translations": {}
  },
  {
    "id": 39856,
    "name": "Beaulon",
    "state_id": 4798,
    "state_code": "ARA",
    "country_id": 75,
    "country_code": "FR",
    "latitude": "46.60156000",
    "longitude": "3.67314000",
    "native": null,
    "timezone": null,
    "translations": {}
  },
  {
    "id": 39859,
    "name": "Beaumont",
    "state_id": 4798,
    "state_code": "ARA",
    "country_id": 75,
    "country_code": "FR",
    "latitude": "45.75165000",
    "longitude": "3.08294000",
    "native": null,
    "timezone": null,
    "translations": {}
  },
  {
    "id": 39870,
    "name": "Beaumont-lès-Valence",
    "state_id": 4798,
    "state_code": "ARA",
    "country_id": 75,
    "country_code": "FR",
    "latitude": "44.86203000",
    "longitude": "4.94309000",
    "native": null,
    "timezone": null,
    "translations": {}
  },
  {
    "id": 39862,
    "name": "Beaumont-Monteux",
    "state_id": 4798,
    "state_code": "ARA",
    "country_id": 75,
    "country_code": "FR",
    "latitude": "45.01980000",
    "longitude": "4.91883000",
    "native": null,
    "timezone": null,
    "translations": {}
  },
  {
    "id": 39882,
    "name": "Beaurepaire",
    "state_id": 4798,
    "state_code": "ARA",
    "country_id": 75,
    "country_code": "FR",
    "latitude": "45.33658000",
    "longitude": "5.04878000",
    "native": null,
    "timezone": null,
    "translations": {}
  },
  {
    "id": 39885,
    "name": "Beausemblant",
    "state_id": 4798,
    "state_code": "ARA",
    "country_id": 75,
    "country_code": "FR",
    "latitude": "45.21706000",
    "longitude": "4.83241000",
    "native": null,
    "timezone": null,
    "translations": {}
  },
  {
    "id": 39891,
    "name": "Beauvallon",
    "state_id": 4798,
    "state_code": "ARA",
    "country_id": 75,
    "country_code": "FR",
    "latitude": "44.85593000",
    "longitude": "4.90756000",
    "native": null,
    "timezone": null,
    "translations": {}
  },
  {
    "id": 39892,
    "name": "Beauvoir-de-Marc",
    "state_id": 4798,
    "state_code": "ARA",
    "country_id": 75,
    "country_code": "FR",
    "latitude": "45.52009000",
    "longitude": "5.07906000",
    "native": null,
    "timezone": null,
    "translations": {}
  },
  {
    "id": 39897,
    "name": "Beauzac",
    "state_id": 4798,
    "state_code": "ARA",
    "country_id": 75,
    "country_code": "FR",
    "latitude": "45.25913000",
    "longitude": "4.09874000",
    "native": null,
    "timezone": null,
    "translations": {}
  },
  {
    "id": 40421,
    "name": "Béligneux",
    "state_id": 4798,
    "state_code": "ARA",
    "country_id": 75,
    "country_code": "FR",
    "latitude": "45.86775000",
    "longitude": "5.12747000",
    "native": null,
    "timezone": null,
    "translations": {}
  },
  {
    "id": 39911,
    "name": "Belle-Plagne",
    "state_id": 4798,
    "state_code": "ARA",
    "country_id": 75,
    "country_code": "FR",
    "latitude": "45.50932000",
    "longitude": "6.70685000",
    "native": null,
    "timezone": null,
    "translations": {}
  },
  {
    "id": 39914,
    "name": "Bellegarde-en-Forez",
    "state_id": 4798,
    "state_code": "ARA",
    "country_id": 75,
    "country_code": "FR",
    "latitude": "45.64469000",
    "longitude": "4.29721000",
    "native": null,
    "timezone": null,
    "translations": {}
  },
  {
    "id": 39915,
    "name": "Bellegarde-sur-Valserine",
    "state_id": 4798,
    "state_code": "ARA",
    "country_id": 75,
    "country_code": "FR",
    "latitude": "46.10787000",
    "longitude": "5.82421000",
    "native": null,
    "timezone": null,
    "translations": {}
  },
  {
    "id": 39916,
    "name": "Bellenaves",
    "state_id": 4798,
    "state_code": "ARA",
    "country_id": 75,
    "country_code": "FR",
    "latitude": "46.20045000",
    "longitude": "3.07995000",
    "native": null,
    "timezone": null,
    "translations": {}
  },
  {
    "id": 39919,
    "name": "Bellerive-sur-Allier",
    "state_id": 4798,
    "state_code": "ARA",
    "country_id": 75,
    "country_code": "FR",
    "latitude": "46.11652000",
    "longitude": "3.40406000",
    "native": null,
    "timezone": null,
    "translations": {}
  },
  {
    "id": 39921,
    "name": "Bellevaux",
    "state_id": 4798,
    "state_code": "ARA",
    "country_id": 75,
    "country_code": "FR",
    "latitude": "46.25875000",
    "longitude": "6.53351000",
    "native": null,
    "timezone": null,
    "translations": {}
  },
  {
    "id": 39922,
    "name": "Belleville",
    "state_id": 4798,
    "state_code": "ARA",
    "country_id": 75,
    "country_code": "FR",
    "latitude": "46.10867000",
    "longitude": "4.74920000",
    "native": null,
    "timezone": null,
    "translations": {}
  },
  {
    "id": 39927,
    "name": "Belley",
    "state_id": 4798,
    "state_code": "ARA",
    "country_id": 75,
    "country_code": "FR",
    "latitude": "45.75917000",
    "longitude": "5.68813000",
    "native": null,
    "timezone": null,
    "translations": {}
  },
  {
    "id": 39928,
    "name": "Bellignat",
    "state_id": 4798,
    "state_code": "ARA",
    "country_id": 75,
    "country_code": "FR",
    "latitude": "46.24237000",
    "longitude": "5.62843000",
    "native": null,
    "timezone": null,
    "translations": {}
  },
  {
    "id": 39932,
    "name": "Belmont-de-la-Loire",
    "state_id": 4798,
    "state_code": "ARA",
    "country_id": 75,
    "country_code": "FR",
    "latitude": "46.16596000",
    "longitude": "4.34737000",
    "native": null,
    "timezone": null,
    "translations": {}
  },
  {
    "id": 39955,
    "name": "Bernin",
    "state_id": 4798,
    "state_code": "ARA",
    "country_id": 75,
    "country_code": "FR",
    "latitude": "45.26772000",
    "longitude": "5.86457000",
    "native": null,
    "timezone": null,
    "translations": {}
  },
  {
    "id": 39975,
    "name": "Bessay-sur-Allier",
    "state_id": 4798,
    "state_code": "ARA",
    "country_id": 75,
    "country_code": "FR",
    "latitude": "46.44199000",
    "longitude": "3.36257000",
    "native": null,
    "timezone": null,
    "translations": {}
  },
  {
    "id": 39976,
    "name": "Besse-et-Saint-Anastaise",
    "state_id": 4798,
    "state_code": "ARA",
    "country_id": 75,
    "country_code": "FR",
    "latitude": "45.51667000",
    "longitude": "2.93333000",
    "native": null,
    "timezone": null,
    "translations": {}
  },
  {
    "id": 39978,
    "name": "Bessenay",
    "state_id": 4798,
    "state_code": "ARA",
    "country_id": 75,
    "country_code": "FR",
    "latitude": "45.77661000",
    "longitude": "4.55441000",
    "native": null,
    "timezone": null,
    "translations": {}
  },
  {
    "id": 40000,
    "name": "Beynost",
    "state_id": 4798,
    "state_code": "ARA",
    "country_id": 75,
    "country_code": "FR",
    "latitude": "45.83569000",
    "longitude": "4.99910000",
    "native": null,
    "timezone": null,
    "translations": {}
  },
  {
    "id": 40020,
    "name": "Bilieu",
    "state_id": 4798,
    "state_code": "ARA",
    "country_id": 75,
    "country_code": "FR",
    "latitude": "45.44809000",
    "longitude": "5.54268000",
    "native": null,
    "timezone": null,
    "translations": {}
  },
  {
    "id": 40021,
    "name": "Billom",
    "state_id": 4798,
    "state_code": "ARA",
    "country_id": 75,
    "country_code": "FR",
    "latitude": "45.72267000",
    "longitude": "3.33869000",
    "native": null,
    "timezone": null,
    "translations": {}
  },
  {
    "id": 40028,
    "name": "Biol",
    "state_id": 4798,
    "state_code": "ARA",
    "country_id": 75,
    "country_code": "FR",
    "latitude": "45.49140000",
    "longitude": "5.38550000",
    "native": null,
    "timezone": null,
    "translations": {}
  },
  {
    "id": 40036,
    "name": "Biviers",
    "state_id": 4798,
    "state_code": "ARA",
    "country_id": 75,
    "country_code": "FR",
    "latitude": "45.23333000",
    "longitude": "5.80000000",
    "native": null,
    "timezone": null,
    "translations": {}
  },
  {
    "id": 40042,
    "name": "Blacé",
    "state_id": 4798,
    "state_code": "ARA",
    "country_id": 75,
    "country_code": "FR",
    "latitude": "46.03152000",
    "longitude": "4.64448000",
    "native": null,
    "timezone": null,
    "translations": {}
  },
  {
    "id": 40056,
    "name": "Blanzat",
    "state_id": 4798,
    "state_code": "ARA",
    "country_id": 75,
    "country_code": "FR",
    "latitude": "45.82975000",
    "longitude": "3.07794000",
    "native": null,
    "timezone": null,
    "translations": {}
  },
  {
    "id": 40061,
    "name": "Blavozy",
    "state_id": 4798,
    "state_code": "ARA",
    "country_id": 75,
    "country_code": "FR",
    "latitude": "45.05720000",
    "longitude": "3.97993000",
    "native": null,
    "timezone": null,
    "translations": {}
  },
  {
    "id": 40245,
    "name": "Boëge",
    "state_id": 4798,
    "state_code": "ARA",
    "country_id": 75,
    "country_code": "FR",
    "latitude": "46.20711000",
    "longitude": "6.40428000",
    "native": null,
    "timezone": null,
    "translations": {}
  },
  {
    "id": 40246,
    "name": "Boën-sur-Lignon",
    "state_id": 4798,
    "state_code": "ARA",
    "country_id": 75,
    "country_code": "FR",
    "latitude": "45.75114000",
    "longitude": "4.00725000",
    "native": null,
    "timezone": null,
    "translations": {}
  },
  {
    "id": 40117,
    "name": "Bonne",
    "state_id": 4798,
    "state_code": "ARA",
    "country_id": 75,
    "country_code": "FR",
    "latitude": "46.17207000",
    "longitude": "6.32443000",
    "native": null,
    "timezone": null,
    "translations": {}
  },
  {
    "id": 40118,
    "name": "Bonnefamille",
    "state_id": 4798,
    "state_code": "ARA",
    "country_id": 75,
    "country_code": "FR",
    "latitude": "45.59956000",
    "longitude": "5.12489000",
    "native": null,
    "timezone": null,
    "translations": {}
  },
  {
    "id": 40126,
    "name": "Bonneville",
    "state_id": 4798,
    "state_code": "ARA",
    "country_id": 75,
    "country_code": "FR",
    "latitude": "46.08020000",
    "longitude": "6.40726000",
    "native": null,
    "timezone": null,
    "translations": {}
  },
  {
    "id": 40131,
    "name": "Bons-en-Chablais",
    "state_id": 4798,
    "state_code": "ARA",
    "country_id": 75,
    "country_code": "FR",
    "latitude": "46.26486000",
    "longitude": "6.37129000",
    "native": null,
    "timezone": null,
    "translations": {}
  },
  {
    "id": 40132,
    "name": "Bonson",
    "state_id": 4798,
    "state_code": "ARA",
    "country_id": 75,
    "country_code": "FR",
    "latitude": "45.52291000",
    "longitude": "4.21270000",
    "native": null,
    "timezone": null,
    "translations": {}
  },
  {
    "id": 40168,
    "name": "Boulieu-lès-Annonay",
    "state_id": 4798,
    "state_code": "ARA",
    "country_id": 75,
    "country_code": "FR",
    "latitude": "45.27065000",
    "longitude": "4.66645000",
    "native": null,
    "timezone": null,
    "translations": {}
  },
  {
    "id": 40179,
    "name": "Bourbon-l’Archambault",
    "state_id": 4798,
    "state_code": "ARA",
    "country_id": 75,
    "country_code": "FR",
    "latitude": "46.58324000",
    "longitude": "3.05652000",
    "native": null,
    "timezone": null,
    "translations": {}
  },
  {
    "id": 40187,
    "name": "Bourg-Argental",
    "state_id": 4798,
    "state_code": "ARA",
    "country_id": 75,
    "country_code": "FR",
    "latitude": "45.29899000",
    "longitude": "4.56830000",
    "native": null,
    "timezone": null,
    "translations": {}
  },
  {
    "id": 40191,
    "name": "Bourg-de-Péage",
    "state_id": 4798,
    "state_code": "ARA",
    "country_id": 75,
    "country_code": "FR",
    "latitude": "45.03151000",
    "longitude": "5.04993000",
    "native": null,
    "timezone": null,
    "translations": {}
  },
  {
    "id": 40192,
    "name": "Bourg-de-Thizy",
    "state_id": 4798,
    "state_code": "ARA",
    "country_id": 75,
    "country_code": "FR",
    "latitude": "46.03371000",
    "longitude": "4.29904000",
    "native": null,
    "timezone": null,
    "translations": {}
  },
  {
    "id": 40194,
    "name": "Bourg-en-Bresse",
    "state_id": 4798,
    "state_code": "ARA",
    "country_id": 75,
    "country_code": "FR",
    "latitude": "46.20574000",
    "longitude": "5.22580000",
    "native": null,
    "timezone": null,
    "translations": {}
  },
  {
    "id": 40196,
    "name": "Bourg-lès-Valence",
    "state_id": 4798,
    "state_code": "ARA",
    "country_id": 75,
    "country_code": "FR",
    "latitude": "44.94703000",
    "longitude": "4.89463000",
    "native": null,
    "timezone": null,
    "translations": {}
  },
  {
    "id": 40189,
    "name": "Bourg-Saint-Andéol",
    "state_id": 4798,
    "state_code": "ARA",
    "country_id": 75,
    "country_code": "FR",
    "latitude": "44.37338000",
    "longitude": "4.64413000",
    "native": null,
    "timezone": null,
    "translations": {}
  },
  {
    "id": 40190,
    "name": "Bourg-Saint-Maurice",
    "state_id": 4798,
    "state_code": "ARA",
    "country_id": 75,
    "country_code": "FR",
    "latitude": "45.61463000",
    "longitude": "6.76845000",
    "native": null,
    "timezone": null,
    "translations": {}
  },
  {
    "id": 40204,
    "name": "Bourgoin-Jallieu",
    "state_id": 4798,
    "state_code": "ARA",
    "country_id": 75,
    "country_code": "FR",
    "latitude": "45.58611000",
    "longitude": "5.27361000",
    "native": null,
    "timezone": null,
    "translations": {}
  },
  {
    "id": 40210,
    "name": "Bournoncle-Saint-Pierre",
    "state_id": 4798,
    "state_code": "ARA",
    "country_id": 75,
    "country_code": "FR",
    "latitude": "45.34351000",
    "longitude": "3.31830000",
    "native": null,
    "timezone": null,
    "translations": {}
  },
  {
    "id": 40226,
    "name": "Bouvesse-Quirieu",
    "state_id": 4798,
    "state_code": "ARA",
    "country_id": 75,
    "country_code": "FR",
    "latitude": "45.79310000",
    "longitude": "5.41496000",
    "native": null,
    "timezone": null,
    "translations": {}
  },
  {
    "id": 40242,
    "name": "Bozel",
    "state_id": 4798,
    "state_code": "ARA",
    "country_id": 75,
    "country_code": "FR",
    "latitude": "45.44288000",
    "longitude": "6.64896000",
    "native": null,
    "timezone": null,
    "translations": {}
  },
  {
    "id": 40262,
    "name": "Brassac-les-Mines",
    "state_id": 4798,
    "state_code": "ARA",
    "country_id": 75,
    "country_code": "FR",
    "latitude": "45.41407000",
    "longitude": "3.32900000",
    "native": null,
    "timezone": null,
    "translations": {}
  },
  {
    "id": 40363,
    "name": "Brézins",
    "state_id": 4798,
    "state_code": "ARA",
    "country_id": 75,
    "country_code": "FR",
    "latitude": "45.35213000",
    "longitude": "5.30539000",
    "native": null,
    "timezone": null,
    "translations": {}
  },
  {
    "id": 40330,
    "name": "Brié-et-Angonnes",
    "state_id": 4798,
    "state_code": "ARA",
    "country_id": 75,
    "country_code": "FR",
    "latitude": "45.12418000",
    "longitude": "5.78374000",
    "native": null,
    "timezone": null,
    "translations": {}
  },
  {
    "id": 40309,
    "name": "Briennon",
    "state_id": 4798,
    "state_code": "ARA",
    "country_id": 75,
    "country_code": "FR",
    "latitude": "46.15127000",
    "longitude": "4.07690000",
    "native": null,
    "timezone": null,
    "translations": {}
  },
  {
    "id": 40312,
    "name": "Brignais",
    "state_id": 4798,
    "state_code": "ARA",
    "country_id": 75,
    "country_code": "FR",
    "latitude": "45.67383000",
    "longitude": "4.75418000",
    "native": null,
    "timezone": null,
    "translations": {}
  },
  {
    "id": 40316,
    "name": "Brindas",
    "state_id": 4798,
    "state_code": "ARA",
    "country_id": 75,
    "country_code": "FR",
    "latitude": "45.72111000",
    "longitude": "4.69349000",
    "native": null,
    "timezone": null,
    "translations": {}
  },
  {
    "id": 40321,
    "name": "Brioude",
    "state_id": 4798,
    "state_code": "ARA",
    "country_id": 75,
    "country_code": "FR",
    "latitude": "45.29419000",
    "longitude": "3.38423000",
    "native": null,
    "timezone": null,
    "translations": {}
  },
  {
    "id": 40325,
    "name": "Brison-Saint-Innocent",
    "state_id": 4798,
    "state_code": "ARA",
    "country_id": 75,
    "country_code": "FR",
    "latitude": "45.72440000",
    "longitude": "5.88895000",
    "native": null,
    "timezone": null,
    "translations": {}
  },
  {
    "id": 40328,
    "name": "Brives-Charensac",
    "state_id": 4798,
    "state_code": "ARA",
    "country_id": 75,
    "country_code": "FR",
    "latitude": "45.04780000",
    "longitude": "3.92878000",
    "native": null,
    "timezone": null,
    "translations": {}
  },
  {
    "id": 40332,
    "name": "Bron",
    "state_id": 4798,
    "state_code": "ARA",
    "country_id": 75,
    "country_code": "FR",
    "latitude": "45.73865000",
    "longitude": "4.91303000",
    "native": null,
    "timezone": null,
    "translations": {}
  },
  {
    "id": 40337,
    "name": "Broût-Vernet",
    "state_id": 4798,
    "state_code": "ARA",
    "country_id": 75,
    "country_code": "FR",
    "latitude": "46.18756000",
    "longitude": "3.27324000",
    "native": null,
    "timezone": null,
    "translations": {}
  },
  {
    "id": 40341,
    "name": "Brugheas",
    "state_id": 4798,
    "state_code": "ARA",
    "country_id": 75,
    "country_code": "FR",
    "latitude": "46.07676000",
    "longitude": "3.36780000",
    "native": null,
    "timezone": null,
    "translations": {}
  },
  {
    "id": 40375,
    "name": "Buellas",
    "state_id": 4798,
    "state_code": "ARA",
    "country_id": 75,
    "country_code": "FR",
    "latitude": "46.21110000",
    "longitude": "5.13220000",
    "native": null,
    "timezone": null,
    "translations": {}
  },
  {
    "id": 40379,
    "name": "Buis-les-Baronnies",
    "state_id": 4798,
    "state_code": "ARA",
    "country_id": 75,
    "country_code": "FR",
    "latitude": "44.27647000",
    "longitude": "5.27187000",
    "native": null,
    "timezone": null,
    "translations": {}
  },
  {
    "id": 40383,
    "name": "Bully",
    "state_id": 4798,
    "state_code": "ARA",
    "country_id": 75,
    "country_code": "FR",
    "latitude": "45.85113000",
    "longitude": "4.58328000",
    "native": null,
    "timezone": null,
    "translations": {}
  },
  {
    "id": 40400,
    "name": "Bussières",
    "state_id": 4798,
    "state_code": "ARA",
    "country_id": 75,
    "country_code": "FR",
    "latitude": "45.83570000",
    "longitude": "4.27123000",
    "native": null,
    "timezone": null,
    "translations": {}
  },
  {
    "id": 40404,
    "name": "Buxières-les-Mines",
    "state_id": 4798,
    "state_code": "ARA",
    "country_id": 75,
    "country_code": "FR",
    "latitude": "46.46807000",
    "longitude": "2.95994000",
    "native": null,
    "timezone": null,
    "translations": {}
  },
  {
    "id": 40465,
    "name": "Cailloux-sur-Fontaines",
    "state_id": 4798,
    "state_code": "ARA",
    "country_id": 75,
    "country_code": "FR",
    "latitude": "45.85259000",
    "longitude": "4.87473000",
    "native": null,
    "timezone": null,
    "translations": {}
  },
  {
    "id": 40477,
    "name": "Caluire-et-Cuire",
    "state_id": 4798,
    "state_code": "ARA",
    "country_id": 75,
    "country_code": "FR",
    "latitude": "45.79462000",
    "longitude": "4.84640000",
    "native": null,
    "timezone": null,
    "translations": {}
  },
  {
    "id": 40516,
    "name": "Cantal",
    "state_id": 4798,
    "state_code": "ARA",
    "country_id": 75,
    "country_code": "FR",
    "latitude": "45.13985000",
    "longitude": "2.64947000",
    "native": null,
    "timezone": null,
    "translations": {}
  },
  {
    "id": 41389,
    "name": "Cébazat",
    "state_id": 4798,
    "state_code": "ARA",
    "country_id": 75,
    "country_code": "FR",
    "latitude": "45.83140000",
    "longitude": "3.09992000",
    "native": null,
    "timezone": null,
    "translations": {}
  },
  {
    "id": 40634,
    "name": "Celles-sur-Durolle",
    "state_id": 4798,
    "state_code": "ARA",
    "country_id": 75,
    "country_code": "FR",
    "latitude": "45.85829000",
    "longitude": "3.63540000",
    "native": null,
    "timezone": null,
    "translations": {}
  },
  {
    "id": 40636,
    "name": "Cellieu",
    "state_id": 4798,
    "state_code": "ARA",
    "country_id": 75,
    "country_code": "FR",
    "latitude": "45.51866000",
    "longitude": "4.54332000",
    "native": null,
    "timezone": null,
    "translations": {}
  },
  {
    "id": 41397,
    "name": "Cérilly",
    "state_id": 4798,
    "state_code": "ARA",
    "country_id": 75,
    "country_code": "FR",
    "latitude": "46.61791000",
    "longitude": "2.82080000",
    "native": null,
    "timezone": null,
    "translations": {}
  },
  {
    "id": 40655,
    "name": "Certines",
    "state_id": 4798,
    "state_code": "ARA",
    "country_id": 75,
    "country_code": "FR",
    "latitude": "46.13244000",
    "longitude": "5.26525000",
    "native": null,
    "timezone": null,
    "translations": {}
  },
  {
    "id": 40659,
    "name": "Cessieu",
    "state_id": 4798,
    "state_code": "ARA",
    "country_id": 75,
    "country_code": "FR",
    "latitude": "45.56371000",
    "longitude": "5.37607000",
    "native": null,
    "timezone": null,
    "translations": {}
  },
  {
    "id": 40662,
    "name": "Cessy",
    "state_id": 4798,
    "state_code": "ARA",
    "country_id": 75,
    "country_code": "FR",
    "latitude": "46.32032000",
    "longitude": "6.07477000",
    "native": null,
    "timezone": null,
    "translations": {}
  },
  {
    "id": 40665,
    "name": "Ceyrat",
    "state_id": 4798,
    "state_code": "ARA",
    "country_id": 75,
    "country_code": "FR",
    "latitude": "45.73265000",
    "longitude": "3.06323000",
    "native": null,
    "timezone": null,
    "translations": {}
  },
  {
    "id": 40667,
    "name": "Ceyzériat",
    "state_id": 4798,
    "state_code": "ARA",
    "country_id": 75,
    "country_code": "FR",
    "latitude": "46.18126000",
    "longitude": "5.31977000",
    "native": null,
    "timezone": null,
    "translations": {}
  },
  {
    "id": 40669,
    "name": "Chabeuil",
    "state_id": 4798,
    "state_code": "ARA",
    "country_id": 75,
    "country_code": "FR",
    "latitude": "44.89843000",
    "longitude": "5.01438000",
    "native": null,
    "timezone": null,
    "translations": {}
  },
  {
    "id": 40931,
    "name": "Châbons",
    "state_id": 4798,
    "state_code": "ARA",
    "country_id": 75,
    "country_code": "FR",
    "latitude": "45.44282000",
    "longitude": "5.42542000",
    "native": null,
    "timezone": null,
    "translations": {}
  },
  {
    "id": 40671,
    "name": "Chabreloche",
    "state_id": 4798,
    "state_code": "ARA",
    "country_id": 75,
    "country_code": "FR",
    "latitude": "45.87900000",
    "longitude": "3.69664000",
    "native": null,
    "timezone": null,
    "translations": {}
  },
  {
    "id": 40674,
    "name": "Chadrac",
    "state_id": 4798,
    "state_code": "ARA",
    "country_id": 75,
    "country_code": "FR",
    "latitude": "45.06181000",
    "longitude": "3.90261000",
    "native": null,
    "timezone": null,
    "translations": {}
  },
  {
    "id": 40686,
    "name": "Chalamont",
    "state_id": 4798,
    "state_code": "ARA",
    "country_id": 75,
    "country_code": "FR",
    "latitude": "45.99734000",
    "longitude": "5.16865000",
    "native": null,
    "timezone": null,
    "translations": {}
  },
  {
    "id": 40688,
    "name": "Chaleins",
    "state_id": 4798,
    "state_code": "ARA",
    "country_id": 75,
    "country_code": "FR",
    "latitude": "46.03165000",
    "longitude": "4.80789000",
    "native": null,
    "timezone": null,
    "translations": {}
  },
  {
    "id": 40694,
    "name": "Challes-les-Eaux",
    "state_id": 4798,
    "state_code": "ARA",
    "country_id": 75,
    "country_code": "FR",
    "latitude": "45.54685000",
    "longitude": "5.98098000",
    "native": null,
    "timezone": null,
    "translations": {}
  },
  {
    "id": 40695,
    "name": "Challex",
    "state_id": 4798,
    "state_code": "ARA",
    "country_id": 75,
    "country_code": "FR",
    "latitude": "46.18458000",
    "longitude": "5.97639000",
    "native": null,
    "timezone": null,
    "translations": {}
  },
  {
    "id": 40700,
    "name": "Chamagnieu",
    "state_id": 4798,
    "state_code": "ARA",
    "country_id": 75,
    "country_code": "FR",
    "latitude": "45.68249000",
    "longitude": "5.16947000",
    "native": null,
    "timezone": null,
    "translations": {}
  },
  {
    "id": 40701,
    "name": "Chamalières",
    "state_id": 4798,
    "state_code": "ARA",
    "country_id": 75,
    "country_code": "FR",
    "latitude": "45.77364000",
    "longitude": "3.06703000",
    "native": null,
    "timezone": null,
    "translations": {}
  },
  {
    "id": 40713,
    "name": "Chambéry",
    "state_id": 4798,
    "state_code": "ARA",
    "country_id": 75,
    "country_code": "FR",
    "latitude": "45.56628000",
    "longitude": "5.92079000",
    "native": null,
    "timezone": null,
    "translations": {}
  },
  {
    "id": 40714,
    "name": "Chambœuf",
    "state_id": 4798,
    "state_code": "ARA",
    "country_id": 75,
    "country_code": "FR",
    "latitude": "45.58333000",
    "longitude": "4.31667000",
    "native": null,
    "timezone": null,
    "translations": {}
  },
  {
    "id": 40717,
    "name": "Chamonix-Mont-Blanc",
    "state_id": 4798,
    "state_code": "ARA",
    "country_id": 75,
    "country_code": "FR",
    "latitude": "45.92375000",
    "longitude": "6.86933000",
    "native": null,
    "timezone": null,
    "translations": {}
  },
  {
    "id": 40718,
    "name": "Champ-sur-Drac",
    "state_id": 4798,
    "state_code": "ARA",
    "country_id": 75,
    "country_code": "FR",
    "latitude": "45.06940000",
    "longitude": "5.73151000",
    "native": null,
    "timezone": null,
    "translations": {}
  },
  {
    "id": 40719,
    "name": "Champagnac",
    "state_id": 4798,
    "state_code": "ARA",
    "country_id": 75,
    "country_code": "FR",
    "latitude": "45.35660000",
    "longitude": "2.39942000",
    "native": null,
    "timezone": null,
    "translations": {}
  },
  {
    "id": 40721,
    "name": "Champagne-au-Mont-d’Or",
    "state_id": 4798,
    "state_code": "ARA",
    "country_id": 75,
    "country_code": "FR",
    "latitude": "45.79475000",
    "longitude": "4.79079000",
    "native": null,
    "timezone": null,
    "translations": {}
  },
  {
    "id": 40725,
    "name": "Champagnier",
    "state_id": 4798,
    "state_code": "ARA",
    "country_id": 75,
    "country_code": "FR",
    "latitude": "45.11155000",
    "longitude": "5.72716000",
    "native": null,
    "timezone": null,
    "translations": {}
  },
  {
    "id": 40732,
    "name": "Champdieu",
    "state_id": 4798,
    "state_code": "ARA",
    "country_id": 75,
    "country_code": "FR",
    "latitude": "45.64533000",
    "longitude": "4.04705000",
    "native": null,
    "timezone": null,
    "translations": {}
  },
  {
    "id": 40733,
    "name": "Champeix",
    "state_id": 4798,
    "state_code": "ARA",
    "country_id": 75,
    "country_code": "FR",
    "latitude": "45.58863000",
    "longitude": "3.12878000",
    "native": null,
    "timezone": null,
    "translations": {}
  },
  {
    "id": 40738,
    "name": "Champier",
    "state_id": 4798,
    "state_code": "ARA",
    "country_id": 75,
    "country_code": "FR",
    "latitude": "45.45540000",
    "longitude": "5.29237000",
    "native": null,
    "timezone": null,
    "translations": {}
  },
  {
    "id": 40749,
    "name": "Champs-sur-Tarentaine-Marchal",
    "state_id": 4798,
    "state_code": "ARA",
    "country_id": 75,
    "country_code": "FR",
    "latitude": "45.40000000",
    "longitude": "2.56667000",
    "native": null,
    "timezone": null,
    "translations": {}
  },
  {
    "id": 40756,
    "name": "Chanas",
    "state_id": 4798,
    "state_code": "ARA",
    "country_id": 75,
    "country_code": "FR",
    "latitude": "45.31881000",
    "longitude": "4.81849000",
    "native": null,
    "timezone": null,
    "translations": {}
  },
  {
    "id": 40760,
    "name": "Chandon",
    "state_id": 4798,
    "state_code": "ARA",
    "country_id": 75,
    "country_code": "FR",
    "latitude": "46.14925000",
    "longitude": "4.21393000",
    "native": null,
    "timezone": null,
    "translations": {}
  },
  {
    "id": 40765,
    "name": "Chanonat",
    "state_id": 4798,
    "state_code": "ARA",
    "country_id": 75,
    "country_code": "FR",
    "latitude": "45.69299000",
    "longitude": "3.09351000",
    "native": null,
    "timezone": null,
    "translations": {}
  },
  {
    "id": 40766,
    "name": "Chanos-Curson",
    "state_id": 4798,
    "state_code": "ARA",
    "country_id": 75,
    "country_code": "FR",
    "latitude": "45.06057000",
    "longitude": "4.92381000",
    "native": null,
    "timezone": null,
    "translations": {}
  },
  {
    "id": 40769,
    "name": "Chantelle",
    "state_id": 4798,
    "state_code": "ARA",
    "country_id": 75,
    "country_code": "FR",
    "latitude": "46.23806000",
    "longitude": "3.15318000",
    "native": null,
    "timezone": null,
    "translations": {}
  },
  {
    "id": 40781,
    "name": "Chapareillan",
    "state_id": 4798,
    "state_code": "ARA",
    "country_id": 75,
    "country_code": "FR",
    "latitude": "45.46513000",
    "longitude": "5.99171000",
    "native": null,
    "timezone": null,
    "translations": {}
  },
  {
    "id": 40782,
    "name": "Chapdes-Beaufort",
    "state_id": 4798,
    "state_code": "ARA",
    "country_id": 75,
    "country_code": "FR",
    "latitude": "45.89277000",
    "longitude": "2.86362000",
    "native": null,
    "timezone": null,
    "translations": {}
  },
  {
    "id": 40784,
    "name": "Chaponnay",
    "state_id": 4798,
    "state_code": "ARA",
    "country_id": 75,
    "country_code": "FR",
    "latitude": "45.62762000",
    "longitude": "4.93615000",
    "native": null,
    "timezone": null,
    "translations": {}
  },
  {
    "id": 40785,
    "name": "Chaponost",
    "state_id": 4798,
    "state_code": "ARA",
    "country_id": 75,
    "country_code": "FR",
    "latitude": "45.71020000",
    "longitude": "4.74221000",
    "native": null,
    "timezone": null,
    "translations": {}
  },
  {
    "id": 40786,
    "name": "Chappes",
    "state_id": 4798,
    "state_code": "ARA",
    "country_id": 75,
    "country_code": "FR",
    "latitude": "45.86848000",
    "longitude": "3.22068000",
    "native": null,
    "timezone": null,
    "translations": {}
  },
  {
    "id": 40788,
    "name": "Charantonnay",
    "state_id": 4798,
    "state_code": "ARA",
    "country_id": 75,
    "country_code": "FR",
    "latitude": "45.53705000",
    "longitude": "5.11005000",
    "native": null,
    "timezone": null,
    "translations": {}
  },
  {
    "id": 40789,
    "name": "Charavines",
    "state_id": 4798,
    "state_code": "ARA",
    "country_id": 75,
    "country_code": "FR",
    "latitude": "45.42891000",
    "longitude": "5.51492000",
    "native": null,
    "timezone": null,
    "translations": {}
  },
  {
    "id": 40790,
    "name": "Charbonnières-les-Bains",
    "state_id": 4798,
    "state_code": "ARA",
    "country_id": 75,
    "country_code": "FR",
    "latitude": "45.78053000",
    "longitude": "4.74637000",
    "native": null,
    "timezone": null,
    "translations": {}
  },
  {
    "id": 40791,
    "name": "Charbonnières-les-Varennes",
    "state_id": 4798,
    "state_code": "ARA",
    "country_id": 75,
    "country_code": "FR",
    "latitude": "45.90786000",
    "longitude": "2.99976000",
    "native": null,
    "timezone": null,
    "translations": {}
  },
  {
    "id": 40793,
    "name": "Charentay",
    "state_id": 4798,
    "state_code": "ARA",
    "country_id": 75,
    "country_code": "FR",
    "latitude": "46.08897000",
    "longitude": "4.67921000",
    "native": null,
    "timezone": null,
    "translations": {}
  },
  {
    "id": 40803,
    "name": "Charlieu",
    "state_id": 4798,
    "state_code": "ARA",
    "country_id": 75,
    "country_code": "FR",
    "latitude": "46.16202000",
    "longitude": "4.17228000",
    "native": null,
    "timezone": null,
    "translations": {}
  },
  {
    "id": 40804,
    "name": "Charly",
    "state_id": 4798,
    "state_code": "ARA",
    "country_id": 75,
    "country_code": "FR",
    "latitude": "45.64887000",
    "longitude": "4.79461000",
    "native": null,
    "timezone": null,
    "translations": {}
  },
  {
    "id": 40808,
    "name": "Charmes-sur-Rhône",
    "state_id": 4798,
    "state_code": "ARA",
    "country_id": 75,
    "country_code": "FR",
    "latitude": "44.86367000",
    "longitude": "4.83533000",
    "native": null,
    "timezone": null,
    "translations": {}
  },
  {
    "id": 40809,
    "name": "Charnay",
    "state_id": 4798,
    "state_code": "ARA",
    "country_id": 75,
    "country_code": "FR",
    "latitude": "45.89058000",
    "longitude": "4.66821000",
    "native": null,
    "timezone": null,
    "translations": {}
  },
  {
    "id": 40813,
    "name": "Charnècles",
    "state_id": 4798,
    "state_code": "ARA",
    "country_id": 75,
    "country_code": "FR",
    "latitude": "45.34398000",
    "longitude": "5.52799000",
    "native": null,
    "timezone": null,
    "translations": {}
  },
  {
    "id": 40822,
    "name": "Charvieu-Chavagneux",
    "state_id": 4798,
    "state_code": "ARA",
    "country_id": 75,
    "country_code": "FR",
    "latitude": "45.75000000",
    "longitude": "5.15000000",
    "native": null,
    "timezone": null,
    "translations": {}
  },
  {
    "id": 40824,
    "name": "Chassagny",
    "state_id": 4798,
    "state_code": "ARA",
    "country_id": 75,
    "country_code": "FR",
    "latitude": "45.60670000",
    "longitude": "4.73214000",
    "native": null,
    "timezone": null,
    "translations": {}
  },
  {
    "id": 40825,
    "name": "Chasse-sur-Rhône",
    "state_id": 4798,
    "state_code": "ARA",
    "country_id": 75,
    "country_code": "FR",
    "latitude": "45.57850000",
    "longitude": "4.80985000",
    "native": null,
    "timezone": null,
    "translations": {}
  },
  {
    "id": 40826,
    "name": "Chasselay",
    "state_id": 4798,
    "state_code": "ARA",
    "country_id": 75,
    "country_code": "FR",
    "latitude": "45.87440000",
    "longitude": "4.77237000",
    "native": null,
    "timezone": null,
    "translations": {}
  },
  {
    "id": 40829,
    "name": "Chassieu",
    "state_id": 4798,
    "state_code": "ARA",
    "country_id": 75,
    "country_code": "FR",
    "latitude": "45.74584000",
    "longitude": "4.97088000",
    "native": null,
    "timezone": null,
    "translations": {}
  },
  {
    "id": 40938,
    "name": "Château-Gaillard",
    "state_id": 4798,
    "state_code": "ARA",
    "country_id": 75,
    "country_code": "FR",
    "latitude": "45.97239000",
    "longitude": "5.30436000",
    "native": null,
    "timezone": null,
    "translations": {}
  },
  {
    "id": 40955,
    "name": "Châteaugay",
    "state_id": 4798,
    "state_code": "ARA",
    "country_id": 75,
    "country_code": "FR",
    "latitude": "45.85117000",
    "longitude": "3.08482000",
    "native": null,
    "timezone": null,
    "translations": {}
  },
  {
    "id": 40959,
    "name": "Châteauneuf",
    "state_id": 4798,
    "state_code": "ARA",
    "country_id": 75,
    "country_code": "FR",
    "latitude": "45.52457000",
    "longitude": "4.64044000",
    "native": null,
    "timezone": null,
    "translations": {}
  },
  {
    "id": 40962,
    "name": "Châteauneuf-de-Galaure",
    "state_id": 4798,
    "state_code": "ARA",
    "country_id": 75,
    "country_code": "FR",
    "latitude": "45.22977000",
    "longitude": "4.95777000",
    "native": null,
    "timezone": null,
    "translations": {}
  },
  {
    "id": 40965,
    "name": "Châteauneuf-du-Rhône",
    "state_id": 4798,
    "state_code": "ARA",
    "country_id": 75,
    "country_code": "FR",
    "latitude": "44.48906000",
    "longitude": "4.71706000",
    "native": null,
    "timezone": null,
    "translations": {}
  },
  {
    "id": 40973,
    "name": "Châteauneuf-sur-Isère",
    "state_id": 4798,
    "state_code": "ARA",
    "country_id": 75,
    "country_code": "FR",
    "latitude": "45.01667000",
    "longitude": "4.93333000",
    "native": null,
    "timezone": null,
    "translations": {}
  },
  {
    "id": 40980,
    "name": "Châtel",
    "state_id": 4798,
    "state_code": "ARA",
    "country_id": 75,
    "country_code": "FR",
    "latitude": "46.26495000",
    "longitude": "6.84030000",
    "native": null,
    "timezone": null,
    "translations": {}
  },
  {
    "id": 40981,
    "name": "Châtel-Guyon",
    "state_id": 4798,
    "state_code": "ARA",
    "country_id": 75,
    "country_code": "FR",
    "latitude": "45.92258000",
    "longitude": "3.06423000",
    "native": null,
    "timezone": null,
    "translations": {}
  },
  {
    "id": 40991,
    "name": "Châtillon",
    "state_id": 4798,
    "state_code": "ARA",
    "country_id": 75,
    "country_code": "FR",
    "latitude": "45.80091000",
    "longitude": "5.84352000",
    "native": null,
    "timezone": null,
    "translations": {}
  },
  {
    "id": 40995,
    "name": "Châtillon-en-Michaille",
    "state_id": 4798,
    "state_code": "ARA",
    "country_id": 75,
    "country_code": "FR",
    "latitude": "46.14320000",
    "longitude": "5.79950000",
    "native": null,
    "timezone": null,
    "translations": {}
  },
  {
    "id": 40997,
    "name": "Châtillon-la-Palud",
    "state_id": 4798,
    "state_code": "ARA",
    "country_id": 75,
    "country_code": "FR",
    "latitude": "45.97171000",
    "longitude": "5.25290000",
    "native": null,
    "timezone": null,
    "translations": {}
  },
  {
    "id": 40999,
    "name": "Châtillon-sur-Chalaronne",
    "state_id": 4798,
    "state_code": "ARA",
    "country_id": 75,
    "country_code": "FR",
    "latitude": "46.11834000",
    "longitude": "4.95656000",
    "native": null,
    "timezone": null,
    "translations": {}
  },
  {
    "id": 41001,
    "name": "Châtillon-sur-Cluses",
    "state_id": 4798,
    "state_code": "ARA",
    "country_id": 75,
    "country_code": "FR",
    "latitude": "46.08765000",
    "longitude": "6.58041000",
    "native": null,
    "timezone": null,
    "translations": {}
  },
  {
    "id": 41007,
    "name": "Châtonnay",
    "state_id": 4798,
    "state_code": "ARA",
    "country_id": 75,
    "country_code": "FR",
    "latitude": "45.48734000",
    "longitude": "5.21168000",
    "native": null,
    "timezone": null,
    "translations": {}
  },
  {
    "id": 40832,
    "name": "Chatte",
    "state_id": 4798,
    "state_code": "ARA",
    "country_id": 75,
    "country_code": "FR",
    "latitude": "45.14248000",
    "longitude": "5.28224000",
    "native": null,
    "timezone": null,
    "translations": {}
  },
  {
    "id": 40833,
    "name": "Chatuzange-le-Goubet",
    "state_id": 4798,
    "state_code": "ARA",
    "country_id": 75,
    "country_code": "FR",
    "latitude": "45.00359000",
    "longitude": "5.09079000",
    "native": null,
    "timezone": null,
    "translations": {}
  },
  {
    "id": 40836,
    "name": "Chaudes-Aigues",
    "state_id": 4798,
    "state_code": "ARA",
    "country_id": 75,
    "country_code": "FR",
    "latitude": "44.85455000",
    "longitude": "3.00406000",
    "native": null,
    "timezone": null,
    "translations": {}
  },
  {
    "id": 40851,
    "name": "Chauriat",
    "state_id": 4798,
    "state_code": "ARA",
    "country_id": 75,
    "country_code": "FR",
    "latitude": "45.75127000",
    "longitude": "3.27895000",
    "native": null,
    "timezone": null,
    "translations": {}
  },
  {
    "id": 40857,
    "name": "Chavanay",
    "state_id": 4798,
    "state_code": "ARA",
    "country_id": 75,
    "country_code": "FR",
    "latitude": "45.41647000",
    "longitude": "4.72602000",
    "native": null,
    "timezone": null,
    "translations": {}
  },
  {
    "id": 40858,
    "name": "Chavanod",
    "state_id": 4798,
    "state_code": "ARA",
    "country_id": 75,
    "country_code": "FR",
    "latitude": "45.89005000",
    "longitude": "6.03928000",
    "native": null,
    "timezone": null,
    "translations": {}
  },
  {
    "id": 40859,
    "name": "Chavanoz",
    "state_id": 4798,
    "state_code": "ARA",
    "country_id": 75,
    "country_code": "FR",
    "latitude": "45.76846000",
    "longitude": "5.18808000",
    "native": null,
    "timezone": null,
    "translations": {}
  },
  {
    "id": 40865,
    "name": "Chazelles-sur-Lyon",
    "state_id": 4798,
    "state_code": "ARA",
    "country_id": 75,
    "country_code": "FR",
    "latitude": "45.63779000",
    "longitude": "4.38890000",
    "native": null,
    "timezone": null,
    "translations": {}
  },
  {
    "id": 40866,
    "name": "Chazey-sur-Ain",
    "state_id": 4798,
    "state_code": "ARA",
    "country_id": 75,
    "country_code": "FR",
    "latitude": "45.89300000",
    "longitude": "5.25352000",
    "native": null,
    "timezone": null,
    "translations": {}
  },
  {
    "id": 40876,
    "name": "Chens-sur-Léman",
    "state_id": 4798,
    "state_code": "ARA",
    "country_id": 75,
    "country_code": "FR",
    "latitude": "46.32459000",
    "longitude": "6.27075000",
    "native": null,
    "timezone": null,
    "translations": {}
  },
  {
    "id": 40888,
    "name": "Chessy",
    "state_id": 4798,
    "state_code": "ARA",
    "country_id": 75,
    "country_code": "FR",
    "latitude": "45.88716000",
    "longitude": "4.62339000",
    "native": null,
    "timezone": null,
    "translations": {}
  },
  {
    "id": 40903,
    "name": "Chevry",
    "state_id": 4798,
    "state_code": "ARA",
    "country_id": 75,
    "country_code": "FR",
    "latitude": "46.28136000",
    "longitude": "6.03873000",
    "native": null,
    "timezone": null,
    "translations": {}
  },
  {
    "id": 40908,
    "name": "Chilly",
    "state_id": 4798,
    "state_code": "ARA",
    "country_id": 75,
    "country_code": "FR",
    "latitude": "45.99185000",
    "longitude": "5.95477000",
    "native": null,
    "timezone": null,
    "translations": {}
  },
  {
    "id": 40910,
    "name": "Chimilin",
    "state_id": 4798,
    "state_code": "ARA",
    "country_id": 75,
    "country_code": "FR",
    "latitude": "45.57490000",
    "longitude": "5.59569000",
    "native": null,
    "timezone": null,
    "translations": {}
  },
  {
    "id": 40911,
    "name": "Chindrieux",
    "state_id": 4798,
    "state_code": "ARA",
    "country_id": 75,
    "country_code": "FR",
    "latitude": "45.81948000",
    "longitude": "5.85024000",
    "native": null,
    "timezone": null,
    "translations": {}
  },
  {
    "id": 40914,
    "name": "Chirens",
    "state_id": 4798,
    "state_code": "ARA",
    "country_id": 75,
    "country_code": "FR",
    "latitude": "45.41024000",
    "longitude": "5.55634000",
    "native": null,
    "timezone": null,
    "translations": {}
  },
  {
    "id": 40920,
    "name": "Choisy",
    "state_id": 4798,
    "state_code": "ARA",
    "country_id": 75,
    "country_code": "FR",
    "latitude": "45.99359000",
    "longitude": "6.05866000",
    "native": null,
    "timezone": null,
    "translations": {}
  },
  {
    "id": 40925,
    "name": "Chomérac",
    "state_id": 4798,
    "state_code": "ARA",
    "country_id": 75,
    "country_code": "FR",
    "latitude": "44.70752000",
    "longitude": "4.66164000",
    "native": null,
    "timezone": null,
    "translations": {}
  },
  {
    "id": 40930,
    "name": "Chuzelles",
    "state_id": 4798,
    "state_code": "ARA",
    "country_id": 75,
    "country_code": "FR",
    "latitude": "45.58481000",
    "longitude": "4.87703000",
    "native": null,
    "timezone": null,
    "translations": {}
  },
  {
    "id": 41030,
    "name": "Civens",
    "state_id": 4798,
    "state_code": "ARA",
    "country_id": 75,
    "country_code": "FR",
    "latitude": "45.77964000",
    "longitude": "4.25170000",
    "native": null,
    "timezone": null,
    "translations": {}
  },
  {
    "id": 41033,
    "name": "Civrieux",
    "state_id": 4798,
    "state_code": "ARA",
    "country_id": 75,
    "country_code": "FR",
    "latitude": "45.92086000",
    "longitude": "4.88249000",
    "native": null,
    "timezone": null,
    "translations": {}
  },
  {
    "id": 41038,
    "name": "Claix",
    "state_id": 4798,
    "state_code": "ARA",
    "country_id": 75,
    "country_code": "FR",
    "latitude": "45.11994000",
    "longitude": "5.67292000",
    "native": null,
    "timezone": null,
    "translations": {}
  },
  {
    "id": 41073,
    "name": "Clérieux",
    "state_id": 4798,
    "state_code": "ARA",
    "country_id": 75,
    "country_code": "FR",
    "latitude": "45.07591000",
    "longitude": "4.95983000",
    "native": null,
    "timezone": null,
    "translations": {}
  },
  {
    "id": 41049,
    "name": "Clermont-Ferrand",
    "state_id": 4798,
    "state_code": "ARA",
    "country_id": 75,
    "country_code": "FR",
    "latitude": "45.77969000",
    "longitude": "3.08682000",
    "native": null,
    "timezone": null,
    "translations": {}
  },
  {
    "id": 41059,
    "name": "Clonas-sur-Varèze",
    "state_id": 4798,
    "state_code": "ARA",
    "country_id": 75,
    "country_code": "FR",
    "latitude": "45.41382000",
    "longitude": "4.79077000",
    "native": null,
    "timezone": null,
    "translations": {}
  },
  {
    "id": 41064,
    "name": "Cluses",
    "state_id": 4798,
    "state_code": "ARA",
    "country_id": 75,
    "country_code": "FR",
    "latitude": "46.06251000",
    "longitude": "6.57497000",
    "native": null,
    "timezone": null,
    "translations": {}
  },
  {
    "id": 41081,
    "name": "Cognin",
    "state_id": 4798,
    "state_code": "ARA",
    "country_id": 75,
    "country_code": "FR",
    "latitude": "45.55952000",
    "longitude": "5.89113000",
    "native": null,
    "timezone": null,
    "translations": {}
  },
  {
    "id": 41082,
    "name": "Cogny",
    "state_id": 4798,
    "state_code": "ARA",
    "country_id": 75,
    "country_code": "FR",
    "latitude": "45.98747000",
    "longitude": "4.62475000",
    "native": null,
    "timezone": null,
    "translations": {}
  },
  {
    "id": 41086,
    "name": "Coise",
    "state_id": 4798,
    "state_code": "ARA",
    "country_id": 75,
    "country_code": "FR",
    "latitude": "45.52822000",
    "longitude": "6.14389000",
    "native": null,
    "timezone": null,
    "translations": {}
  },
  {
    "id": 41088,
    "name": "Coligny",
    "state_id": 4798,
    "state_code": "ARA",
    "country_id": 75,
    "country_code": "FR",
    "latitude": "46.38252000",
    "longitude": "5.34554000",
    "native": null,
    "timezone": null,
    "translations": {}
  },
  {
    "id": 41093,
    "name": "Collonges",
    "state_id": 4798,
    "state_code": "ARA",
    "country_id": 75,
    "country_code": "FR",
    "latitude": "46.13819000",
    "longitude": "5.90506000",
    "native": null,
    "timezone": null,
    "translations": {}
  },
  {
    "id": 41094,
    "name": "Collonges-sous-Salève",
    "state_id": 4798,
    "state_code": "ARA",
    "country_id": 75,
    "country_code": "FR",
    "latitude": "46.14160000",
    "longitude": "6.15372000",
    "native": null,
    "timezone": null,
    "translations": {}
  },
  {
    "id": 41098,
    "name": "Colombe",
    "state_id": 4798,
    "state_code": "ARA",
    "country_id": 75,
    "country_code": "FR",
    "latitude": "45.40024000",
    "longitude": "5.45441000",
    "native": null,
    "timezone": null,
    "translations": {}
  },
  {
    "id": 41109,
    "name": "Combloux",
    "state_id": 4798,
    "state_code": "ARA",
    "country_id": 75,
    "country_code": "FR",
    "latitude": "45.89790000",
    "longitude": "6.64420000",
    "native": null,
    "timezone": null,
    "translations": {}
  },
  {
    "id": 41113,
    "name": "Combronde",
    "state_id": 4798,
    "state_code": "ARA",
    "country_id": 75,
    "country_code": "FR",
    "latitude": "45.98099000",
    "longitude": "3.08807000",
    "native": null,
    "timezone": null,
    "translations": {}
  },
  {
    "id": 41117,
    "name": "Commelle",
    "state_id": 4798,
    "state_code": "ARA",
    "country_id": 75,
    "country_code": "FR",
    "latitude": "46.00086000",
    "longitude": "4.05794000",
    "native": null,
    "timezone": null,
    "translations": {}
  },
  {
    "id": 41118,
    "name": "Commentry",
    "state_id": 4798,
    "state_code": "ARA",
    "country_id": 75,
    "country_code": "FR",
    "latitude": "46.28876000",
    "longitude": "2.74163000",
    "native": null,
    "timezone": null,
    "translations": {}
  },
  {
    "id": 41122,
    "name": "Communay",
    "state_id": 4798,
    "state_code": "ARA",
    "country_id": 75,
    "country_code": "FR",
    "latitude": "45.60442000",
    "longitude": "4.83488000",
    "native": null,
    "timezone": null,
    "translations": {}
  },
  {
    "id": 41130,
    "name": "Condat",
    "state_id": 4798,
    "state_code": "ARA",
    "country_id": 75,
    "country_code": "FR",
    "latitude": "45.34093000",
    "longitude": "2.75791000",
    "native": null,
    "timezone": null,
    "translations": {}
  },
  {
    "id": 41134,
    "name": "Condrieu",
    "state_id": 4798,
    "state_code": "ARA",
    "country_id": 75,
    "country_code": "FR",
    "latitude": "45.46300000",
    "longitude": "4.76765000",
    "native": null,
    "timezone": null,
    "translations": {}
  },
  {
    "id": 41154,
    "name": "Contamine-sur-Arve",
    "state_id": 4798,
    "state_code": "ARA",
    "country_id": 75,
    "country_code": "FR",
    "latitude": "46.14223000",
    "longitude": "6.33215000",
    "native": null,
    "timezone": null,
    "translations": {}
  },
  {
    "id": 41162,
    "name": "Corbas",
    "state_id": 4798,
    "state_code": "ARA",
    "country_id": 75,
    "country_code": "FR",
    "latitude": "45.66798000",
    "longitude": "4.90198000",
    "native": null,
    "timezone": null,
    "translations": {}
  },
  {
    "id": 41166,
    "name": "Corbelin",
    "state_id": 4798,
    "state_code": "ARA",
    "country_id": 75,
    "country_code": "FR",
    "latitude": "45.60733000",
    "longitude": "5.54261000",
    "native": null,
    "timezone": null,
    "translations": {}
  },
  {
    "id": 41175,
    "name": "Cordon",
    "state_id": 4798,
    "state_code": "ARA",
    "country_id": 75,
    "country_code": "FR",
    "latitude": "45.92099000",
    "longitude": "6.60536000",
    "native": null,
    "timezone": null,
    "translations": {}
  },
  {
    "id": 41176,
    "name": "Corenc",
    "state_id": 4798,
    "state_code": "ARA",
    "country_id": 75,
    "country_code": "FR",
    "latitude": "45.21889000",
    "longitude": "5.76497000",
    "native": null,
    "timezone": null,
    "translations": {}
  },
  {
    "id": 41186,
    "name": "Cornas",
    "state_id": 4798,
    "state_code": "ARA",
    "country_id": 75,
    "country_code": "FR",
    "latitude": "44.96382000",
    "longitude": "4.84839000",
    "native": null,
    "timezone": null,
    "translations": {}
  },
  {
    "id": 41192,
    "name": "Cornier",
    "state_id": 4798,
    "state_code": "ARA",
    "country_id": 75,
    "country_code": "FR",
    "latitude": "46.09304000",
    "longitude": "6.29895000",
    "native": null,
    "timezone": null,
    "translations": {}
  },
  {
    "id": 41213,
    "name": "Coublevie",
    "state_id": 4798,
    "state_code": "ARA",
    "country_id": 75,
    "country_code": "FR",
    "latitude": "45.35856000",
    "longitude": "5.61146000",
    "native": null,
    "timezone": null,
    "translations": {}
  },
  {
    "id": 41214,
    "name": "Coubon",
    "state_id": 4798,
    "state_code": "ARA",
    "country_id": 75,
    "country_code": "FR",
    "latitude": "44.99731000",
    "longitude": "3.91783000",
    "native": null,
    "timezone": null,
    "translations": {}
  },
  {
    "id": 41247,
    "name": "Courchevel",
    "state_id": 4798,
    "state_code": "ARA",
    "country_id": 75,
    "country_code": "FR",
    "latitude": "45.41538000",
    "longitude": "6.63643000",
    "native": null,
    "timezone": null,
    "translations": {}
  },
  {
    "id": 41255,
    "name": "Cournon-d’Auvergne",
    "state_id": 4798,
    "state_code": "ARA",
    "country_id": 75,
    "country_code": "FR",
    "latitude": "45.74123000",
    "longitude": "3.19643000",
    "native": null,
    "timezone": null,
    "translations": {}
  },
  {
    "id": 41259,
    "name": "Courpière",
    "state_id": 4798,
    "state_code": "ARA",
    "country_id": 75,
    "country_code": "FR",
    "latitude": "45.75689000",
    "longitude": "3.54216000",
    "native": null,
    "timezone": null,
    "translations": {}
  },
  {
    "id": 41262,
    "name": "Cours-la-Ville",
    "state_id": 4798,
    "state_code": "ARA",
    "country_id": 75,
    "country_code": "FR",
    "latitude": "46.10000000",
    "longitude": "4.31667000",
    "native": null,
    "timezone": null,
    "translations": {}
  },
  {
    "id": 41273,
    "name": "Courzieu",
    "state_id": 4798,
    "state_code": "ARA",
    "country_id": 75,
    "country_code": "FR",
    "latitude": "45.74270000",
    "longitude": "4.57084000",
    "native": null,
    "timezone": null,
    "translations": {}
  },
  {
    "id": 41282,
    "name": "Coutouvre",
    "state_id": 4798,
    "state_code": "ARA",
    "country_id": 75,
    "country_code": "FR",
    "latitude": "46.07303000",
    "longitude": "4.20535000",
    "native": null,
    "timezone": null,
    "translations": {}
  },
  {
    "id": 41285,
    "name": "Coux",
    "state_id": 4798,
    "state_code": "ARA",
    "country_id": 75,
    "country_code": "FR",
    "latitude": "44.73484000",
    "longitude": "4.62057000",
    "native": null,
    "timezone": null,
    "translations": {}
  },
  {
    "id": 41287,
    "name": "Couzon-au-Mont-d’Or",
    "state_id": 4798,
    "state_code": "ARA",
    "country_id": 75,
    "country_code": "FR",
    "latitude": "45.84436000",
    "longitude": "4.82883000",
    "native": null,
    "timezone": null,
    "translations": {}
  },
  {
    "id": 41295,
    "name": "Cran-Gevrier",
    "state_id": 4798,
    "state_code": "ARA",
    "country_id": 75,
    "country_code": "FR",
    "latitude": "45.90000000",
    "longitude": "6.10000000",
    "native": null,
    "timezone": null,
    "translations": {}
  },
  {
    "id": 41297,
    "name": "Cranves-Sales",
    "state_id": 4798,
    "state_code": "ARA",
    "country_id": 75,
    "country_code": "FR",
    "latitude": "46.18799000",
    "longitude": "6.29903000",
    "native": null,
    "timezone": null,
    "translations": {}
  },
  {
    "id": 41299,
    "name": "Craponne",
    "state_id": 4798,
    "state_code": "ARA",
    "country_id": 75,
    "country_code": "FR",
    "latitude": "45.74526000",
    "longitude": "4.72322000",
    "native": null,
    "timezone": null,
    "translations": {}
  },
  {
    "id": 41300,
    "name": "Craponne-sur-Arzon",
    "state_id": 4798,
    "state_code": "ARA",
    "country_id": 75,
    "country_code": "FR",
    "latitude": "45.33092000",
    "longitude": "3.84817000",
    "native": null,
    "timezone": null,
    "translations": {}
  },
  {
    "id": 41347,
    "name": "Crémieu",
    "state_id": 4798,
    "state_code": "ARA",
    "country_id": 75,
    "country_code": "FR",
    "latitude": "45.72557000",
    "longitude": "5.24911000",
    "native": null,
    "timezone": null,
    "translations": {}
  },
  {
    "id": 41309,
    "name": "Crest",
    "state_id": 4798,
    "state_code": "ARA",
    "country_id": 75,
    "country_code": "FR",
    "latitude": "44.72639000",
    "longitude": "5.01517000",
    "native": null,
    "timezone": null,
    "translations": {}
  },
  {
    "id": 41313,
    "name": "Creuzier-le-Vieux",
    "state_id": 4798,
    "state_code": "ARA",
    "country_id": 75,
    "country_code": "FR",
    "latitude": "46.16253000",
    "longitude": "3.43311000",
    "native": null,
    "timezone": null,
    "translations": {}
  },
  {
    "id": 41315,
    "name": "Creys-Mépieu",
    "state_id": 4798,
    "state_code": "ARA",
    "country_id": 75,
    "country_code": "FR",
    "latitude": "45.73333000",
    "longitude": "5.48333000",
    "native": null,
    "timezone": null,
    "translations": {}
  },
  {
    "id": 41326,
    "name": "Crolles",
    "state_id": 4798,
    "state_code": "ARA",
    "country_id": 75,
    "country_code": "FR",
    "latitude": "45.27724000",
    "longitude": "5.87837000",
    "native": null,
    "timezone": null,
    "translations": {}
  },
  {
    "id": 41330,
    "name": "Crottet",
    "state_id": 4798,
    "state_code": "ARA",
    "country_id": 75,
    "country_code": "FR",
    "latitude": "46.27602000",
    "longitude": "4.89388000",
    "native": null,
    "timezone": null,
    "translations": {}
  },
  {
    "id": 41335,
    "name": "Cruas",
    "state_id": 4798,
    "state_code": "ARA",
    "country_id": 75,
    "country_code": "FR",
    "latitude": "44.65706000",
    "longitude": "4.76293000",
    "native": null,
    "timezone": null,
    "translations": {}
  },
  {
    "id": 41336,
    "name": "Cruet",
    "state_id": 4798,
    "state_code": "ARA",
    "country_id": 75,
    "country_code": "FR",
    "latitude": "45.52890000",
    "longitude": "6.09220000",
    "native": null,
    "timezone": null,
    "translations": {}
  },
  {
    "id": 41337,
    "name": "Cruseilles",
    "state_id": 4798,
    "state_code": "ARA",
    "country_id": 75,
    "country_code": "FR",
    "latitude": "46.02980000",
    "longitude": "6.10831000",
    "native": null,
    "timezone": null,
    "translations": {}
  },
  {
    "id": 41355,
    "name": "Cublize",
    "state_id": 4798,
    "state_code": "ARA",
    "country_id": 75,
    "country_code": "FR",
    "latitude": "46.01810000",
    "longitude": "4.37738000",
    "native": null,
    "timezone": null,
    "translations": {}
  },
  {
    "id": 41370,
    "name": "Cuisiat",
    "state_id": 4798,
    "state_code": "ARA",
    "country_id": 75,
    "country_code": "FR",
    "latitude": "46.30021000",
    "longitude": "5.38809000",
    "native": null,
    "timezone": null,
    "translations": {}
  },
  {
    "id": 41371,
    "name": "Culhat",
    "state_id": 4798,
    "state_code": "ARA",
    "country_id": 75,
    "country_code": "FR",
    "latitude": "45.86259000",
    "longitude": "3.33676000",
    "native": null,
    "timezone": null,
    "translations": {}
  },
  {
    "id": 41372,
    "name": "Culoz",
    "state_id": 4798,
    "state_code": "ARA",
    "country_id": 75,
    "country_code": "FR",
    "latitude": "45.84886000",
    "longitude": "5.78537000",
    "native": null,
    "timezone": null,
    "translations": {}
  },
  {
    "id": 41374,
    "name": "Cunlhat",
    "state_id": 4798,
    "state_code": "ARA",
    "country_id": 75,
    "country_code": "FR",
    "latitude": "45.63198000",
    "longitude": "3.55927000",
    "native": null,
    "timezone": null,
    "translations": {}
  },
  {
    "id": 41377,
    "name": "Curtin",
    "state_id": 4798,
    "state_code": "ARA",
    "country_id": 75,
    "country_code": "FR",
    "latitude": "45.64353000",
    "longitude": "5.48982000",
    "native": null,
    "timezone": null,
    "translations": {}
  },
  {
    "id": 41380,
    "name": "Cussac-sur-Loire",
    "state_id": 4798,
    "state_code": "ARA",
    "country_id": 75,
    "country_code": "FR",
    "latitude": "44.98807000",
    "longitude": "3.88416000",
    "native": null,
    "timezone": null,
    "translations": {}
  },
  {
    "id": 41381,
    "name": "Cusset",
    "state_id": 4798,
    "state_code": "ARA",
    "country_id": 75,
    "country_code": "FR",
    "latitude": "46.13452000",
    "longitude": "3.45639000",
    "native": null,
    "timezone": null,
    "translations": {}
  },
  {
    "id": 41383,
    "name": "Cusy",
    "state_id": 4798,
    "state_code": "ARA",
    "country_id": 75,
    "country_code": "FR",
    "latitude": "45.76603000",
    "longitude": "6.02825000",
    "native": null,
    "timezone": null,
    "translations": {}
  },
  {
    "id": 41387,
    "name": "Cuzieu",
    "state_id": 4798,
    "state_code": "ARA",
    "country_id": 75,
    "country_code": "FR",
    "latitude": "45.60764000",
    "longitude": "4.25761000",
    "native": null,
    "timezone": null,
    "translations": {}
  },
  {
    "id": 41404,
    "name": "Dagneux",
    "state_id": 4798,
    "state_code": "ARA",
    "country_id": 75,
    "country_code": "FR",
    "latitude": "45.85140000",
    "longitude": "5.07780000",
    "native": null,
    "timezone": null,
    "translations": {}
  },
  {
    "id": 41407,
    "name": "Dallet",
    "state_id": 4798,
    "state_code": "ARA",
    "country_id": 75,
    "country_code": "FR",
    "latitude": "45.77047000",
    "longitude": "3.23875000",
    "native": null,
    "timezone": null,
    "translations": {}
  },
  {
    "id": 41432,
    "name": "Dardilly",
    "state_id": 4798,
    "state_code": "ARA",
    "country_id": 75,
    "country_code": "FR",
    "latitude": "45.80558000",
    "longitude": "4.75319000",
    "native": null,
    "timezone": null,
    "translations": {}
  },
  {
    "id": 41442,
    "name": "Davézieux",
    "state_id": 4798,
    "state_code": "ARA",
    "country_id": 75,
    "country_code": "FR",
    "latitude": "45.25520000",
    "longitude": "4.70744000",
    "native": null,
    "timezone": null,
    "translations": {}
  },
  {
    "id": 41600,
    "name": "Décines-Charpieu",
    "state_id": 4798,
    "state_code": "ARA",
    "country_id": 75,
    "country_code": "FR",
    "latitude": "45.76873000",
    "longitude": "4.95883000",
    "native": null,
    "timezone": null,
    "translations": {}
  },
  {
    "id": 41452,
    "name": "Denicé",
    "state_id": 4798,
    "state_code": "ARA",
    "country_id": 75,
    "country_code": "FR",
    "latitude": "46.00158000",
    "longitude": "4.64555000",
    "native": null,
    "timezone": null,
    "translations": {}
  },
  {
    "id": 41608,
    "name": "Département de l'Ain",
    "state_id": 4798,
    "state_code": "ARA",
    "country_id": 75,
    "country_code": "FR",
    "latitude": "46.16667000",
    "longitude": "5.33333000",
    "native": null,
    "timezone": null,
    "translations": {}
  },
  {
    "id": 41610,
    "name": "Département de l'Allier",
    "state_id": 4798,
    "state_code": "ARA",
    "country_id": 75,
    "country_code": "FR",
    "latitude": "46.50000000",
    "longitude": "3.00000000",
    "native": null,
    "timezone": null,
    "translations": {}
  },
  {
    "id": 41611,
    "name": "Département de l'Ardèche",
    "state_id": 4798,
    "state_code": "ARA",
    "country_id": 75,
    "country_code": "FR",
    "latitude": "44.66667000",
    "longitude": "4.33333000",
    "native": null,
    "timezone": null,
    "translations": {}
  },
  {
    "id": 41620,
    "name": "Département de l'Isère",
    "state_id": 4798,
    "state_code": "ARA",
    "country_id": 75,
    "country_code": "FR",
    "latitude": "45.16667000",
    "longitude": "5.83333000",
    "native": null,
    "timezone": null,
    "translations": {}
  },
  {
    "id": 41627,
    "name": "Département de la Drôme",
    "state_id": 4798,
    "state_code": "ARA",
    "country_id": 75,
    "country_code": "FR",
    "latitude": "44.69971000",
    "longitude": "5.16521000",
    "native": null,
    "timezone": null,
    "translations": {}
  },
  {
    "id": 41630,
    "name": "Département de la Loire",
    "state_id": 4798,
    "state_code": "ARA",
    "country_id": 75,
    "country_code": "FR",
    "latitude": "45.47169000",
    "longitude": "4.43298000",
    "native": null,
    "timezone": null,
    "translations": {}
  },
  {
    "id": 41643,
    "name": "Département du Puy-de-Dôme",
    "state_id": 4798,
    "state_code": "ARA",
    "country_id": 75,
    "country_code": "FR",
    "latitude": "45.70549000",
    "longitude": "3.14600000",
    "native": null,
    "timezone": null,
    "translations": {}
  },
  {
    "id": 41644,
    "name": "Département du Rhône",
    "state_id": 4798,
    "state_code": "ARA",
    "country_id": 75,
    "country_code": "FR",
    "latitude": "45.89126000",
    "longitude": "4.53039000",
    "native": null,
    "timezone": null,
    "translations": {}
  },
  {
    "id": 41648,
    "name": "Désaignes",
    "state_id": 4798,
    "state_code": "ARA",
    "country_id": 75,
    "country_code": "FR",
    "latitude": "44.99466000",
    "longitude": "4.51695000",
    "native": null,
    "timezone": null,
    "translations": {}
  },
  {
    "id": 41649,
    "name": "Désertines",
    "state_id": 4798,
    "state_code": "ARA",
    "country_id": 75,
    "country_code": "FR",
    "latitude": "46.35456000",
    "longitude": "2.61924000",
    "native": null,
    "timezone": null,
    "translations": {}
  },
  {
    "id": 41466,
    "name": "Die",
    "state_id": 4798,
    "state_code": "ARA",
    "country_id": 75,
    "country_code": "FR",
    "latitude": "44.75360000",
    "longitude": "5.37033000",
    "native": null,
    "timezone": null,
    "translations": {}
  },
  {
    "id": 41499,
    "name": "Diémoz",
    "state_id": 4798,
    "state_code": "ARA",
    "country_id": 75,
    "country_code": "FR",
    "latitude": "45.59099000",
    "longitude": "5.08884000",
    "native": null,
    "timezone": null,
    "translations": {}
  },
  {
    "id": 41473,
    "name": "Dieulefit",
    "state_id": 4798,
    "state_code": "ARA",
    "country_id": 75,
    "country_code": "FR",
    "latitude": "44.52563000",
    "longitude": "5.06180000",
    "native": null,
    "timezone": null,
    "translations": {}
  },
  {
    "id": 41485,
    "name": "Dingy-Saint-Clair",
    "state_id": 4798,
    "state_code": "ARA",
    "country_id": 75,
    "country_code": "FR",
    "latitude": "45.90664000",
    "longitude": "6.22554000",
    "native": null,
    "timezone": null,
    "translations": {}
  },
  {
    "id": 41489,
    "name": "Diou",
    "state_id": 4798,
    "state_code": "ARA",
    "country_id": 75,
    "country_code": "FR",
    "latitude": "46.53432000",
    "longitude": "3.74453000",
    "native": null,
    "timezone": null,
    "translations": {}
  },
  {
    "id": 41497,
    "name": "Divonne-les-Bains",
    "state_id": 4798,
    "state_code": "ARA",
    "country_id": 75,
    "country_code": "FR",
    "latitude": "46.35710000",
    "longitude": "6.13494000",
    "native": null,
    "timezone": null,
    "translations": {}
  },
  {
    "id": 41506,
    "name": "Dolomieu",
    "state_id": 4798,
    "state_code": "ARA",
    "country_id": 75,
    "country_code": "FR",
    "latitude": "45.60540000",
    "longitude": "5.48571000",
    "native": null,
    "timezone": null,
    "translations": {}
  },
  {
    "id": 41511,
    "name": "Domancy",
    "state_id": 4798,
    "state_code": "ARA",
    "country_id": 75,
    "country_code": "FR",
    "latitude": "45.91205000",
    "longitude": "6.65271000",
    "native": null,
    "timezone": null,
    "translations": {}
  },
  {
    "id": 41512,
    "name": "Domarin",
    "state_id": 4798,
    "state_code": "ARA",
    "country_id": 75,
    "country_code": "FR",
    "latitude": "45.58662000",
    "longitude": "5.24599000",
    "native": null,
    "timezone": null,
    "translations": {}
  },
  {
    "id": 41526,
    "name": "Domène",
    "state_id": 4798,
    "state_code": "ARA",
    "country_id": 75,
    "country_code": "FR",
    "latitude": "45.20289000",
    "longitude": "5.83335000",
    "native": null,
    "timezone": null,
    "translations": {}
  },
  {
    "id": 41527,
    "name": "Domérat",
    "state_id": 4798,
    "state_code": "ARA",
    "country_id": 75,
    "country_code": "FR",
    "latitude": "46.36036000",
    "longitude": "2.53455000",
    "native": null,
    "timezone": null,
    "translations": {}
  },
  {
    "id": 41515,
    "name": "Domessin",
    "state_id": 4798,
    "state_code": "ARA",
    "country_id": 75,
    "country_code": "FR",
    "latitude": "45.54739000",
    "longitude": "5.70495000",
    "native": null,
    "timezone": null,
    "translations": {}
  },
  {
    "id": 41522,
    "name": "Dompierre-sur-Besbre",
    "state_id": 4798,
    "state_code": "ARA",
    "country_id": 75,
    "country_code": "FR",
    "latitude": "46.52214000",
    "longitude": "3.68106000",
    "native": null,
    "timezone": null,
    "translations": {}
  },
  {
    "id": 41524,
    "name": "Dompierre-sur-Veyle",
    "state_id": 4798,
    "state_code": "ARA",
    "country_id": 75,
    "country_code": "FR",
    "latitude": "46.07108000",
    "longitude": "5.20232000",
    "native": null,
    "timezone": null,
    "translations": {}
  },
  {
    "id": 41537,
    "name": "Donzère",
    "state_id": 4798,
    "state_code": "ARA",
    "country_id": 75,
    "country_code": "FR",
    "latitude": "44.44246000",
    "longitude": "4.71134000",
    "native": null,
    "timezone": null,
    "translations": {}
  },
  {
    "id": 41543,
    "name": "Dortan",
    "state_id": 4798,
    "state_code": "ARA",
    "country_id": 75,
    "country_code": "FR",
    "latitude": "46.31973000",
    "longitude": "5.66028000",
    "native": null,
    "timezone": null,
    "translations": {}
  },
  {
    "id": 41557,
    "name": "Doussard",
    "state_id": 4798,
    "state_code": "ARA",
    "country_id": 75,
    "country_code": "FR",
    "latitude": "45.77512000",
    "longitude": "6.22553000",
    "native": null,
    "timezone": null,
    "translations": {}
  },
  {
    "id": 41558,
    "name": "Douvaine",
    "state_id": 4798,
    "state_code": "ARA",
    "country_id": 75,
    "country_code": "FR",
    "latitude": "46.30544000",
    "longitude": "6.30375000",
    "native": null,
    "timezone": null,
    "translations": {}
  },
  {
    "id": 41563,
    "name": "Doyet",
    "state_id": 4798,
    "state_code": "ARA",
    "country_id": 75,
    "country_code": "FR",
    "latitude": "46.33558000",
    "longitude": "2.79718000",
    "native": null,
    "timezone": null,
    "translations": {}
  },
  {
    "id": 41580,
    "name": "Drumettaz",
    "state_id": 4798,
    "state_code": "ARA",
    "country_id": 75,
    "country_code": "FR",
    "latitude": "45.66136000",
    "longitude": "5.92191000",
    "native": null,
    "timezone": null,
    "translations": {}
  },
  {
    "id": 41591,
    "name": "Dunières",
    "state_id": 4798,
    "state_code": "ARA",
    "country_id": 75,
    "country_code": "FR",
    "latitude": "45.21558000",
    "longitude": "4.34471000",
    "native": null,
    "timezone": null,
    "translations": {}
  },
  {
    "id": 41597,
    "name": "Durtol",
    "state_id": 4798,
    "state_code": "ARA",
    "country_id": 75,
    "country_code": "FR",
    "latitude": "45.79621000",
    "longitude": "3.05156000",
    "native": null,
    "timezone": null,
    "translations": {}
  },
  {
    "id": 48036,
    "name": "Ébreuil",
    "state_id": 4798,
    "state_code": "ARA",
    "country_id": 75,
    "country_code": "FR",
    "latitude": "46.11548000",
    "longitude": "3.08677000",
    "native": null,
    "timezone": null,
    "translations": {}
  },
  {
    "id": 48038,
    "name": "Échalas",
    "state_id": 4798,
    "state_code": "ARA",
    "country_id": 75,
    "country_code": "FR",
    "latitude": "45.55203000",
    "longitude": "4.71544000",
    "native": null,
    "timezone": null,
    "translations": {}
  },
  {
    "id": 48039,
    "name": "Échenevex",
    "state_id": 4798,
    "state_code": "ARA",
    "country_id": 75,
    "country_code": "FR",
    "latitude": "46.30923000",
    "longitude": "6.03963000",
    "native": null,
    "timezone": null,
    "translations": {}
  },
  {
    "id": 48042,
    "name": "Échirolles",
    "state_id": 4798,
    "state_code": "ARA",
    "country_id": 75,
    "country_code": "FR",
    "latitude": "45.14603000",
    "longitude": "5.71441000",
    "native": null,
    "timezone": null,
    "translations": {}
  },
  {
    "id": 48056,
    "name": "Écully",
    "state_id": 4798,
    "state_code": "ARA",
    "country_id": 75,
    "country_code": "FR",
    "latitude": "45.77437000",
    "longitude": "4.77758000",
    "native": null,
    "timezone": null,
    "translations": {}
  },
  {
    "id": 41675,
    "name": "Ennezat",
    "state_id": 4798,
    "state_code": "ARA",
    "country_id": 75,
    "country_code": "FR",
    "latitude": "45.89772000",
    "longitude": "3.22348000",
    "native": null,
    "timezone": null,
    "translations": {}
  },
  {
    "id": 41682,
    "name": "Entre-Deux-Guiers",
    "state_id": 4798,
    "state_code": "ARA",
    "country_id": 75,
    "country_code": "FR",
    "latitude": "45.43061000",
    "longitude": "5.75209000",
    "native": null,
    "timezone": null,
    "translations": {}
  },
  {
    "id": 41684,
    "name": "Enval",
    "state_id": 4798,
    "state_code": "ARA",
    "country_id": 75,
    "country_code": "FR",
    "latitude": "45.89921000",
    "longitude": "3.04981000",
    "native": null,
    "timezone": null,
    "translations": {}
  },
  {
    "id": 48069,
    "name": "Épagny",
    "state_id": 4798,
    "state_code": "ARA",
    "country_id": 75,
    "country_code": "FR",
    "latitude": "45.93584000",
    "longitude": "6.08302000",
    "native": null,
    "timezone": null,
    "translations": {}
  },
  {
    "id": 48082,
    "name": "Épinouze",
    "state_id": 4798,
    "state_code": "ARA",
    "country_id": 75,
    "country_code": "FR",
    "latitude": "45.31003000",
    "longitude": "4.92936000",
    "native": null,
    "timezone": null,
    "translations": {}
  },
  {
    "id": 41713,
    "name": "Escoutoux",
    "state_id": 4798,
    "state_code": "ARA",
    "country_id": 75,
    "country_code": "FR",
    "latitude": "45.81942000",
    "longitude": "3.56336000",
    "native": null,
    "timezone": null,
    "translations": {}
  },
  {
    "id": 41717,
    "name": "Espaly-Saint-Marcel",
    "state_id": 4798,
    "state_code": "ARA",
    "country_id": 75,
    "country_code": "FR",
    "latitude": "45.04790000",
    "longitude": "3.86557000",
    "native": null,
    "timezone": null,
    "translations": {}
  },
  {
    "id": 41735,
    "name": "Estivareilles",
    "state_id": 4798,
    "state_code": "ARA",
    "country_id": 75,
    "country_code": "FR",
    "latitude": "46.42526000",
    "longitude": "2.61872000",
    "native": null,
    "timezone": null,
    "translations": {}
  },
  {
    "id": 41736,
    "name": "Estrablin",
    "state_id": 4798,
    "state_code": "ARA",
    "country_id": 75,
    "country_code": "FR",
    "latitude": "45.51546000",
    "longitude": "4.96173000",
    "native": null,
    "timezone": null,
    "translations": {}
  },
  {
    "id": 41740,
    "name": "Etaux",
    "state_id": 4798,
    "state_code": "ARA",
    "country_id": 75,
    "country_code": "FR",
    "latitude": "46.06835000",
    "longitude": "6.29533000",
    "native": null,
    "timezone": null,
    "translations": {}
  },
  {
    "id": 48106,
    "name": "Étoile-sur-Rhône",
    "state_id": 4798,
    "state_code": "ARA",
    "country_id": 75,
    "country_code": "FR",
    "latitude": "44.83883000",
    "longitude": "4.89050000",
    "native": null,
    "timezone": null,
    "translations": {}
  },
  {
    "id": 48109,
    "name": "Étrembières",
    "state_id": 4798,
    "state_code": "ARA",
    "country_id": 75,
    "country_code": "FR",
    "latitude": "46.17923000",
    "longitude": "6.22725000",
    "native": null,
    "timezone": null,
    "translations": {}
  },
  {
    "id": 41744,
    "name": "Eurre",
    "state_id": 4798,
    "state_code": "ARA",
    "country_id": 75,
    "country_code": "FR",
    "latitude": "44.75825000",
    "longitude": "4.98843000",
    "native": null,
    "timezone": null,
    "translations": {}
  },
  {
    "id": 48118,
    "name": "Évian-les-Bains",
    "state_id": 4798,
    "state_code": "ARA",
    "country_id": 75,
    "country_code": "FR",
    "latitude": "46.40111000",
    "longitude": "6.58793000",
    "native": null,
    "timezone": null,
    "translations": {}
  },
  {
    "id": 48120,
    "name": "Évires",
    "state_id": 4798,
    "state_code": "ARA",
    "country_id": 75,
    "country_code": "FR",
    "latitude": "46.03783000",
    "longitude": "6.22453000",
    "native": null,
    "timezone": null,
    "translations": {}
  },